,name,address,review_count,rating,price,categories,latitude_yelp,longitude_yelp,yelp_id,hours,program_name,facility_address,facility_city
0,,,,,,,,,,,BORU'S MARKET,5957 S SAN PEDRO ST,LOS ANGELES
1,Seaside Grill And Cafe,,7,2.5,$$,"Mediterranean, Hookah Bars",33.83908,-118.38511,pEPnoUn27AdBO_cI8-BaiA,,SEASIDE GRILL AND CAFE,234 S PACIFIC COAST HWY # 102,REDONDO BEACH
2,,,,,,,,,,,ALPHA DISCOUNT,309 W ARBOR VITAE ST,INGLEWOOD
3,Soho House West Hollywood,,374,4.5,$$$$,"Middle Eastern, Cocktail Bars, Venues & Event Spaces",34.08980116,-118.3928111,mfRAMQGOdQk_v1CmjXq3Eg,,SOHO TERRACE BAR,9200 W SUNSET BLVD,WEST HOLLYWOOD
4,Sweet Frog Premium Frozen Yogurt,,113,4.5,$,Ice Cream & Frozen Yogurt,34.57413,-118.045793,mOfsl8x0kCN55IomdZxtQw,,SWEET FROG,38029 E 47TH ST E STE A,PALMDALE
5,,,,,,,,,,,BREWWELL COFFEE,6515 SUNSET BLVD,LOS ANGELES
6,Pop Boba,,177,3.5,$,"Desserts, Coffee & Tea, Bubble Tea",33.8209564,-118.3522223,R-yeNn609VJeBQ6Ujyv-Ug,,POP BOBA,22749 HAWTHORNE BLVD,TORRANCE
7,Ralphs,,123,3,$$,"Grocery, Drugstores, Bakeries",33.89612304,-118.3944992,jvlyz3sgEfMRumVIAlITGA,,RALPHS #166 BAKERY DEPT,2700 N SEPULVEDA BLVD,MANHATTAN BEACH
8,The Fifth,,174,4,$,"Lounges, Dive Bars",34.15862215,-118.4062672,yEdvSmy3p8XjWdaO2XknIg,,THE FIFTH,4821 WHITSETT AVE,VALLEY VILLAGE
9,AMC Rolling Hills 20,,395,3,,Cinema,33.79174,-118.3293,xRHKfn9rXLYzL-9et9Yt3g,,AMC ROLLING HILLS 20,2591 AIRPORT DR,TORRANCE
10,Antojitos Cuquio,,1,5,$,"Desserts, Ice Cream & Frozen Yogurt",33.945168,-118.2166595,Xt0bRw8kmj4ugCxEzGB4XQ,,ANTOJITOS CUQUIO,3100 TWEEDY BLVD,SOUTH GATE
11,Sun Donut,,4,3.5,$,Donuts,34.0403651,-118.189659,c5Iwyea1y2xyh121XjQSKg,,SUN DONUT,3484 E CESAR E CHAVEZ AVE,LOS ANGELES
12,Fair Market,,13,4.5,$,Grocery,34.0072199,-118.48434,TXgcsqnJ4DX-x62zq4c6sw,,FAIR MARKET,2225 4TH ST,SANTA MONICA
13,Chevron Stations,,16,2.5,,Gas Stations,34.03437,-118.27155,ikoAf9sqOkYowbnQnq0OrA,,CHEVRON FOOD MART,525 W WASHINGTON BLVD,LOS ANGELES
14,Los Paisas 1 Mini Market,,1,5,,"Beer, Wine & Spirits, Grocery",33.97911866,-118.241005,qj3IgdgTGIQmORmtL4iDgQ,,LOS PAISAS #1 MINI MARKET,6618 HOLMES AVE,LOS ANGELES
15,K2 Market,,1,3,,Grocery,34.6841247,-118.1478551,bdSbA-LBhNDHq-dfSnUyPg,,K-2 MARKET,44116 W 10TH ST W # 111,LANCASTER
16,Mother's Nutritional Centers,,5,3.5,,"Grocery, Health Markets",33.930571,-118.287455,#NAME?,,MOTHER'S NUTRITION CENTER209,700 W IMPERIAL HWY # 104-5,LOS ANGELES
17,Ok Liquor,,3,5,$$,"Beer, Wine & Spirits",33.83901596,-118.0822372,zF9AGB9YxTQp8edDzKBAAQ,,OK LIQUOR,20915 PIONEER BLVD,LAKEWOOD
18,Quick Stop Wine Market Liquor,,126,4.5,$$,"Beer, Wine & Spirits",33.87323592,-118.3695474,Ai2mV0BNRHBSNk4qecyFow,,QUICK STOP MARKET,2301 ARTESIA BLVD STE 5,REDONDO BEACH
19,,,,,,,,,,,LEVEL II CONCEPSSION,6360 W SUNSET BLVD,LOS ANGELES
20,Vons,,233,2,$$,"Grocery, Pharmacy",34.12942847,-118.2586403,58GfA_dOfTjS5YWZTz1MTw,,VONS STARBUCKS #2254,311 W LOS FELIZ RD,GLENDALE
21,El Pavo Bakeries,,9,3,$,"Bakeries, Mexican",34.018412,-118.206563,oEVmPscSMFC57G5Ro1PRQg,,EL PAVO BAKERY,3350 E OLYMPIC BLVD,LOS ANGELES
22,Teriyaki Madness,,53,3,$,"Asian Fusion, Japanese",34.11475935,-117.8292781,F4Uj6E8q_UFlmLHy1navsA,,TERIYAKI MADNESS,1331 S LONE HILL AVE # 110,GLENDORA
23,Tommie's Castaic Cafe,,154,4.5,$,"American (New), Breakfast & Brunch",34.49174,-118.6181,JMuTxeWqGqgopIBLrvZFlQ,,TOMMIES CASTAIC CAFE,31526 CASTAIC RD,CASTAIC
24,Super Tacos Culiacan,,32,3.5,$$,Mexican,33.90405655,-118.151062,oP_QsSvVC1qKqtwi518etw,,SUPER TACOS CULIACAN,8505 ROSECRANS AVE STE B2,PARAMOUNT
25,Jr's Neighborhood Market,,2,5,$,Convenience Stores,33.969871,-118.155433,obFq78PqXMwMnqsciWY5Gg,,JABONERIA MARKET,6800 JABONERIA RD,BELL GARDENS
26,,,,,,,,,,,GINA'S MARKET,2815 S WESTERN AVE,LOS ANGELES
27,,,,,,,,,,,ARCO MINI MART,11243 SAN FERNANDO RD,SAN FERNANDO
28,Miami Ice Snow Creamery,,51,4.5,$,"Shaved Ice, Ice Cream & Frozen Yogurt",34.15693,-118.48411,288IP2xxZz0aUiH0BmrCKw,,MIAMI ICE,16101 VENTURA BLVD,ENCINO
29,Movita Juice Bar,,7,3.5,$$,Juice Bars & Smoothies,33.9391,-118.04935,B8Ri1DxkO4l2zhdab5pWYA,,MOVITA JUICE  BAR,13332 TELEGRAPH RD,SANTA FE SPRINGS
30,Boba Loca,,193,3.5,$,"Coffee & Tea, Juice Bars & Smoothies",33.82151,-118.32885,_SFfv3-KBLCH6n5-kQRfiA,,BOBA LOCA TORRANCE 1,22501 CRENSHAW BLVD STE 200,TORRANCE
31,Andante Coffee Roasters,,104,4.5,$,Coffee Roasteries,34.04517,-118.25804,-0mw98zl4_wKPdIoEsa-CQ,,"ANDANTE COFFEE ROASTERS, INC",816 S GRAND AVE,LOS ANGELES
32,CVS Pharmacy,,50,2.5,$$,"Drugstores, Pharmacy, Convenience Stores",33.832734,-118.124811,kpdnQ-waHE6Pn2SzbWZkcg,,CVS PHARMACY,5505 CARSON ST,LAKEWOOD
33,,,,,,,,,,,STARBUCKS,1832 DURFEE AVE,SOUTH EL MONTE
34,Big Lots,,39,3,$$,"Department Stores, Discount Store",33.85279435,-118.1432025,ubE3S3TmRk7ZdV1d87KOcg,,BIG LOTS #1910,5227 N LAKEWOOD BLVD,LAKEWOOD
35,Save A Lot,,1,2,,Grocery,33.95988083,-118.2545929,aguwFY-BaSw7RopJ_-bwdA,,SAVE A LOT #775,8601 HOOPER AVE,LOS ANGELES
36,Chipotle Mexican Grill,,90,2,$,"Mexican, Fast Food",33.92222904,-118.1315477,LQVlPMGXX07YrsgxyOhx3Q,,CHIPOTLE MEXICAN GRILL #2446,8890 APOLLO WAY # A,DOWNEY
37,Boba Loca,,88,3,$,Juice Bars & Smoothies,33.9782387,-118.1871655,ce8bMSZLFTZLlELhEFOo7Q,,BOBA LOCA,6391 ATLANTIC AVE,BELL
38,Sago Boba Shop,,160,4.5,$,"Bubble Tea, Juice Bars & Smoothies",34.20307278,-118.6055173,wjh5TKavgtpaygdXs2XPlA,,SAGO SMOOTHIE & BOBA SHOP,7300 TOPANGA CANYON BLVD # 4,CANOGA PARK
39,Burrito Factory,,158,3,$,Mexican,34.4227599,-118.53948,ndzXYJ80Y76lRqpp18sLPA,,BURRITO FACTORY,23029 SOLEDAD CANYON RD,SANTA CLARITA
40,Potato Corner,,141,3,$,"Specialty Food, Fast Food, Chicken Wings",34.238621,-118.55542,pkFu0DZ_mw0NQE2Z0E_AGA,,POTATO CORNER,9301 TAMPA AVE #20,NORTHRIDGE
41,Du Vin Wine & Spirits,,62,4.5,$$,"Beer, Wine & Spirits",34.081101,-118.382634,91AWen7dI8r0RvpMZvUNcw,,DU VIN WINE AND SPIRITS,540 N SAN VICENTE BLVD,WEST HOLLYWOOD
42,Jin Jiang Restaurant,,333,3.5,$$,Chinese,34.04829647,-118.4433309,sMT1k-OCLEmhvXiZDWx1lQ,,JIN JIANG CHINESE RESTAURANT,11057 SANTA MONICA BLVD,LOS ANGELES
43,,,,,,,,,,,GROWING HEALTHY,1022 E CHEVY CHASE DR STE E,GLENDALE
44,,,,,,,,,,,CPK,100 WORLD WAY # 126,LOS ANGELES
45,C & C Donuts,,31,4.5,$,Donuts,33.83212662,-118.2927322,zXDxxKUUn5zXwCnf1rlQUg,,C&C DONUTS,1001 W CARSON ST STE #C,TORRANCE
46,,,,,,,,,,,JR RESTAURANT & BAR,13668 VAN NUYS BLVD,PACOIMA
47,The Pizza Press,,432,4.5,$$,"Pizza, Salad",34.090256,-118.344709,b70vpwtxvVyEMJ1SInceug,,PIZZA PRESS,7100 SANTA MONICA BLVD # 151,WEST HOLLYWOOD
48,North End Pizzeria,,191,4,$$,Pizza,34.1727103,-118.3318892,G39U3-VpDqujFyaU-fzi5w,,NORTH END PIZZERIA OF MAGNOLIA,2206 W MAGNOLIA BLVD,BURBANK
49,Smart & Final Extra!,,26,3,$$,Grocery,34.298577,-118.439469,wBKo2cQ44k99bktJqH0GOA,,SMART & FINAL MARKET,2060 GLENOAKS BLVD,SAN FERNANDO
50,Arby's,,39,3.5,$,"Fast Food, Sandwiches",34.604701,-118.148404,bFmJchy9yyS7WmGJUDelYg,,ARBY'S RESTAURANT # 6993,1037 W RANCHO VISTA BLVD,PALMDALE
51,,,,,,,,,,,EL MERCADITO CHALATECO,6801 LANKERSHIM BLVD,NORTH HOLLYWOOD
52,Costco Optical,,16,2.5,,Eyewear & Opticians,34.18568,-118.324043,ErXlJe7VfVXvpLZRewW8nw,,COSTCO #677,1051 W BURBANK BLVD,BURBANK
53,Baskin-Robbins,,30,2,$,"Ice Cream & Frozen Yogurt, Desserts, Custom Cakes",33.90992737,-118.3261642,0hDPhwwxMLN2-TkXrVVygA,,BASKIN ROBBINS 31 ICE CREAM,13424 CRENSHAW BLVD,GARDENA
54,It's Boba Time,,189,4,$,"Coffee & Tea, Shaved Ice, Juice Bars & Smoothies",34.0978123,-118.3359383,l-NrEOJODP3j533NbzDX7g,,IT'S BOBA TIME,6660 W SUNSET BLVD STE Q,LOS ANGELES
55,The Coffee Bean & Tea Leaf,,102,4,$$,Coffee & Tea,34.157188,-118.484118,r1gZsTtsuzTpur1be435uA,,THE COFFEE BEAN & TEA LEAF,16101 VENTURA BLVD STE 180,ENCINO
56,Arcadia Mobil Service Center,,49,2.5,,"Auto Repair, Smog Check Stations",34.12648,-118.05423,iDhzybiWsL3XCXOpLeVzKA,,ARCADIA MOBIL SERVICE CENTER,679 W DUARTE RD,ARCADIA
57,,,,,,,,,,,SONIA'S MARKET,5043 S NORMANDIE AVE,LOS ANGELES
58,,,,,,,,,,,ABC MARKET,4746 ELIZABETH ST,CUDAHY
59,,,,,,,,,,,MY GOODS MARKET #5615,400 W ARBOR VITAE ST,INGLEWOOD
60,Pistachio Kitchen,,120,4,$$,"Vietnamese, Chinese, Asian Fusion",34.0623063,-118.1140645,2JA-aeDsi2Sfd-6-81NP3Q,,PISTACHIO KITCHEN,580 E GARVEY AVE,MONTEREY PARK
61,,,,,,,,,,,CRENSHAW OIL,3227 W 54TH ST,LOS ANGELES
62,Jack in the Box,,20,2,$,"Burgers, Fast Food, Tacos",33.96727677,-118.1166396,Ugi7F7afr8uefy73i0Ed1A,,JACK IN THE BOX,8140 TELEGRAPH RD,DOWNEY
63,Starbucks,,41,3.5,$,Coffee & Tea,34.051438,-118.255335,NhNRRy5cILhBvW7h_tgHUg,,STARBUCKS COFFEE #5291,444 S FLOWER ST STE #170,LOS ANGELES
64,Burger King,,62,1.5,$,"Burgers, Fast Food",34.2982496,-118.43804,B0Up7SIHXbEarqNfiLolcg,,BURGER KING,2008 GLENOAKS BLVD,SAN FERNANDO
65,The Salvation Army,,3,5,,Community Service/Non-Profit,34.18696,-118.45814,LFgeNdR7KPDqs233tXr6Cw,,THE SALVATION ARMY,14917 VICTORY BLVD,VAN NUYS
66,am/pm,,25,1.5,,Convenience Stores,34.1646465,-118.3961738,MrnQk-ft5AOl3F7juZCWSg,,ARCO AM/PM MINI MARKET,5158 LAUREL CANYON BLVD,VALLEY VILLAGE
67,,,,,,,,,,,WEINERSCHNITZEL,4714 W SLAUSON AVE,LOS ANGELES
68,The Hollywood Bowl Stand,,3,3.5,,"Food Stands, Venues & Event Spaces",34.11151,-118.33656,GSF9Ln-9CaN0dp_dzW9y6g,,SODEXO @ THE HOLLYWOOD BOWL - HOLLYWOOD BOWL MAIN KITCHEN,2301 N HIGHLAND AVE,LOS ANGELES
69,,,,,,,,,,,PROOF SUNDRY,2388 GLENDALE BLVD # A,LOS ANGELES
70,Blaze Pizza,,409,3.5,$$,"Pizza, Salad, Fast Food",33.9020249,-118.3716793,wemCjYuf3u8-Fewx_g70Ng,,BLAZE PIZZA  #1118,5221 W ROSECRANS AVE,HAWTHORNE
71,Cheviot Chevron,,10,2,,Gas Stations,34.03276,-118.39047,tVUO_qzs16iHby3cFGwaQQ,,CHEVIOT CHEVRON,3029 S ROBERTSON BLVD,LOS ANGELES
72,,,,,,,,,,,FORUM CLUB BAR 1 - 2ND FLOOR,3900 W MANCHESTER BLVD,INGLEWOOD
73,Wingstop,,101,2,$$,Chicken Wings,34.077526,-118.039781,M8zzqqMjvV8mD_bEzkfuog,,WINGSTOP #1169,10619 VALLEY BLVD # F,EL MONTE
74,Carl's Jr,,27,2.5,$,"Fast Food, Burgers",33.98236111,-118.247999,MNA7YfdMLjLJI5jEGOgZ1g,,CARL'S JR #440,1439 E GAGE AVE,LOS ANGELES
75,,,,,,,,,1tglJ2fl77WuvFXI1toNdw,,GROG SHOP #2,10211 COLIMA RD,WHITTIER
76,The Coffee Bean & Tea Leaf,,98,3.5,$,Coffee & Tea,34.04285,-118.376162,#NAME?,,THE COFFEE BEAN & TEA LEAF,1845 S LA CIENEGA BLVD # B,LOS ANGELES
77,The Blue Moon Lounge,,89,4,$,"Lounges, Sports Bars, Pool Halls",34.2029817,-118.2268659,HRxD9kAvv5y3eoo2ABCArg,,BLUE MOON LOUNGE,3509 N VERDUGO RD,GLENDALE
78,Baskin-Robbins,,42,3.5,$,"Ice Cream & Frozen Yogurt, Custom Cakes, Desserts",34.2573949,-118.5791325,vEbvIcAEF25SNBXuZztyAg,,BASKIN ROBBINS 31 FLAVORS ICE CREAM,20445 DEVONSHIRE ST,CHATSWORTH
79,,,,,,,,,,,7-STAR COFFEE #3,650 S HILL ST STE S-1,LOS ANGELES
80,,,,,,,,,,,HOME GOODS # 443,935 FOOTHILL BLVD,LA CANADA FLINTRIDGE
81,,,,,,,,,,,TRIPLE TREES,11010 LOWER AZUSA RD,EL MONTE
82,Big Saver Foods,,30,2.5,$$,Grocery,33.97896889,-118.0901227,r0RWkGSjzllccwkFlQVOeA,,BIG SAVER FOODS #14 BAKERY,9406 E WASHINGTON BLVD,PICO RIVERA
83,Wienerschnitzel,,53,3,$,"Fast Food, Hot Dogs, Sandwiches",34.20134056,-118.5894324,QE4ttw5U8rVH77x3-PDNBA,,WIENERSCHNITZEL,20925 SHERMAN WAY,CANOGA PARK
84,Zacatecas Bar,,3,3,$$$$,Sports Bars,33.982227,-118.278008,6Ad8gZqeaA93FVmG05Pjcg,,ZACATECAS BAR,6300 S BROADWAY,LOS ANGELES
85,Artos Pizza,,120,4.5,$,Pizza,34.14243,-118.23526,dPWlINwQNg2AuF5GwF7jeg,,ARTO'S PIZZA,1360 E COLORADO ST # A,GLENDALE
86,,,,,,,,,,,PIPELINE PIZZA EXPRESS,111 RAGING WATERS DR,SAN DIMAS
87,Club fenix,,1,5,,Juice Bars & Smoothies,34.276055,-118.396719,oWXxAxw3oAAK_HbneDyJdw,,CLUB DE SALUD,11942 FOOTHILL BLVD,LAKE VIEW TERRACE
88,Numero Uno Market,,42,2.5,$,Grocery,34.06174029,-118.0521577,F8Hrp44q1iTnXyhRLeO99w,,BUY LOW MARKET,9900 E GARVEY AVE,SOUTH EL MONTE
89,Mitsuwa Marketplace,,318,3.5,$$,"International Grocery, Sushi Bars, Japanese",34.10281,-118.10682,PqwNHJcAu-Io6XQ5Vhs1vw,,MITSUWA MARKETPLACE,515 W LAS TUNAS DR,SAN GABRIEL
90,,,,,,,,,,,ROSECRANS PETROLEUM,14221 FIGUEROA ST,LOS ANGELES
91,,,,,,,,,,,SEAN'S LIQUOR,1683 W 11TH ST,LOS ANGELES
92,One Life Natural Foods,,75,3.5,$$$,Health Markets,33.9985179,-118.4798902,ANdx3t5Hgj7mMDKaYpZjww,,ONE LIFE NATURAL FOODS,3001 MAIN ST,SANTA MONICA
93,,,,,,,,,,,DAISY'S 99 CENT STORES,547 S EUCLID AVE,LOS ANGELES
94,Logra Tu Meta,,2,5,$,Vitamins & Supplements,34.0753479,-118.0383606,mHEhCjHs1vtpS_ZDdRKkJQ,,LOGRA TU META,3617 MONTEREY AVE,EL MONTE
95,,,,,,,,,,,DIANA'S MARKET,3807 E CESAR E CHAVEZ AVE,LOS ANGELES
96,Food 4 Less,,24,2.5,$,Grocery,33.97622,-118.22958,z_EFbAgpq5pLanjcys-lrQ,,FOOD 4 LESS #321 - (DELI),6920 SANTA FE AVE,HUNTINGTON PARK
97,Agoura Mexican Cafe,,61,3.5,$,"Mexican, Salad, Seafood",34.15734233,-118.7570404,ZyqXLvzCNn9CPllqO7HnaQ,,AGOURA MEXICA CAFE,5905 KANAN RD,AGOURA HILLS
98,Big Lots - Diamond Bar,,17,3.5,$,Department Stores,34.0026207,-117.8107834,TvYojsLWk3_ttBeljHCZ4g,,BIG LOTS #4284,1139 S DIAMOND BAR BLVD,DIAMOND BAR
99,,,,,,,,,,,SUPER MERCADO SAN CARLOS,2801 N MAIN ST,LOS ANGELES
100,Hall's Krispy Krunchy Chicken,,39,4.5,$,Food Court,33.98848019,-118.3049562,s7eH-HbbKLYHsuUA9C-Lbw,,KRISPY KRUNCHY CHICKEN #4605,1600 W SLAUSON AVE # I31,LOS ANGELES
101,Panda Express,,31,3,$,"Chinese, Fast Food",34.036341,-118.084554,SSX53snYnx-VdMeXIQeTAQ,,PANDA EXPRESS #351,1632 MONTEBELLO TOWN CTR,MONTEBELLO
102,Walmart,,85,2.5,$,"Grocery, Department Stores",33.924452,-118.12862,ALHjaZQMaoa72GemqrBO2w,,WALMART #4132,9001 APOLLO WAY,DOWNEY
103,Carl's Jr,,71,2,$,"Fast Food, Burgers",34.1859864,-118.6425374,W7pD8xsyDyjhyG3WvZZGiA,,CARL'S JR,6310 PLATT AVE,WOODLAND HILLS
104,,,,,,,,,,,TOP PRODUCE MARKET,7444 1/2 VAN NUYS BLVD,VAN NUYS
105,Sweeties Bakery,,121,4,$,Bakeries,33.89441,-118.3005849,vtTbIWuGozJojLpUGg1c3Q,,SWEETIE'S BAKERY,15109 S NORMANDIE AVE,GARDENA
106,Vietnam House,,542,3.5,$,Vietnamese,34.101785,-118.110538,mlEUSRm6gzzuSyQW0MEcRQ,,VIETNAM HOUSE RESTAURANT,710 W LAS TUNAS DR STE C5-7,SAN GABRIEL
107,The Oaks Club at Valencia,,61,4,,"Golf, Venues & Event Spaces",34.402728,-118.583019,x1ceztN01yTnzSoTnXzO4w,,T P C AT VALENCIA SNACK SHOP,26550 HERITAGE VIEW LN,STEVENSON RANCH
108,Edible Arrangements,,61,3,$$,"Chocolatiers & Shops, Gift Shops, Florists",34.0575309,-118.4432819,P_GE9MT2QSfwIo6vi3SgJA,,EDIBLE ARRANGEMENTS,1265 WESTWOOD BLVD,LOS ANGELES
109,7-Eleven,,9,2,$,"Convenience Stores, Coffee & Tea",33.98858934,-118.3381243,47TKxqOD52PjWk5u3cjsXQ,,7-ELEVEN #39672,3708 W SLAUSON AVE,LOS ANGELES
110,,,,,,,,,,,98 CENT DISCOUT STORE & MKT,2871 E GAGE AVE,HUNTINGTON PARK
111,Sweet Factory,,5,3,$,Candy Stores,34.03704318,-118.0848339,DdpBzgI0ir7g2A8U1n1bZA,,SWEET FACTORY #456,2134 MONTEBELLO TOWN CENTER UNIT A-9,MONTEBELLO
112,,,,,,,,,,,DOLLAR TREE,305 E FOOTHILL BLVD,POMONA
113,California Natural Center,,1,1,,Health Markets,33.966808,-118.2039427,SoF40O8l0TaE4NTdaVF01Q,,CALIFORNIA NATURAL CENTER,3508 GRAND AVE,HUNTINGTON PARK
114,,,,,,,,,,,LUCKY 99 CENTS & UP STORE,3828 CITY TERRACE DR,LOS ANGELES
115,Eastside Ice,,6,5,$,Shaved Ice,34.02400642,-118.1707239,snChlIg0N-4FiTrGfKfA1g,,EAST LOS ANGELES ICE COMPANY,760 S FORD BLVD,LOS ANGELES
116,Baskin-Robbins,,20,2.5,$,"Ice Cream & Frozen Yogurt, Desserts, Custom Cakes",34.26004987,-118.3236699,LZbAl2hzgLF4QGjWpLcqzQ,,BASKIN-ROBBINS,8700 FOOTHILL BLVD,SUNLAND
117,Residuals Tavern,,76,4.5,$,"Sports Bars, Karaoke, Dive Bars",34.14058,-118.37149,3oNkCx4O6C_zosagaQDGvQ,,RESIDUALS TAVERN,11042 S VENTURA BLVD,STUDIO CITY
118,,,,,,,,,,,BAR,333 S BOYLSTON ST,LOS ANGELES
119,Vons,,186,2,$$,Grocery,33.999198,-118.42888,wIHPsgj_c8-5EHKC5V4LQg,,VONS #2270,4030 S CENTINELA AVE,LOS ANGELES
120,,,,,,,,,,,CHOP' D,12754 LA MIRADA BLVD,LA MIRADA
121,,,,,,,,,,,UNOCAL,1944 PICO BLVD,SANTA MONICA
122,Barbeques Galore,,38,3,$$,"Appliances, Grilling Equipment, Tableware",33.86484,-118.35306,L5pgFBZUJ8T0G27IumRrMw,,BARBEQUES GALORE #10122,18225 HAWTHORNE BLVD,TORRANCE
123,7-Eleven,,10,2.5,$,"Convenience Stores, Coffee & Tea",33.93132335,-118.3006887,d-aPoHdzj_OyZV58H63hkA,,7-ELEVEN #37042A,11255 S NORMANDIE AVE,LOS ANGELES
124,,,,,,,,,,,MARIANA'S NUTS,14650 PARTHENIA ST,PANORAMA CITY
125,,,,,,,,,,,EL RINCONCITO WATER MARKET,1603 E 99TH ST,LOS ANGELES
126,,,,,,,,,,,CERRITOS CHEVRON,13356 E SOUTH ST,CERRITOS
127,See's Candies,,46,4.5,$$,"Candy Stores, Gift Shops, Chocolatiers & Shops",34.134789,-118.050795,jdK2nDMW9-aWslvp9Bmbxw,,SEE'S CANDIES #86,400 S BALDWIN AVE #2H15,ARCADIA
128,Thai Original BBQ & Restaurant,,205,3,$,"Thai, Barbeque",34.22755741,-118.5356544,HfvCGWsr8fjmNolEG8GseA,,THAI ORIGINAL BBQ RESTAURANT,8650 RESEDA BLVD LOT 2 & 3,NORTHRIDGE
129,Starbucks,,21,2.5,$,Coffee & Tea,34.084018,-118.3859672,zQR1Gamh_88zxEBEFF1-yg,,STARBUCKS COFFEE #5232,8951 SANTA MONICA BLVD,WEST HOLLYWOOD
130,Taco Bell,,28,2.5,$,"Mexican, Fast Food",34.579058,-118.12949,L6vh1ws51YY6bBK_Q3ljgA,,TACO BELL #22820,102 W PALMDALE BLVD,PALMDALE
131,Sunland Produce,,153,4,$,"Grocery, Beer, Wine & Spirits, Butcher",34.229989,-118.365591,ugdHH_ZujbAyePZbQurpvA,,SUNLAND PRODUCE,8840 GLENOAKS BLVD,SUN VALLEY
132,AutoBahn Fuels,,12,3.5,$,"Gas Stations, Convenience Stores",34.12815197,-118.3471383,RQ_yiJfYVd9_UB_yqh0MDg,,AUTOBAHN FUELS INC.,3167 CAHUENGA BLVD W,LOS ANGELES
133,Subway,,10,3,$,Sandwiches,33.88718985,-118.2503468,Q5uWXaMt0xaDDedElTLV6Q,,SUBWAY #42694,909 S CENTRAL AVE,COMPTON
134,Kreate Pizza,,161,4,$,Pizza,34.1651307,-118.2809019,jMucXIKYFglMHS8Fud_JzQ,,KREATE PIZZA,1135 W GLENOAKS BLVD,GLENDALE
135,Chikara Mochi,,153,4.5,$,"Bakeries, Desserts",33.88465,-118.3087,DuKeEDWDeuazzb2v90ER0w,,CHIKARA MOCHI,16108 S WESTERN AVE,GARDENA
136,HK Market,,173,3.5,$$,Grocery,34.15849184,-118.2647008,RW7Ss6RY8NumhZ1QQegcyw,,HK SUPERMARKET,831 N PACIFIC AVE,GLENDALE
137,Carl's Jr,,18,2.5,$,"Fast Food, Burgers",33.94510911,-118.3287709,5TzAI-bznZwY2CFBCHQe5w,,CARL'S JR. 532,3300 W CENTURY BLVD,INGLEWOOD
138,Target,,515,3,$$,"Department Stores, Furniture Stores, Electronics",34.048832,-118.26101,_qXfYvA5K-OY3xwaYAXD6Q,,TARGET,735 S FIGUEROA ST,LOS ANGELES
139,眞 Jin Cook - Authentic Korean Soul Food,,162,4.5,$$,Korean,34.15036417,-118.2546023,C5s9a_prs6TbH510Bt_sqQ,,JIN COOK,310 N BRAND BLVD,GLENDALE
140,Fraternal Order of Eagles,,2,4.5,,Community Service/Non-Profit,33.99399615,-118.4402932,-41vxWNJKTKekFm8k9J4fQ,,FRATERNAL ORDER OF EAGLES,13018 W WASHINGTON BLVD,LOS ANGELES
141,Station Pharmacy,,7,3,$$,Drugstores,34.02999826,-118.4841669,0_rS3mTXcsw9yhm3pMMZhQ,,STATION PHARMACY,1820 WILSHIRE BLVD,SANTA MONICA
142,,,,,,,,,,,PANADERIA LA SEVILLANA,11120 S PRAIRIE AVE,INGLEWOOD
143,Woodland Hills Market,,176,3,$$,"Grocery, Bakeries, Persian/Iranian",34.171554,-118.568107,GBAIBJ6O9GKg7Yczxc_n2g,,WOODLAND HILLS GROCERY MARKE,19964 VENTURA BLVD,WOODLAND HILLS
144,,,,,,,,,,,SIMBAL,319 E 2ND ST STE 202,LOS ANGELES
145,Burgers N Brews,,336,4,$$,"Burgers, Chicken Wings, Sports Bars",34.00344209,-118.471241,ca1XlubgNBA1lB0u-Fjmjw,,BURGERS N BREWS,3021 LINCOLN BLVD,SANTA MONICA
146,Chung Hae Jin,,65,3,$$,"Korean, Seafood",34.06309128,-118.2975388,GGxc-5ZtAc_QZLRjQ-E9Lw,,CHUNG HAE JIN SEAFOOD REST,3470 W 6TH ST STE 8A,LOS ANGELES
147,Vermont Donuts,,2,3.5,$$,Donuts,33.93075335,-118.2919561,uWSb5ZBuT7BkWrpastyDNQ,,VERMONT DONUT,11405 S VERMONT AVE,LOS ANGELES
148,7-Eleven,,4,2.5,$,"Convenience Stores, Coffee & Tea",33.96927992,-118.0970407,aZ9VZamZdGnnpR7dHBhrPw,,7-ELEVEN #14020G,9349 E SLAUSON AVE,PICO RIVERA
149,My Bakery,,332,3,$,Bakeries,34.29726346,-118.4388014,NeztJgOFWjjSiNV654m5nA,,MY BAKERY,2020 GLENOAKS BLVD,SAN FERNANDO
150,Starbucks,,204,3,$,Coffee & Tea,34.182519,-118.310729,tdppywyJimIngHMZ5p6KcQ,,STARBUCKS COFFEE #607,300 N SAN FERNANDO BLVD,BURBANK
151,,,,,,,,,,,ALICIA'S COSMETICS,4433 S ALAMEDA ST #E3B,LOS ANGELES
152,,,,,,,,,,,POTENTIA  FUEL,11756 SOUTH ST,ARTESIA
153,Pratunum Super Market,,12,4,$,Grocery,34.22084,-118.41404,urHdT2p8SaxOqOO_3gbYZg,,PRATUNUM MARKET,8236 COLDWATER CANYON AVE,NORTH HOLLYWOOD
154,Best Buy,,262,3,$$,"Electronics, Appliances",33.906466,-118.393946,7_9hG8BJ3zUpfdiEDb34-A,,BEST BUY STORES #1011,740 S PACIFIC COAST HWY,EL SEGUNDO
155,Smart & Final Extra!,,34,3.5,$,Grocery,34.0006348,-118.4642119,GE7HcVvo0vi3_Ab-Tl7gqw,,SMART & FINAL #332,604 LINCOLN BLVD,VENICE
156,,,,,,,,,,,HOLLENBECK PARK KITCHEN,1250 N HOLLENBECK AVE,COVINA
157,Edible Arrangements,,67,2.5,$$,"Florists, Gift Shops, Chocolatiers & Shops",33.75632757,-118.3107122,yDqCjgY7brYIOnWD_bfqeQ,,EDIBLE ARRANGEMENTS,28901 S WESTERN AVE STE 117,RANCHO PALOS VERDES
158,,,,,,,,,,,SUPER VARIETY STORE,4030 1/2 BEVERLY BLVD,LOS ANGELES
159,Cold Stone Creamery,,58,3,$,"Ice Cream & Frozen Yogurt, Custom Cakes, Cupcakes",33.898733,-118.005563,ztsUm1qEIbHaJBA8AkzFyg,,COLD STONE CREAMERY #717,15282 ROSECRANS AVE,LA MIRADA
160,Flor de Lima Farms,,270,4.5,$$,"Juice Bars & Smoothies, Farmers Market, Acai Bowls",34.2877139,-118.445291,RJKhYzBrSgDA4TehNvJ0Qg,,FLOR DE LIMA FARMS,1431 TRUMAN ST STE A,SAN FERNANDO
161,Chevron,,20,1,,Gas Stations,33.89246,-118.0039,PHwrnZaft1rPt18eacGXfA,,RAFI'S CHEVRON #3,15354 LA MIRADA BLVD,LA MIRADA
162,,,,,,,,,,,ARCO 9625,8255 WINNETKA AVE,WINNETKA
163,Costco Wholesale,,526,3.5,$$,"Wholesale Stores, Furniture Stores, Appliances",33.80697092,-118.3343122,nFfC_p6AArQXTqGrhidgMw,,COSTCO WHOLESALE #1202,2640 LOMITA BLVD,TORRANCE
164,,,,,,,,,,,TRAVEL TRADERS,404 S FIGUEROA ST STE #104,LOS ANGELES
165,,,,,,,,,,,VFW POST 6315,4865 S DURFEE AVE,PICO RIVERA
166,Mi Lindo Guerrero,,16,4.5,$,Mexican,33.908249,-118.209116,8E0ikHJl-rEvNygyREVjGQ,,MI LINDO GUERRERO MEXICAN RESTAURANT,1811 N LONG BEACH BLVD,COMPTON
167,GNC,,9,3,$$,"Vitamins & Supplements, Health Markets",33.973485,-117.839357,fT0gA8loekM_bIOXFHeZJg,,GNC #0042,21347 COLD SPRING LN,DIAMOND BAR
168,Tocaya Organica - West Hollywood,,733,4,$$,"Mexican, Vegan, Gluten-Free",34.0914626,-118.38112,U-cOIyQWsORZqXKNHAv-3g,,TOCAYA ORGANICA,8720 SUNSET BLVD,WEST HOLLYWOOD
169,Pupuseria Las Champas,,19,3,$$,Latin American,33.9722099,-118.24735,8Pa7ADob_PV3aOY71rld_g,,LAS CHAMPAS 27,6200 COMPTON AVE,LOS ANGELES
170,Dollar Tree,,89,3,$,Discount Store,34.0780159,-118.1141883,Tsl8D8TUvyZ9qYmPsKCWrQ,,DOLLAR TREE #01882,846 E VALLEY BLVD,ALHAMBRA
171,McDonald's,,77,2.5,$,"Burgers, Fast Food, Coffee & Tea",34.187492,-118.643122,vDR_WZs6tRABlVbLnI6GcA,,MCDONALD'S # 3373,6433 PLATT AVE,WEST HILLS
172,7-Eleven,,16,2,$,"Convenience Stores, Coffee & Tea",34.15088243,-118.0078612,Nr7wGPnCD7yucLKUM-YciA,,7 ELEVEN #20295,400 W FOOTHILL BLVD,MONROVIA
173,Casa De Cafe,,113,4,$,Cafes,33.97543,-118.22472,x0cEWLnL0iQWe6lvTwjSAQ,,CASA DE CAFE & SNACKS,7100 PACIFIC BLVD,HUNTINGTON PARK
174,Costco Wholesale,,266,3.5,$$,"Wholesale Stores, Tires",34.15251,-118.79709,hxBeaSCr_NOVzWPpc1MzPQ,,COSTCO WHOLESALE #117,5700 LINDERO CANYON RD,WESTLAKE VILLAGE
175,,,,,,,,,,,PALI HOUSE SM LOBBY COFFEE BAR,1001 3RD ST,SANTA MONICA
176,,,,,,,,,,,SUNSHINE SEAFOOD PALACE,7540 GARVEY AVE,ROSEMEAD
177,Target,,515,3,$$,"Department Stores, Furniture Stores, Electronics",34.048832,-118.26101,_qXfYvA5K-OY3xwaYAXD6Q,,TARGET - STARBUCKS,735 S FIGUEROA ST,LOS ANGELES
178,,,,,,,,,,,BALDWIN VILLA SENIOR CENTER,3939 MARLTON AVE,LOS ANGELES
179,,,,,,,,,,,PREMIER CATERING - NORTH CONCESSION,2700 N VERMONT AVE,LOS ANGELES
180,Wu's Kitchen,,32,4,$,Chinese,33.9884178,-117.9020834,D12ktSquDK5ejG388EYZyg,,WU'S KITCHEN,18457 E COLIMA RD # E&F,ROWLAND HEIGHTS
181,Ralphs,,170,3,$$,Grocery,34.16912,-118.604057,3HGNNuGbIRyzQrzcDCkTXw,,RALPHS #81 MARKET,21909 VENTURA BLVD,WOODLAND HILLS
182,Bake-Are-We,,127,4.5,$,"Bakeries, Desserts",33.84752,-118.08142,1YeA52HPSGEzOjkV3J1afA,,BAKE-ARE-WE,20110 PIONEER BLVD,CERRITOS
183,,,,,,,,,,,BEARLY CAKE,2791 W AVENUE L,LANCASTER
184,Ben's Corner,,62,3.5,$$,"Grocery, Fruits & Veggies",34.65937424,-118.1436234,rpV8HLy7E_79Qa4PPO6b5A,,BEN'S CORNER MARKET,710 W AVENUE L,LANCASTER
185,Burger Bun,,470,4.5,$,Burgers,34.15814,-118.26356,m1pWkZGnv8oUqH1j3P5X4w,,BURGER BUN,818 N PACIFIC ST # H,GLENDALE
186,99 Cents Only Stores,,47,3,$,"Discount Store, Party Supplies",34.19372437,-118.449142,AnzHQhexqfaMBtehWlLSWw,,99 - ONLY STORE #81,6755 VAN NUYS BLVD,VAN NUYS
187,Walt's Liquor,,1,5,$,"Beer, Wine & Spirits",34.09187317,-117.9723206,b0hQI_ZECqjU9nJhlWwlFg,,WALT'S LIQUOR,13834 E LOS ANGELES ST,BALDWIN PARK
188,Western Family Market,,1,1,$$,Grocery,33.88082,-118.36607,1rPGc1yH262N314YzyxW1w,,WESTERN FAMILY MARKET,2808 PHELAN LN,REDONDO BEACH
189,,,,,,,,,,,ALBERTSON'S #1360 - MAIN MARKET,27631 BOUQUET CANYON RD,SANTA CLARITA
190,Target,,178,3,$$,"Department Stores, Furniture Stores, Electronics",34.138103,-117.98292,QiWixYwequU0rX12Q3-k7Q,,TARGET #302  STARBUCKS COFFEE,1050 E HUNTINGTON DR,DUARTE
191,One's Liquor,,5,3.5,$$$,"Beer, Wine & Spirits",34.1392801,-118.2030559,TsMX3t27yzB52Q68BxZAEw,,ONE'S LIQUOR,1662 COLORADO BLVD,LOS ANGELES
192,,,,,,,,,,,ITENNIS,1200 N VISTA ST,WEST HOLLYWOOD
193,,,,,,,,,,,DOLLARMAX #5,3535 E 1ST ST,LOS ANGELES
194,Earthbar,,64,4,$$,"Juice Bars & Smoothies, Vitamins & Supplements, Acai Bowls",34.05165,-118.2552,BsW2Lcrv2hiZOkoH1oBq4A,,EARTHBAR EQUINOX-DTLA,444 S FLOWER ST #350,LOS ANGELES
195,Lady Chocolatt,,233,4.5,$$,"Chocolatiers & Shops, Coffee & Tea, Candy Stores",34.04475,-118.46618,wzJEXXFHrcmqkPeRRPdxsQ,,LADY CHOCOLATT,12008 WILSHIRE BLVD # 101,LOS ANGELES
196,,,,,,,,,,,LANCASTER USA GAS,1711 E AVENUE J,LANCASTER
197,Beyond the Stars Palace,,19,3.5,,"Venues & Event Spaces, Wedding Planning",34.1524034,-118.2552449,7klCzs4z2YLUTMGpsahWsg,,STARS PALACE KITCHEN,417 N BRAND BLVD,GLENDALE
198,McDonald's,,103,1.5,$,"Fast Food, Burgers, Coffee & Tea",34.2206541,-118.5189548,bDuBrTpV-F8oVqhWLFJ4ig,,MCDONALD'S #36268,17700 ROSCOE BLVD,NORTHRIDGE
199,Burger King,,44,1.5,$,"Burgers, Fast Food",34.11635,-118.18465,DrGgShld8rfRANsS6eLwig,,BURGER KING #11406,6155 YORK BLVD,LOS ANGELES
200,,,,,,,,,,,LUCKY STATION,444 S FLOWER ST STE 130,LOS ANGELES
201,Pete's Liquor Store,,6,4,$$,"Beer, Wine & Spirits",34.07709,-118.15284,Koqvhc9nVerrFzxo16ZnMQ,,PETE'S LIQUOR,2639 W VALLEY BLVD,ALHAMBRA
202,Martha's Bakery,,32,4.5,$,Bakeries,34.18706505,-118.4406535,D-ydGZ1LsZxM5yOqdUzKjg,,MARTA BAKERY,14103 VICTORY BLVD STE #9,VAN NUYS
203,7-Eleven,,11,3,$,"Convenience Stores, Coffee & Tea",34.1393858,-117.9465982,LDqjA426HLi-HrMVsgyMgg,,7-ELEVEN #2175-20248D,2705 E HUNTINGTON DR,DUARTE
204,Castle Liquors,,2,5,$,"Beer, Wine & Spirits",34.171861,-118.2961468,XZSYHxleMRLIJf_axdhmVA,,CASTLE LIQUOR,6808 SAN FERNANDO RD,GLENDALE
205,California Bakery & Cafe,,195,4,$,"Bakeries, Cafes",34.422724,-118.539037,Oi8Ua4phkwqB1SMlevURrQ,,CALIFORNIA BAKERY & CAFE,23021 SOLEDAD CANYON RD,SANTA CLARITA
206,Peet's Coffee,,107,4.5,$,Coffee & Tea,33.90361,-118.395353,hPIpzYdq4jsEXFrcQy_AKQ,,PEETS COFFEE,820 S PACIFIC COAST HWY STE A100,EL SEGUNDO
207,7-Eleven,,11,2.5,$,"Convenience Stores, Coffee & Tea",34.0837055,-118.3500652,#NAME?,,7-ELEVEN STORE 39012B,7353 MELROSE AVE,LOS ANGELES
208,Cocohodo,,51,4.5,$,"Desserts, Coffee & Tea, Shaved Ice",34.063165,-118.29858,nKOxmttrcg95tFRwfS0xyg,,COCOHODO WILSHIRE,3500 W 6TH ST # 100B,LOS ANGELES
209,Taco Bell,,63,3.5,$,"Mexican, Fast Food",33.823406,-118.336278,gYsjztZQJujDldxzshBdsQ,,TACO BELL/PIZZA HUT,2840 SEPULVEDA BLVD,TORRANCE
210,,,,,,,,,,,DALMAJI INC,808 S WESTERN AVE # 207,LOS ANGELES
211,Jo Peeps Ny Pizza,,152,4,$,"Pizza, Salad, Sandwiches",33.9535433,-118.0161173,DOB_k_gkyijSLgyt-_zodQ,,JO PEEPS NY STYLE PIZZA,14450 WHITTER BLVD,WHITTIER
212,Staples,,62,3.5,,"Printing Services, Shipping Centers, Mobile Phone Repair",34.15317,-118.79573,vm3OSdy7bR5aifYCrpSB7A,,STAPLES THE OFFICE SUPER#798,5760 LINDERO CANYON RD,WESTLAKE VILLAGE
213,,,,,,,,,,,LA BENCION MARKET,13297 VAN NUYS BLVD,PACOIMA
214,,,,,,,,,,,FERNAN #2,714 S HILL ST,LOS ANGELES
215,Taco Bell,,59,2.5,$,"Fast Food, Mexican",34.06916,-117.9796,RXguAIMVSxgCciSHHLApzA,,TACO BELL,3120 BALDWIN PARK BLVD,BALDWIN PARK
216,,,,,,,,,,,ALBERTSON'S #594 - STARBUCKS,220 E BONITA AVE,SAN DIMAS
217,WaBa Grill,,41,2,$,"Fast Food, Asian Fusion",33.960218,-118.3779505,GuMIsPlOxtC5EOk1a-8mjw,,WABA GRILL,5539 W MANCHESTER AVE,LOS ANGELES
218,McDonald's,,170,2,$,"Fast Food, Burgers, Coffee & Tea",34.228639,-118.5545206,Xozrg1hea0UUW4_8sXDJiQ,,MCDONALD'S #2319,19315 PARTHENIA ST,NORTHRIDGE
219,,,,,,,,,,,DELI,2245 YOSEMITE DR,LOS ANGELES
220,Baskin-Robbins,,35,3.5,$,"Ice Cream & Frozen Yogurt, Desserts, Custom Cakes",34.2214217,-118.2354373,CQK6m41AS3XZYjz1QJGB6A,,TOGO'S BASKIN ROBBINS,2611 FOOTHILL BLVD,LA CRESCENTA
221,A Liquor,,2,3,,"Beer, Wine & Spirits",34.06011,-118.28454,bdISjGxxfH952a3Jp1lfEg,,A LIQUOR,687 S HOOVER ST,LOS ANGELES
222,,,,,,,,,,,J & J MARKET,7752 COMPTON AVE,LOS ANGELES
223,Jersey Mike's Subs,,149,3.5,$,"Sandwiches, Fast Food, Delis",34.119906,-118.149806,HEnbdepaDjBe8-q8C63wdA,,JERSEY MIKE'S SUBS #20083,462 FAIR OAKS AVE,SOUTH PASADENA
224,Siam Cafe Thai Food,,208,4,$,Thai,34.201574,-118.482966,Eqi8VQHExczlBHWpR_d0PA,,SIAM HOUSE THAI CUISINE,16045 SHERMAN WAY # D,VAN NUYS
225,Circus Liquor & Market,,4,5,$,"Beer, Wine & Spirits",34.20823,-118.39693,1GbELgrmk4DtBIp1iTvnFg,,CIRCUS LIQUOR AND MARKET,7561 LAUREL CANYON BLVD,NORTH HOLLYWOOD
226,,,,,,,,,,,DARRAH ENTERPRISES INC,32250 W TRIUNFO CANYON RD,WESTLAKE VILLAGE
227,TOGO'S Sandwiches,,43,4,$,"Sandwiches, Fast Food, Delis",33.8052806,-118.3508613,8WwfdsU2MmuOYWCgxICCRw,,TOGO'S,3737 PACIFIC COAST HWY # C,TORRANCE
228,Carl's Jr,,29,2,$,"Fast Food, Burgers",33.9750594,-118.2299653,Z4kznYrJVRPYT8ht3slg8w,,CARL'S JR #558,2401 E FLORENCE AVE,HUNTINGTON PARK
229,,,,,,,,,,,ONE STOP LIQUOR WHOLE MART,5028 S NORMANDIE AVE,LOS ANGELES
230,Cup O' Joy,,426,4,$,"Coffee & Tea, Taiwanese, Bubble Tea",34.02449383,-118.2778779,MnUSRIJI4eoevIu8QXfWnA,,CUP O' JOY,3016 S FIGUEROA ST,LOS ANGELES
231,,,,,,,,,,,KENTUCK FRIED CHICKEN #187,6421 YORK BLVD,LOS ANGELES
232,,,,,,,,,,,THE SNACK CORNER,8635 W 3RD ST # 375W,LOS ANGELES
233,,,,,,,,,,,CATHAY ENTERTAINMENT INC,16025 GALE AVE #A 11-12,HACIENDA HEIGHTS
234,Sonora Bakery,,118,4,$,"Bakeries, Desserts, Juice Bars & Smoothies",34.0232559,-118.1714468,P9IMSdCYuZ70USd-z-N9BA,,SONORA BAKERY,4484 WHITTIER BLVD,LOS ANGELES
235,,,,,,,,,,,CAMILA'S MININ MARKET,13273 VAN NUYS BLVD # E,PACOIMA
236,Ameci Pizza & Pasta - Santa Clarita,,97,3,$,"Pizza, Italian, Chicken Wings",34.46046833,-118.5349833,WcpHY3Da1tFmUuPm4ZCx8w,,AMECI PIZZA AND PASTA,28013 SECO CANYON RD,SANTA CLARITA
237,Jenny Craig Weight Loss Centers,,4,3.5,,Weight Loss Centers,34.26642572,-118.5260555,M-MbDu9Uw-bC7S6eBVU2VQ,,JENNY CRAIG #114,18007 CHATSWORTH ST,GRANADA HILLS
238,Superior Grocers,,16,2,$$,"Grocery, Bakeries, Meat Shops",33.9883693,-118.2896662,ELDgJT3aKtOTz5y0b5yuEg,,SUPERIOR SUPER WAREHOUSE,5824 S VERMONT AVE,LOS ANGELES
239,J&C Food Store,,3,1,,Convenience Stores,34.1795349,-118.4050532,gT-qxZPN2LDKsg7aIkdt_Q,,J&C FOOD STORE,12465 OXNARD ST,NORTH HOLLYWOOD
240,Stater Bros. Markets,,73,3.5,$$,"Grocery, Butcher, Delis",33.9178,-118.09279,0i5bTg0wNexOUPe4BrvI5A,,STATER BROS MRKT #154 (MARKE,11300 E FIRESTONE BLVD,NORWALK
241,El Milagro Authentic Mexican Restaurant,,14,3.5,$,Mexican,33.94119713,-118.029312,CPXUYBetOcsFr0v33YcNGQ,,EL MILAGRO MEXICAN FOOD,10068 MILLS AVE,WHITTIER
242,La Pizza,,24,3.5,$,"Chicken Wings, Pizza, Italian",34.2283949,-118.465152,hJxETZfm4BuC5JjU1Y3rMg,,OMAR LOPEZ LA PIZZA,15263 PARTHENIA ST,NORTH HILLS
243,,,,,,,,,,,FUKIEN HEALTH FOOD DIST INC.,116 W GARVEY AVE # B,MONTEREY PARK
244,,,,,,,,,,,LOS TWINS MEXICAN CAWDIES,1600 E HOLT AVE # F18,POMONA
245,CoCo Fresh Tea & Juice,,137,3.5,$,"Coffee & Tea, Juice Bars & Smoothies",34.07786,-118.12339,6XEtP6PE8jg-DTWQGTdfaw,,COCO FRESH JUICE & TEA,1411 S GARFIELD AVE STE 101,ALHAMBRA
246,The Stone Bar,,20,3,$,"Lounges, Music Venues, Gay Bars",34.10180256,-118.3041172,PFRhH5SG1iCxvhEh_CGdxQ,,THE STONE,5221 HOLLYWOOD BLVD,LOS ANGELES
247,Hobby Lobby,,142,3,$$,"Home Decor, Art Supplies, Fabric Stores",34.07371775,-117.8857558,ZemwOBMZXdJUmsyRwE5gYg,,HOBBY LOBBY STORES INC. #595,2753 EASTLAND CIRCLE DR,WEST COVINA
248,,,,,,,,,,,LAKERS LIQUOR,1040 W IMPERIAL HWY,LOS ANGELES
249,S & S Liquor,,3,3,,"Beer, Wine & Spirits",34.09050369,-118.355484,4IZYQifoO7LnfiZy1fJCFg,,S AND S LIQUOR AND JR MARKET,7600 SANTA MONICA BLVD,WEST HOLLYWOOD
250,Gelson's,,105,3.5,$$,"Delis, Grocery, Beer, Wine & Spirits",34.007018,-118.474928,FK4BC3QXWaTnFmxHHOVvBg,,GELSON'S #29,2627 LINCOLN BLVD,SANTA MONICA
251,Ross Dress for Less,,74,1.5,$$,"Department Stores, Women's Clothing, Home Decor",34.030817,-118.122979,rtJvldnJlD3TTzN9NX8DVg,,ROSS DRESS FOR LESS #1558,2505 VIA CAMPO,MONTEBELLO
252,Nutrishop,,22,4,$$,"Vitamins & Supplements, Health Markets",34.15907,-118.3709263,M4VypCrlDANQUAH0y4oRMQ,,NUTRISHOP,4844 LANKERSHIM BLVD,NORTH HOLLYWOOD
253,,,,,,,,,,,CHEESE DELI,315 SAN  FERNANDO MISSION BLVD,SAN FERNANDO
254,,,,,,,,,,,C & J HEALTH,2717 W OLYMPIC BLVD STE 101,LOS ANGELES
255,,,,,,,,,,,GALLINA DE RANCHO MARKET,6560 E OLYMPIC BLVD,LOS ANGELES
256,JOANN Fabrics and Crafts,,233,3,$$,"Fabric Stores, Home Decor, Art Supplies",34.134007,-118.25707,SUQPL7QNgOx-M87SMtBbNA,,JOANN FABRIC AND CRAFT STORE,1000 S CENTRAL AVE,GLENDALE
257,,,,,,,,,,,AMERICAN LEGION POST 833,21022 S ALAMEDA ST,CARSON
258,,,,,,,,,,,NATURE'S WAY,1508 W FOOTHILL BLVD,LA VERNE
259,,,,,,,,,,,MID CITY ARCO,3401 E WHITTIER BLVD,LOS ANGELES
260,Warner Grand Theatre,,80,4,,Cinema,33.739046,-118.287281,UbzQrgm1TwmHZRspcPxtuA,,WARNER GRAND THEATER,478 W 6TH ST,SAN PEDRO
261,Si Chuan No. 1 Restaurant,,87,3,$$,Szechuan,34.080264,-118.078142,nNt8UTV9YJo6MEOG-nxe5g,,SI CHUAN NO.1 RESTAURANT,8772 VALLEY BLVD,ROSEMEAD
262,,,,,,,,,,,ALBERTSON'S #3859 -BAKERY,200 E SEPULVEDA BLVD,CARSON
263,CVS Pharmacy,,46,3,$$,"Drugstores, Pharmacy, Convenience Stores",33.856,-118.391,KQuNP4Y0jfraR5y2b6Yj-w,,CVS/PHARMACY #9101,155 PACIFIC COAST HWY,HERMOSA BEACH
264,,,,,,,,,,,DJHM CORPORATION,3501 W 3RD ST,LOS ANGELES
265,,,,,,,,,,,LA COLMENA,14028 VAN NUYS BLVD,PACOIMA
266,Afters Ice Cream,,423,3.5,$,Ice Cream & Frozen Yogurt,33.866782,-118.093338,tHJicN9hDsq2VpuZefy66g,,AFTERS ICE CREAM,11247 183RD ST,CERRITOS
267,Confection LA,,300,4.5,$,"Desserts, Creperies, Tea Rooms",34.13538742,-118.0524216,ldfbmayzrS1bu0hiqXyCqA,,CONFECTION,400 S BALDWIN AVE # 9046,ARCADIA
268,Trader Joe's,,235,3.5,$$,Grocery,34.17188,-118.51764,R9pDRqsNbxygQ2UfBGhp4A,,TRADER JOE'S #56,17640 BURBANK BLVD,ENCINO
269,Regency Valley Plaza 6,,306,3.5,,Cinema,34.186085,-118.399125,PlZt_Thm44ZvmxK-q8VQsA,,REGENCY THEATERS VALLEY PLAZA -SNACK BAR,6355 BELLINGHAM AVE,NORTH HOLLYWOOD
270,,,,,,,,,,,KML LIQUOR AND MARKET,722 S HILL ST,LOS ANGELES
271,San Gabriel Square,,71,3,$$,Shopping Centers,34.07808,-118.101573,VhouMQ4jTaGuZPCpGzDjrA,,SAN GABRIEL FUEL,100 W VALLEY BLVD,SAN GABRIEL
272,Courtyard Marriott,,123,3.5,$$,Hotels,34.1912,-118.33384,KE1PBUpZrzc2hoH2mCvsog,,COURTYARD LOS ANGELES BURBANK AIRPORT -FOOD MKT,2100 W EMPIRE AVE,BURBANK
273,SoCal Swirl,,39,4,$,"Juice Bars & Smoothies, Coffee & Tea",34.673616,-118.167217,YVqqE0J_gI37jgHnksKB6A,,SOCAL SWIRL,43543 N 20TH ST,LANCASTER
274,Pa Ord Noodle,,45,3.5,$$,Thai,34.1018749,-118.3054442,x2LW6VgeaKk-o5QFqc4rAg,,PA ORD NOODLE 3,5269 HOLLYWOOD BLVD,LOS ANGELES
275,AMF El Dorado Lanes,,107,3,,Bowling,33.95910166,-118.4186221,JDNVrbIajGJapnOMYHjfVA,,EL DORADO BOWLERO,8731 LINCOLN BLVD,LOS ANGELES
276,El Pollo Peru,,33,4.5,,Peruvian,34.26606333,-118.4226692,lI5dFX7eTVZ2DXD_GBGuVQ,,EL RINCONCITO OAXAQUENO,13273 VAN NUYS BLVD # C,PACOIMA
277,Claws,,403,3.5,$$,"Cajun/Creole, Seafood, Soul Food",33.85772578,-118.0892304,eFf03rbKGN5xmPby73_r3g,,CLAWS,11450 SOUTH ST,CERRITOS
278,Stater Bros. Markets,,40,2.5,$$,"Grocery, Delis, Butcher",33.875739,-118.140828,tOcqe8ZpKwPXG7c6YNDcqw,,STATER BROS MRKT #164,17220 S LAKEWOOD BLVD,BELLFLOWER
279,T J Maxx,,61,3.5,$$,Department Stores,34.20236,-118.19282,YP0Tk4FgdaUZdtB9PyJKCQ,,TJ MAXX #790,663 FOOTHILL BLVD,LA CANADA FLINTRIDGE
280,,,,,,,,,,,FIRESTONE GAS INC,4201 FIRESTONE BLVD,SOUTH GATE
281,Craft Hill - Monrovia,,185,4.5,$$,"American (New), Pizza, Cocktail Bars",34.1478714,-118.0008251,oGuPikSbdnuvAa7meEZM5g,,CRAFT HILL MONROVIA,402 MYRTLE AVE,MONROVIA
282,Alatorre Mkt,,3,4,$$,Grocery,33.9077399,-118.22757,bxN9x0IHDW5Av1M8nrLqNQ,,ALATORRE MARKET,1709 N WILLOWBROOK AVE,COMPTON
283,Sam's Liquor Store,,3,2.5,,"Beer, Wine & Spirits",34.15898,-118.37078,-5F9ytZtDckkGmiRtD1EDQ,,SAM'S LIQUOR,4832 LANKERSHIM BLVD,NORTH HOLLYWOOD
284,Yellowstone Drinking Water,,1,5,,,34.2652092,-118.422287,CNzhfSsJEQMGzF2UjDV1tQ,,YELLOW STONE WATER#2,13274 VAN NUYS BLVD # B,PACOIMA
285,99 Cents Only Stores,,12,2,$,"Discount Store, Party Supplies",33.947356,-118.087449,zXTxngcFB3FofG9kZvcZAg,,99 CENTS ONLY STORE #363,11550 TELEGRAPH RD,SANTA FE SPRINGS
286,Time Out Burger,,84,4.5,$,"Burgers, Salad, Sandwiches",33.91736336,-118.1174154,e_H6pBi8MBrauCEbtaJJyw,,TIME OUT BURGER,9841 IMPERIAL HWY,DOWNEY
287,The Vitamin Shoppe,,18,3.5,$$,Vitamins & Supplements,33.95263891,-118.1854374,K-9QYc0LSq58V69h8IMw_Q,,THE VITAMIN SHOPPE,4741 FIRESTONE BLVD STE P6-G,SOUTH GATE
288,Viva Madrid!,,1300,4,$$,"Spanish, Tapas Bars, Basque",34.0962,-117.71829,ynhSJscAI1aumkgEBUsO4A,,VIVA MADRID,225 N YALE AVE STE B,CLAREMONT
289,Bab Han Kki. One Bite. Pioneer Chicken,,18,3.5,$$,"Food Court, Korean, Chicken Shop",34.05514145,-118.3081894,0kEtGMJa8B76Y9Fzx1jZ3w,,BAB HANKKI ONE BITE,928 S WESTERN AVE # 139,LOS ANGELES
290,Tio's Market,,20,4.5,$,Mexican,34.4927123,-118.6195116,b-7uHHQrMkBWofbDdvecUQ,,TIO'S MARKET LIQUOR,31595 CASTAIC RD,CASTAIC
291,The Coffee Bean & Tea Leaf,,46,2,$$,Coffee & Tea,33.9444,-118.39844,_TiMM2MTLrXx7ReNdC5Upw,,THE COFFEE BEAN & TEA LEAF 8D,800 WORLD WAY,LOS ANGELES
292,Que Ricas,,12,4,$,"Salvadoran, Mexican, Fast Food",34.41635326,-118.4533453,9V0ds8ixm83OmUa10xio_Q,,QUE RICAS MEXICAN FOOD,18342 SOLEDAD CANYON RD,SANTA CLARITA
293,Starbucks,,79,2,$$,Coffee & Tea,33.94075256,-118.4019435,BCMrxSazTYM92zCeQbW4xQ,,STARBUCKS,600 WORLD WAY # 681,LOS ANGELES
294,Costco Wholesale,,209,3,$$,Wholesale Stores,33.94325,-118.33385,vuKOb7v9-0kenOSWP1oBkA,,COSTCO WHOLESALE # 769 - DELI,3560 W CENTURY BLVD,INGLEWOOD
295,,,,,,,,,,,BIER BEISL,541 S SPRING ST #114,LOS ANGELES
296,Chocolato,,36,4,$$,"Chocolatiers & Shops, Floral Designers",34.1680901,-118.2856728,N_Od-jkWSMnQGfVZGpABUw,,CHOCOLATO,1434 W GLENOAKS BLVD,GLENDALE
297,Paul's Tavern,,17,4,$,Dive Bars,34.26503752,-118.4684613,K6xkfyR0mnpT7FS_-J0Fgg,,PAUL'S TAVERN,15425 CHATSWORTH ST,MISSION HILLS
298,Sakura Japanese Restaurant,,896,4,$$,"Japanese, Sushi Bars, Seafood",33.991939,-118.422439,yABfiMUE-PyHiQ35mYm_kg,,SAKURA RESTAURANT WAREHOUSE,4543 S CENTINELA AVE,LOS ANGELES
299,Paleteria Y Dulceria Jessie,,6,4,$,Candy Stores,34.5728326,-118.1173159,oqgXV-jcPr0XdWnr_dd1rQ,,PALETERIA Y DULCERIA JESSIE,38011 6TH ST E,PALMDALE
300,Wood Ranch BBQ & Grill,,703,4,$$,"American (Traditional), Barbeque, Seafood",34.18042,-118.31042,7W0C-YTI5oFYXMWrBBfmJA,,WOOD RANCH BBQ & GRILL,110 N FIRST ST,BURBANK
301,Pacific Island Meat & Grocery,,6,5,,"Grocery, Meat Shops",33.92995071,-118.3521042,4URNpTceji2nS-g5FxdmEg,,PACIFIC ISLAND MEAT & GROCERY,11502 HAWTHORNE BLVD # B,HAWTHORNE
302,Trunks,,158,4,$,"Gay Bars, Sports Bars",34.08570905,-118.3832261,hvfnq96A3KtMoq5swcVpzA,,TRUNKS,8809 SANTA MONICA BLVD,WEST HOLLYWOOD
303,Coffeeholic,,393,4.5,$,"Coffee & Tea, Desserts",34.07071,-117.922756,RXpQ0FErLvohd-3_TmUwfQ,,COFFEEHOLIC,1240 LAKE DR # B,WEST COVINA
304,Quality Seafood,,1378,4,$$,"Seafood Markets, Seafood, Beer Bar",33.840847,-118.390704,bHaMJBeMXveeDDz2pItKMA,,QUALITY SEAFOOD RESTAURANT,130 S INTERNATIONAL BDWK,REDONDO BEACH
305,M Street Coffee,,764,4.5,$$,Coffee & Tea,34.15063,-118.42159,taK-D-1XCCV8JkSOUhoixA,,M STREET COFFE,13251 MOORPARK ST,SHERMAN OAKS
306,Town Noodle,,36,3.5,$,"Korean, Noodles, Soup",34.055212,-118.308421,fQJGSFi3AS_VFM-3ZTmwtw,,TOWN NOODLE,928 S WESTERN AVE STE 131,LOS ANGELES
307,Frozen Yogurt & Deli,,1,5,$,"Ice Cream & Frozen Yogurt, Delis",34.014294,-118.1297098,rDR4XbcxBMSgmDDKd6Wc8Q,,FROZEN YOGURT & DELI,2465 W WHITTIER BLVD STE 101,MONTEBELLO
308,Wingstop,,116,2.5,$$,Chicken Wings,34.227459,-118.485646,AVaJZgdu4ix3MdA8tDo1ww,,WINGSTOP,8633 WOODLEY AVE,NORTH HILLS
309,Taqueria Los Padilla,,220,4.5,$$,Mexican,34.2331359,-118.2541609,m-e1gyMWGAyplePYWaWMEw,,TAQUERIA LOS PADILLA,3437 FOOTHILL BLVD,LA CRESCENTA
310,,,,,,,,,,,ALFARO'S MARKET,4828 S FIGUEROA ST,LOS ANGELES
311,,,,,,,,,,,ABC RESTAURANT,708 NEW HIGH ST,LOS ANGELES
312,Wateria,,14,4.5,$,Water Stores,33.98613,-118.1871238,0qAGEKKXbVOViRIs-6Ez-w,,WATERIA,4426 E SLAUSON AVE,MAYWOOD
313,Le Cafe Bonjour,,61,4.5,$,"Coffee & Tea, Cafes",34.04614,-118.25375,TxypalzG5A27x_TuoRX68w,,LE CAFE BONJOUR,640 S HILL ST # S-4,LOS ANGELES
314,Yamazaki Bakery,,493,4,$,"Bakeries, Patisserie/Cake Shop, Desserts",34.0492065,-118.2398827,D32rzp1CrKLpPRzq0G7m0A,,YAMAZAKI OF CALIFORNIA INC,123 JAPANESE VLG PLZ MALL,LOS ANGELES
315,Starbucks,,134,3.5,$,Coffee & Tea,34.15267,-118.460374,4Bf3Df22F4YHEX4BjfO5yQ,,STARBUCKS CORPORATION,15030 VENTURA BLVD STE 1-A,SHERMAN OAKS
316,Smart & Final Extra!,,50,2.5,$,Grocery,34.15429,-118.79476,qU2PYWWihCFyV5RB43jZOg,,SMART & FINAL MEAT DEPT,5770 LINDERO CANYON RD,WESTLAKE VILLAGE
317,WaBa Grill,,27,3,$,"Fast Food, Asian Fusion",34.01984767,-118.2398685,X690XNVFlb33YJvUsM-ejw,,WABA GRILL,1907 S ALAMEDA ST # 101,LOS ANGELES
318,,,,,,,,,,,BIENSTAR HUMAN SERVICES,5326 E BEVERLY BLVD,LOS ANGELES
319,Nesmon Café,,288,4,$$,"Coffee & Tea, French, Cafes",34.1470604,-118.4235992,L5cStskQULe1LuwzEsZ_5Q,,NESMON CAFE,13333 VENTURA BLVD,SHERMAN OAKS
320,7-Eleven,,22,2.5,$,"Convenience Stores, Coffee & Tea",34.0764965,-118.3009769,03b-m9b6qsv-8-GKgX1lHg,,7-ELEVEN,4221 BEVERLY BLVD,LOS ANGELES
321,The Habit Burger Grill,,326,3.5,$,"Burgers, Sandwiches, Salad",34.1158625,-117.7729151,GPGpY4wDYWta_2aBnJlnsA,,THE HABIT BURGER GRILL,1608 FOOTHILL BLVD,LA VERNE
322,Tu Madre - Los Feliz,,638,3.5,$$,"Mexican, Breakfast & Brunch, Tapas/Small Plates",34.104409,-118.291583,oCOaVAQsdGpsClF2qlTRbw,,TACOS TU MADRE,1824 N VERMONT AVE,LOS ANGELES
323,Mariscos Bahia Restaurant,,45,4.5,$,"Seafood, Tacos",33.98334122,-118.1865082,FMC0oEiVDOpZLg8nmfKn-Q,,MARISCOS BAHIA RESTAURANT,6101 ATLANTIC BLVD,MAYWOOD
324,Subway,,36,2,$,Sandwiches,33.95359316,-118.1313463,Jpk4fGA08aqOGswo19WT9w,,SUBWAY,7930 FLORENCE AVE,DOWNEY
325,Las Rocas Mexican Grill,,200,4,$$,Mexican,34.49579,-118.626273,1Ahn0MQ8LcqGm5YlQFdvpw,,LAS ROCAS BAR & GRILL,27923 SLOAN CANYON RD,CASTAIC
326,Sam's Donut,,13,4,$,Donuts,33.99292,-118.28314,2OiIMhnxTig3z2qedhSv0g,,SAM'S DONUT,5401 S FIGUEROA ST,LOS ANGELES
327,Super Discount,,4,3,$,Grocery,34.0814734,-118.1779151,SYtQ1_m9TbTKVOsPvmkc0g,,SUPER DISCOUNT,3118 N EASTERN AVE,LOS ANGELES
328,Dumpling House,,688,3.5,$,"Shanghainese, Seafood",34.1293386,-118.0548598,kHPGdmmyTtgsft3vy5iJWQ,,DUMPLING HOUSE,921 S BALDWIN AVE STE A,ARCADIA
329,H Mart - Torrance,,241,4,$$,"Grocery, Korean, Food Court",33.80813481,-118.3607754,DajMqmtWOMT13LCGOre3GQ,,SUPER H MART - KIRAKU,4340 PACIFIC COAST HWY,TORRANCE
330,,,,,,,,,,,LITTLE CAESAR,15911 BELLFLOWER BLVD,BELLFLOWER
331,Panaderia Mi Lupita,,58,4,$,Bakeries,33.83144528,-118.3076061,nUeJkmAqwcI2vuB03MIMuQ,,PANADERIA MI LUPITA BAKERY,1640 W CARSON ST # 2A,TORRANCE
332,GNC,,2,3,$$$,"Vitamins & Supplements, Health Markets",34.15556,-118.75799,0gnkFDePukXwzbiRRLOWtw,,GNC #1591,5731 KANAN RD # 101,AGOURA HILLS
333,Los Angeles Pizza Company,,154,3.5,$,Pizza,34.07553,-118.25534,TE2A0ruOp6q-kGxmta22Qw,,LOS ANGELES PIZZA,1498 W SUNSET BLVD STE #2,LOS ANGELES
334,Meizhou Dongpo Restaurant,,539,3.5,$$$,"Szechuan, Seafood, Asian Fusion",34.1370999,-118.0517,vH481KL_S_fmdOsiJMR3BA,,MEIZHOU DONGPO,400 S BALDWIN AVE # 2016,ARCADIA
335,Torino Lounge,,53,3.5,$$,"Lounges, Cocktail Bars",33.9047129,-118.1690049,b5ZNA1V26IsBUmm8sSGoxw,,TORINO LOUNGE,14123 GARFIELD AVE,PARAMOUNT
336,,,,,,,,,,,SKIN DEEP NUTRITION KIOSK,112 PLAZA DR,WEST COVINA
337,Millie's Cafe,,1065,4,$$,"Diners, Breakfast & Brunch",34.089237,-118.276946,v_QZxQO1BCKzN-8Rnc_u_w,,MILLI'S CAFE,3528 W SUNSET BLVD,LOS ANGELES
338,Pizza Studio,,220,4,$,Pizza,33.87667,-118.217864,zTeIQzEjXV0TEBG9VFU0oQ,,PIZZA STUDIO,1759 S ALAMEDA ST STE 103A,COMPTON
339,Best Way Liquor,,1,1,,"Beer, Wine & Spirits",34.007985,-118.2828649,UUdQqOac4wOuOmj0tZLPwA,,BESTWAY LIQUOR,4157 S FIGUEROA ST,LOS ANGELES
340,,,,,,,,,,,PARKWAY,5659 LAS VIRGENES RD,CALABASAS
341,,,,,,,,,,,LANCASTER SHELL,44015 W 20TH ST,LANCASTER
342,Shell,,9,1.5,$$,"Auto Repair, Gas Stations, Convenience Stores",34.13397,-117.92461,p60qcd7dCtCUZvzDlUMW4g,,EVA SHELL,1195 W FOOTHILL BLVD,AZUSA
343,,,,,,,,,,,MARCI'S PIZZA,3100 E IMPERIAL HWY # 07,LYNWOOD
344,The Phoenix,,222,4,$$,"Lounges, Whiskey Bars, American (New)",34.07304,-118.37585,vD_vPxFQ8Bf4OO32bVsPxg,,THE PHOENIX,8480 W 3RD ST,LOS ANGELES
345,Jam Club,,17,4,$$,"Karaoke, Bars",34.0636449,-118.3098586,xZTjgWERrCc_yItMxnLkBg,,JAM,3981 W 6TH ST,LOS ANGELES
346,Rite Aid,,53,3,$$,"Drugstores, Convenience Stores",34.029852,-118.484573,0WLskqojjMIVE9_IewecsQ,,RITE AID #05489,1808 WILSHIRE BLVD,SANTA MONICA
347,Highland Water and Ice,,6,3.5,,Water Stores,34.16036,-118.27445,GAHfjQ3LO3B46wqTdExICg,,HIGHLAND WATER & ICE,834 W GLENOAKS BLVD,GLENDALE
348,McDonald's,,202,3,$,"Fast Food, Burgers, Coffee & Tea",33.947414,-118.117905,VwbRX0a3Due4AgaYgejdYw,,MCDONALD'S #19956,10207 LAKEWOOD BLVD,DOWNEY
349,,,,,,,,,,,KEITA TESHIMA SUSHI,2409 S GARFIELD AVE,MONTEREY PARK
350,Freshii - Target Valencia,,40,4.5,$$,"Salad, Vegetarian, Juice Bars & Smoothies",34.42081796,-118.5610662,Yi8iAmpkRvZkPvcUrL7bug,,FRESHII @ TARGET,24425 MAGIC MOUNTAIN PKWY,VALENCIA
351,,,,,,,,,,,98 CENTS DISCOUNT STORE,1601 E IMPERIAL HWY STE 103B,LOS ANGELES
352,,,,,,,,,,,B P O E NO 1919,1735 162ND ST,GARDENA
353,The Hollywood Bowl Stand,,3,3.5,,"Food Stands, Venues & Event Spaces",34.11151,-118.33656,GSF9Ln-9CaN0dp_dzW9y6g,,SODEXO @ THE HOLLYWOOD BOWL / WEST GATE CONCESSION,2301 N HIGHLAND AVE,LOS ANGELES
354,Jersey Mike's Subs,,147,4,$$,"Fast Food, Delis, Sandwiches",33.866726,-118.093421,ixPGdCdmD8hYfaKLTgenvQ,,JERSEY MIKE'S SUBS,11245 183RD ST,CERRITOS
355,ABC Donuts,,12,4.5,$,"Donuts, Coffee & Tea, Burgers",34.03345653,-118.1675224,CB229fo0oBwMDRKALgKfPw,,ABC DONUTS,4555 E 3RD ST # 1A,LOS ANGELES
356,Le Méridien Delfina Santa Monica,,556,3.5,$$$,"Hotels, Venues & Event Spaces",34.01064074,-118.4856849,1U2zVf3HM3vv4yXfN1tvLQ,,LE MERIDIEN DELFINA SANTA MONICA-LOBBY BAR,530 PICO BLVD,SANTA MONICA
357,Get Fresh Cafe,,177,4.5,$,"Sandwiches, Pizza, Salad",34.674146,-118.150353,wAQV1UEWhKKWTY_kSn7Wmg,,GET FRESH CAFE,1122 W AVE K,LANCASTER
358,,,,,,,,,,,DONUTS TOWN & WATER,6200 EASTERN AVE STE L,BELL GARDENS
359,Shell,,9,2.5,,Gas Stations,34.059643,-118.383899,oCxd0GN1s9f_0QO4MAlq-Q,,SHELL,391 S ROBERTSON BLVD,BEVERLY HILLS
360,Shell,,22,2.5,,Gas Stations,34.43276,-118.59118,mpIjf4dLc2HmCymtIh_tVg,,OLD RD SHELL,28120 THE OLD RD,VALENCIA
361,,,,,,,,,,,5 GIRLS MINI MARKET,3404 FIRESTONE BLVD,SOUTH GATE
362,,,,,,,,,,,LARRY'S LIQUOR,3904 TWEEDY BLVD,SOUTH GATE
363,El Flamingo Bar,,1,2,,Sports Bars,33.98005676,-118.2085648,v_g8beM9MK2wDA4m-IuPCA,,EL FLAMINGO BAR,3256 E GAGE AVE,HUNTINGTON PARK
364,Walmart,,363,2,$,"Department Stores, Grocery",34.1340376,-117.9839024,pv2jgPL6RyncTnNzBT3_PA,,WALMART #2401,1600 S MOUNTAIN AVE,DUARTE
365,,,,,,,,,,,KOI - REFRESHMENT COUNTER,734 N LA CIENEGA BLVD,LOS ANGELES
366,Country Liquor Store,,4,3,$$,"Beer, Wine & Spirits",34.0372209,-118.6376222,XiWldcGVUyVV4y9sWDqvlg,,THE COUNTRY STORE,21229 PACIFIC COAST HWY,MALIBU
367,Dollar Tree,,32,3.5,$,Discount Store,33.810967,-118.289435,5oKyE3T1pqLg2IhBbUE_6A,,DOLLAR TREE #2966,855 W SEPULVEDA BLVD,TORRANCE
368,Nijiya Market - Rolling Hills,,55,3.5,$$,"International Grocery, Japanese, Seafood Markets",33.790939,-118.32894,iLMy4BeKasvgxscmx_q6Bw,,NIJIYA #4,2533 PACIFIC COAST HWY STE #B,TORRANCE
369,Pizza 8,,145,4,$,Pizza,33.9888751,-118.3292238,YD043u8PwUTQ9NjAMZ7SPw,,"ALL-STAR PIZZA 8, LLC",3272 W SLAUSON AVE,LOS ANGELES
370,,,,,,,,,,,ARCO SMOG PROS,3949 E DENNISON ST,LOS ANGELES
371,,,,,,,,,,,CHOP SIX,26101 MAGIC MOUNTAIN PKWY,VALENCIA
372,Casita Taco Al Carbon,,131,4,$,"Mexican, Salad",34.04575223,-118.2511594,FVBmU0172UXWMCjbXVfD4A,,CASITA TACO AL CARBON  #3,609 S SPRING ST,LOS ANGELES
373,Bella Coco Cafe,,31,4.5,$,"Cafes, Pizza, Desserts",34.05159353,-118.26146,hID6cVlJtzCe3XImHFaKUA,,BELLA COCO CAFE,1001 WILSHIRE BLVD,LOS ANGELES
374,Alan's Jugos,,1,5,,"Fast Food, Juice Bars & Smoothies",34.04008,-118.25266,JjAm8Nfn-wtrk8IRZ1Vbxw,,ALLAN'S JUGOS,305 E 9TH ST # 131,LOS ANGELES
375,Kale & Quinoa Vegan Cafe',,248,4,$$,"Vegan, Cafes",34.14061,-118.37156,0lSrdrWv390Tz6MYu0HA9g,,KALE & QUINOA VEGAN CAFE,11044 VENTURA BLVD,STUDIO CITY
376,,,,,,,,,,,LA MEJOR MARKET,6500 S HOOVER ST,LOS ANGELES
377,,,,,,,,,,,EL RINCON MEXICANO,2714 PECK RD,EL MONTE
378,Tierra Mia Coffee,,606,4,$$,"Coffee & Tea, Latin American",33.95143,-118.18228,50kL1ThoZQUkcBiKmIRc3Q,,TIERRA MIA COFFEE COMPANY,4914 FIRESTONE BLVD,SOUTH GATE
379,Baldwin Park Community Center,,2,5,,Parks,34.08726535,-117.9638698,DL0FU5juc1lwxdPwUqNhOQ,,BALDWIN PARK SENIOR CENTER,4100 BALDWIN PARK BLVD,BALDWIN PARK
380,Victory Valero,,3,3,,Gas Stations,34.18635,-118.43093,3y-ritpnv4iFPCuEK5C5dQ,,VICTORY VALERO,13666 VICTORY BLVD,VAN NUYS
381,AMC La Mirada 7,,292,3.5,,Cinema,33.89720918,-118.0052681,UCB7GR0uavGwoKeFcPuSAQ,,AMC THEATRES LA MIRADA,15296 ROSECRANS AVE,LA MIRADA
382,Rainbow Acres Natural Foods,,468,4.5,$$,Organic Stores,33.99324,-118.44157,ywlinPrvMwr8bMW_cpmrcQ,,RAINBOW ACRES,13208 WASHINGTON BLVD,LOS ANGELES
383,Alin Party Supply,,120,4,,Party Supplies,33.83422,-118.1166749,1IMFC9wPJqQzCBNCveHi1A,,ALIN PARTY SUPPLY,4139 WOODRUFF AVE,LAKEWOOD
384,Edible Arrangements,,47,3.5,$$$,"Florists, Gift Shops, Chocolatiers & Shops",34.1286333,-117.8306685,fpzGInsobW--4M_fKU18lw,,EDIBLE ARRANGEMENTS,1818 E ROUTE 66 STE A,GLENDORA
385,7-Eleven,,13,1.5,$,"Convenience Stores, Coffee & Tea",34.09117365,-118.2963018,TC7Ho6-d5X19Uc0rrR1UZQ,,7-ELEVEN STORE 39219B,4901 SANTA MONICA BLVD,LOS ANGELES
386,168 Market,,76,3,$$,"Fruits & Veggies, International Grocery, Seafood Markets",33.9906056,-117.9334288,vyaeKgSTUD3Qwz_u0yRBhA,,168 MARKET #806 MAIN,17120 COLIMA RD,HACIENDA HEIGHTS
387,Dolby Theatre,,202,4,$$$,"Performing Arts, Music Venues",34.10261027,-118.340376,29EthJRbS74xjjQ0HSDRWQ,,DOLBY THEATRE LOBBY BAR-I,6801 HOLLYWOOD BLVD,LOS ANGELES
388,Starbucks,,131,3.5,$,Coffee & Tea,34.256769,-118.499778,QshA7g3LvywBK1n4NgNtTg,,STARBUCKS COFFEE,16850 DEVONSHIRE ST,GRANADA HILLS
389,7-Eleven,,34,2.5,$,"Convenience Stores, Coffee & Tea",33.99794717,-117.8134479,L23pIxYVLs4XtZM63XXQxA,,7-ELEVEN #25609C,1345 S DIAMOND BAR BLVD,DIAMOND BAR
390,I Luv Sushi Too,,42,4.5,$$,"Sushi Bars, Salad, Japanese",33.86786817,-118.0830922,jIgn1xXEGb8wPHWpDZCopg,,I LUV SUSHI TOO,17901 PIONEER BLVD # G,ARTESIA
391,,,,,,,,,,,PLUSH CELLAR,2420 DALY ST,LOS ANGELES
392,,,,,,,,,,,TONI'S LIQUOR,5955 WEST BLVD,LOS ANGELES
393,Ruby's Coffee House & Restaurant,,328,4.5,$$,"Breakfast & Brunch, American (Traditional), Mexican",34.17240524,-118.3690186,Tq1XqU-J8JQoHEamhlbLxw,,RUBY'S COFFEE HOUSE & RESTAURANT,10929 BURBANK BLVD,NORTH HOLLYWOOD
394,7-Eleven,,28,3,$,"Convenience Stores, Coffee & Tea",34.08044214,-118.122581,XCQPugK2ducgUeP-o0bRgg,,7-ELEVEN #17792G,1200 S GARFIELD AVE,ALHAMBRA
395,ArcLight Cinemas - Sherman Oaks,,1107,3.5,,Cinema,34.154587,-118.467626,jwlsZqZw9tWadwXNzgZQEQ,,ARCLIGHT CINEMAS BAR,15301 VENTURA BLVD # 300,SHERMAN OAKS
396,The Coffee Bean & Tea Leaf,,24,3,$,Coffee & Tea,34.061528,-118.302446,PST5QrI2EbWcAGuk6Ax0VQ,,THE COFFEE BEAN & TEA LEAF,3550 WILSHIRE BLVD # 105,LOS ANGELES
397,,,,,,,,,,,GAGE LIQUOR,6220 S SAN PEDRO ST,LOS ANGELES
398,Dollar Tree,,28,3,$,Discount Store,33.8761163,-118.3482805,XO55Q1XuByeZcG7KA4nXwA,,DOLLAR TREE,4181 REDONDO BEACH BLVD,LAWNDALE
399,Rookies Sports Bar,,28,3.5,$,"Pubs, Sports Bars",33.9174249,-117.9922041,ezDyB6NK0kjiB4awGRc2KQ,,ROOKIES SPORTS BAR,15853 E IMPERIAL HWY,LA MIRADA
400,Sam's Club,,305,2.5,$$,"Wholesale Stores, Grocery, Tires",34.093669,-118.028698,5ORrxVAoxkbEIFX8xxvTaw,,FUJISAN SUSHI @ SAM'S CLUB #6614,4901 SANTA ANITA AVE,EL MONTE
401,,,,,,,,,,,KING'S DONUTS,1733 W EL SEGUNDO BLVD,GARDENA
402,Magic Wok Bakery,,83,4.5,$$,Bakeries,33.9681933,-118.0965635,C8wUkFEnKdwZ8U7uOjNQHQ,,MAGIC BAKERY,9408 E SLAUSON AVE,PICO RIVERA
403,Hyde Lounge Hollywood,,102,3,$$$$,"Dance Clubs, Lounges",34.0981331,-118.3649292,J7AkHOaBMA8PTmIwiZqhiQ,,HYDE LOUNGE,8029 W SUNSET BLVD,LOS ANGELES
404,Las Flores Market & Photo,,2,3,,"Grocery, Beer, Wine & Spirits, Photography Stores & Services",34.08661,-118.1783,BcGj9s8JcZu6i_rkiwx-DA,,LAS FLORES MARKET & PHOTO,4855 E HUNTINGTON DR N,LOS ANGELES
405,,,,,,,,,,,ALBERTSON'S #594 - MAIN MARKET,220 E BONITA AVE,SAN DIMAS
406,El Rancho Market,,1,5,,Grocery,34.06749,-118.25894,q25EXs6_qm9F1CuqqVbIoQ,,EL RANCHO MARKET,1468 W TEMPLE ST,LOS ANGELES
407,Asuka,,203,4.5,$$$,"Sushi Bars, Japanese",34.0530658,-118.4400299,jzMqnQLZqqboQparlgrrhA,,ASUKA,1553 WESTWOOD BLVD,LOS ANGELES
408,Jamba,,128,2.5,$$,Juice Bars & Smoothies,33.9456149,-118.3313997,#NAME?,,JAMBA JUICE #550,3401 CENTURY BLVD,INGLEWOOD
409,Foothill Food Mart,,78,3,$,"Grocery, Meat Shops",34.2426208,-118.270307,c0hnJ5zrVs8ggMsuJnY2-g,,FOOTHILL FOODMART,6360 FOOTHILL BLVD,PANORAMA CITY
410,Starbucks,,220,3,$,Coffee & Tea,34.044678,-118.266127,nSfOozY7KM67amvWUhXlVA,,STARBUCKS #13222,800 W OLYMPIC BLVD STE 102,LOS ANGELES
411,,,,,,,,,,,ISABEL'S MARKET,640 N BROADWAY # 7,LOS ANGELES
412,,,,,,,,,,,PICO LIQUOR,8329 E WHITTIER BLVD,PICO RIVERA
413,,,,,,,,,,,ADRIANNA'S MINI MARKET,11828 S LONG BEACH BLVD,LYNWOOD
414,,,,,,,,,,,BABY NUTRITION,27538 SIERRA HWY,SANTA CLARITA
415,,,,,,,,,,,VASILIOS NIGHT CLUB,7931 E FIRESTONE BLVD,DOWNEY
416,Baskin-Robbins,,35,3.5,$$,"Ice Cream & Frozen Yogurt, Desserts, Custom Cakes",33.94691,-118.00192,1NXtoW6BthVv3Ef8wOcLqw,,BASKIN ROBBINS,15234 E WHITTIER BLVD,WHITTIER
417,Penny Pinchers Junior Market,,1,4,,Food,33.98083,-118.33489,PR7q9CyEV8twH7MhpKJgXw,,PENNY PINCHERS,6430 WEST BLVD,LOS ANGELES
418,,,,,,,,,,,HANNA SUSHI,654 S MAIN ST,LOS ANGELES
419,The Hollywood Bowl Stand,,3,3.5,,"Food Stands, Venues & Event Spaces",34.11151,-118.33656,GSF9Ln-9CaN0dp_dzW9y6g,,SODEXO@THE HOLLYWOOD BOWL - CONCESSION #7P,2301 N HIGHLAND AVE,LOS ANGELES
420,Nutricion Fuente De Salud,,3,4.5,$,Juice Bars & Smoothies,34.29815504,-118.4584479,mpntTIm7VbHNQQLkc3_5Ow,,FUENTE DE SALUD,12601 SAN FERNANDO RD STE #E,SYLMAR
421,Regency Commerce 14,,87,2.5,,Cinema,34.018353,-118.153645,6ydKjs1AJuN2ffSdGTk02Q,,REGENCY THEATRES COMMERCE 14,950 S GOODRICH BLVD,COMMERCE
422,Marukai Market,,478,4,$$,"Grocery, International Grocery",34.050194,-118.242272,s4c6mAed1vg-iUo_sU47DQ,,MARUKAI MARKET,123 ASTRONAUT ELLISON ONIZUKA ST #106,LOS ANGELES
423,CAFE IF,,98,4.5,$$,Coffee & Tea,34.0942908,-118.3636938,_0Rw8NgTposAdyP9Y2SU-Q,,CAFE IF,7962 FOUNTAIN AVE,WEST HOLLYWOOD
424,V & L Meat & Grill,,2,5,$,Meat Shops,34.201515,-118.383689,wsa2qb2i722XSzdiWagadw,,QUEEN'S MEAT & GRILL,11535 SHERMAN WAY,NORTH HOLLYWOOD
425,Frumentos Italian Market,,434,4,$$,"Delis, Sandwiches, Italian",34.016041,-118.0999094,OKmA9WPfgPHNsAU-jcl94g,,FRUMENTOS ITALIAN MARKET,214 W BEVERLY BLVD,MONTEBELLO
426,Mariscos 4 Vientos,,40,4.5,$$,"Seafood, Mexican",34.01869995,-118.2069791,zmNWy6B9EcY5yscpee56oQ,,MARISCOS & VIENTOS #3,3332 E OLYMPIC BLVD,LOS ANGELES
427,,,,,,,,,,,G & M OIL #51,2155 S ATLANTIC BLVD,LOS ANGELES
428,Johnnie's NY Pizzeria,,201,3.5,$,"Pizza, Italian",34.147749,-118.254648,5x5luokGAVUrrwEyTd5ejQ,,JOHNNIE'S PIZZERIA,138 N BRAND BLVD STE #A,GLENDALE
429,USA Gasoline,,2,2,,Gas Stations,33.81697083,-118.3770981,GpKWbfwq0nbcgfOXr4Fzsg,,USA GASOLINE,1890 S PACIFIC COAST HWY,REDONDO BEACH
430,,,,,,,,,_iekPVhMkuX2pD2T07stAg,,SUPER FAMILIA BARGAIN,815 S INDIANA ST,LOS ANGELES
431,,,,,,,,,,,LOU LLC,4007 W RIVERSIDE AVE # A,BURBANK
432,Howard's Deli,,41,3,$,Delis,34.17446,-118.59091,0xRjwRuYbaA4Mc8pCQbAVg,,HOWARD'S DELI,20970 WARNER CENTER LN STE A,WOODLAND HILLS
433,Bobs Market,,214,4,$$,Grocery,34.01220839,-118.4669067,8cniYfatc68x7iHgRMDQDQ,,BOB'S MARKET,1650 OCEAN PARK BLVD,SANTA MONICA
434,Little Caesars Pizza,,72,1.5,$,Pizza,34.57397,-118.043082,33FC_fsjKMFhVtE1JSWg2Q,,LITTLE CAESARS,38050 E 47TH ST # H,PALMDALE
435,,,,,,,,,,,DOLLAR TREE,2700 BROADWAY,LOS ANGELES
436,Stater Bros. Markets,,46,3.5,$$,"Grocery, Delis, Butcher",34.1068114,-117.836417,rUzcPGpMLq-gxczZ19_msw,,STATER BROS #56 (MARKET),1425 W ARROW HWY,SAN DIMAS
437,Mahalo Poke,,127,3.5,$$,"Seafood, Poke, Sushi Bars",34.1905922,-118.6041431,1NfZpzbWuBYMAutmj2WGNg,,MAHALO POKE,6600 TOPANGA CANYON BLVD # 1008,CANOGA PARK
438,Astro Karaoke,,98,4.5,$$,"Karaoke, Japanese, Bars",33.80167007,-118.3190079,CsW9SXLVPdjum4khOFt0ow,,ASTRO,2150 LOMITA BLVD,LOMITA
439,Sansei Japan,,30,3,$,"Japanese, Sushi Bars",34.03695706,-118.086811,1AEfGtliPt_LXOqQ-nROgw,,SANSEI,1624 MONTEBELLO TOWN CTR # FC02,MONTEBELLO
440,Walmart Neighborhood Market,,51,3,$,Department Stores,34.61401,-118.20016,tcYi8GVCC7dLhnhajep37w,,WAL-MART #5689 MARKET,3875 RANCHO VISTA BLVD,PALMDALE
441,Mandala Liquor Store,,2,2.5,,"Beer, Wine & Spirits",34.0735702,-118.2109939,XgF2HnhQnB9f8tnMTaG3jQ,,MANDALA LIQUOR,2920 N BROADWAY,LOS ANGELES
442,Happy's Market,,2,5,$,"Grocery, Convenience Stores",34.06575012,-118.0430374,DBvt4sWTMt3v_ejGetnuOA,,HAPPY'S MARKET,3155 SANTA ANITA AVE,SOUTH EL MONTE
443,Orpheum Theatre,,306,4,$$,"Music Venues, Cinema",34.042613,-118.255296,N1ToTqW3bsuG2x20zam4cA,,THE OPRHEUM THEATRE,842 S BROADWAY,LOS ANGELES
444,,,,,,,,,,,YOLI'S MINI MARKET,5151 S VERMONT AVE,LOS ANGELES
445,Express Burger,,5,4.5,$,Burgers,33.93847508,-118.2544461,o7__znXHxJdfZ-MlvY7N8g,,EXPRESS BURGER,10727 S CENTRAL AVE,LOS ANGELES
446,Yha Hwa Club,,2,2,,"Sports Bars, Adult Entertainment",34.05434,-118.32144,5Pt_YJEjc3SfkEuGDgTTZw,,YHA HWA,4031 W OLYMPIC BLVD,LOS ANGELES
447,Andy's Bakery,,4,4.5,$,Bakeries,34.1114857,-118.1892341,9hvOqpobWY1msC_7_OzSkg,,ANDY'S BAKERY,6021 N FIGUEROA ST,LOS ANGELES
448,,,,,,,,,,,BELL GARDENS GOLF COURSE,8000 PARK LN,BELL GARDENS
449,Numero Uno Market,,14,3.5,$,International Grocery,33.799706,-118.273792,9xshO2jc902lunxWKZwmaw,,NUMERO UNO MARKET #113,129 E LOMITA BLVD,CARSON
450,,,,,,,,,,,OM NOM ORGANIC,849 S BROADWAY AVE # #A3,LOS ANGELES
451,Pasteleria Luceros,,163,4,$$,Bakeries,34.0358,-118.1909,VBI9tqKmjRXBAIJMCWo4CA,,PASTELERIA LUCEROS,3540 E 1ST ST,LOS ANGELES
452,Starbucks,,7,1,,Coffee & Tea,33.98222714,-118.2489803,TNMXgqIkwx9Pv6UpQGxGDg,,STARBUCKS COFFEE,1437 E GAGE AVE STE A,LOS ANGELES
453,Walgreens,,19,2.5,$$,"Drugstores, Convenience Stores, Cosmetics & Beauty Supply",33.9820409,-118.0534731,B2ErHCJJZPQ8xnTnjQJd5w,,WALGREENS,11604 WHITTIER BLVD,WHITTIER
454,Tasty Grill,,266,4.5,$$,"Korean, Asian Fusion",34.06876,-118.30948,vhtr27Dxcau8JJ2kSgMJnA,,TASTY GRILL,301 S WESTERN AVE # 101,LOS ANGELES
455,Nha Trang,,437,4,$,Vietnamese,34.08031,-118.09646,IzISVIUkmt3aVd_w2v5SLg,,QUAN NGON NHA TRANG,311 E VALLEY BLVD STE 103,SAN GABRIEL
456,Genesis,,5,2,$,"Bars, Dance Clubs",34.10126877,-118.3284988,tZG_9b2pnjrTe1VmQESYgA,,GENESIS LOUNGE AND KITCHEN,6356 HOLLYWOOD BLVD FLR 2,LOS ANGELES
457,,,,,,,,,,,BEVERLY DAIRY,5650 E BEVERLY BLVD,LOS ANGELES
458,,,,,,,,,,,ALBERTSON'S #1333 - MAIN MARKET,38727 TIERRA SUBIDA AVE,PALMDALE
459,Woodley Meat Market,,2,5,,"Grocery, Meat Shops",34.208169,-118.483433,ShExUWJLpb5rn8ToITfnJA,,MEAT DEPT,7548 WOODLEY AVE,VAN NUYS
460,Sam's Club,,169,3,$$,"Wholesale Stores, Grocery, Tires",33.805314,-118.331767,qgammL_5HOfzWEZH0jIAdQ,,FUJISAN SUSHI @ SAM'S CLUB,2601 SKYPARK DR,TORRANCE
461,Krazy Korner Restaurant,,67,4.5,$,"Juice Bars & Smoothies, Tacos, Bubble Tea",34.28169839,-118.4401633,Xb0eYy6t5a-BfA2ovtRBhg,,KRAZY KORNER,901 1/2 SAN FERNANDO RD,SAN FERNANDO
462,,,,,,,,,,,MRS. WINSTON,888 S FIGUEROA ST # 170,LOS ANGELES
463,Subway,,24,2.5,$,Sandwiches,34.18604888,-118.6235941,#NAME?,,SUBWAY SANDWICHES,22800 VICTORY BLVD,WOODLAND HILLS
464,Bachelor Button,,8,5,$,"Restaurants, Dive Bars",33.87509,-118.11936,l7_LgK89kQre1Isru-7Oig,,BACHELOR BUTTON,10043 E ARTESIA PL,BELLFLOWER
465,,,,,,,,,,,ASIAN HOTWOK,14653 VICTORY BLVD,VAN NUYS
466,Classic Coffee,,317,4.5,$,Coffee & Tea,34.13746262,-117.8650513,E_wh6kpElcMX_S1tm3CJpw,,CLASSIC COFFEE,148 N GLENDORA AVE,GLENDORA
467,Catalina Liquor,,13,4,$,"Beer, Wine & Spirits",34.0575676,-118.2957458,IWUUKbVIsk2mRlYF1cJBWg,,CATALINA LIQUOR,3130 W 8TH ST,LOS ANGELES
468,,,,,,,,,,,MELMARS MINI MART,44645 SIERRA HWY,LANCASTER
469,GNC,,12,3.5,$$,"Vitamins & Supplements, Health Markets",34.0341499,-117.7574,gL6o7KzxtRnVQCzlDfSs7Q,,GNC,763 RIO RANCHO RD,POMONA
470,Old River Restaurant,,180,4.5,$,"Burgers, Breakfast & Brunch, Pizza",33.9403313,-118.1540258,o4om_wiX2kjDQjWb5FYrrg,,OLD RIVER LIQUOR INC,7399 STEWART AND GRAY RD,DOWNEY
471,Subway,,5,2.5,$,"Sandwiches, Fast Food",33.9314,-118.26468,3Y_FZG6GyAgvMcykWZEiVA,,SUBWAY SANDWICHES,611 E IMPERIAL HWY STE #105,LOS ANGELES
472,,,,,,,,,,,BASKIN ROBBINS #348609,3614 PACIFIC COAST HWY STE B,TORRANCE
473,,,,,,,,,,,ALPINE SHELL / 7-11 #39449A / SUBWAY,701 W TORRANCE BLVD,TORRANCE
474,Star Garden,,84,4,$,"Bars, Strip Clubs",34.19198533,-118.3873177,BQiYhsbS6DtxjpBac5caQA,,STAR GARDEN,6630 LANKERSHIM BLVD,NORTH HOLLYWOOD
475,Breadologie Bakery,,392,4.5,$,"Bakeries, Sandwiches, Coffee & Tea",34.26518,-118.516,GeazIS3qL0Whd9EEIKmfTw,,BREADOLOGIE,17517 CHATSWORTH ST,GRANADA HILLS
476,Valley View Drugs,,10,4,$$,"Medical Supplies, Mobility Equipment Sales & Services",33.902836,-118.027806,nRnGpHPxVKONiaUcHpl8_w,,VALLEY VIEW REXALL DRUGS,13966 S VALLEY VIEW AVE,LA MIRADA
477,Mother's Nutritional Centers,,12,4.5,$,"Health Markets, Grocery",34.20014,-118.44809,#NAME?,,MOTHER'S NUTRITIONAL CENTER,7132 VAN NUYS BLVD,VAN NUYS
478,Party City,,73,2.5,$$,"Party Supplies, Costumes",33.940702,-118.047735,KQgvlshEIgQU94eeGP3kHA,,PARTY CITY # 634,13360 TELEGRAPH RD,WHITTIER
479,Ameci Pizza Kitchen & Catering - Encino,,226,4,$$,"Pizza, Italian, Chicken Wings",34.15512892,-118.4741247,tNxzXXEWvHipZgs67PBrRw,,AMECI PIZZA,15615 VENTURA BLVD # A,ENCINO
480,The Coffee Bean & Tea Leaf,,127,3.5,$,Coffee & Tea,34.167944,-118.375824,puINX2yC3MdJ_tceD8zB3g,,COFFEE BEAN & TEA LEAF #192,5300 LANKERSHIM BLVD STE 115,NORTH HOLLYWOOD
481,Quiznos,,38,3.5,$,"Sandwiches, Delis",33.8545036,-118.300318,YRxOmRGY63TYaJe-LTaclA,,QUIZNOS #648,1441 W KNOX ST STE 600,TORRANCE
482,,,,,,,,,,,EL MANANTIAL WATER,11044 LONG BEACH BLVD # A,LYNWOOD
483,Potato Corner,,65,4,$,"Specialty Food, Fast Food, Chicken Wings",34.135739,-118.050977,N4kxvO7-pXEysAoTppZQ9w,,POTATO CORNER,400 S BALDWIN AVE STE 9250,ARCADIA
484,Jonathan Club,,98,4,,"Venues & Event Spaces, Squash, Social Clubs",34.05153,-118.25853,z4UsLe6wXU4fdN6x5Z9AoA,,JONATHAN CLUB - FLORENTINE LOUNGE BAR,545 S FIGUEROA ST,LOS ANGELES
485,,,,,,,,,,,228 E - BAR - 3RD FLR,3900 W MANCHESTER BLVD,INGLEWOOD
486,,,,,,,,,,,EL MILAGRO MARKET,1801 ALBION ST,LOS ANGELES
487,El Cafetin Mkt,,1,2,$,Grocery,34.08243179,-118.1784058,7F7nNfSyYTmfOP_kcXrCpQ,,EL CAFETIN MARKET,3217 N EASTERN AVE,LOS ANGELES
488,Starbucks,,95,3,$$,Coffee & Tea,34.613012,-118.199641,jOVNyDJDojufHeOEamQ6ng,,STARBUCKS,3869 W RANCHO VISTA BLVD,PALMDALE
489,The Hollywood Bowl Stand,,3,3.5,,"Food Stands, Venues & Event Spaces",34.11151,-118.33656,GSF9Ln-9CaN0dp_dzW9y6g,,SODEXO @ THE HOLLYWOOD BOWL - POOL CIRCLE KITCHEN,2301 N HIGHLAND AVE,LOS ANGELES
490,The Counter,,188,2,$$,Burgers,33.94131998,-118.3995048,_511GTZrG6CL9AZd23XhvQ,,THE COUNTER SPACE 7C,700 WORLD WAY,LOS ANGELES
491,Starbucks,,111,3.5,$,Coffee & Tea,34.054901,-118.383531,#NAME?,,STARBUCKS COFFEE CO #5626,8783 W PICO BLVD,LOS ANGELES
492,JOANN Fabrics and Crafts,,151,3,$$,"Fabric Stores, Home Decor, Art Supplies",34.054403,-118.3758906,dkh0cbalSrBeDAM4QtONjA,,JOANN FABRICS AND CRAFTS,1250 S LA CIENEGA BLVD,LOS ANGELES
493,Vitamin World,,8,3,,Vitamins & Supplements,34.134915,-118.050994,lZUwxgjujd-VpTcR86V8Pg,,VITAMIN WORLD # 4928,400 S BALDWIN AVE # 405,ARCADIA
494,Bull BBQ,,210,4,$$,"Korean, Barbeque",33.86653179,-118.3087521,pKnri4lfAOC-XBBOrdR3eQ,,BULL BBQ,18040 S WESTERN AVE,GARDENA
495,,,,,,,,,,,BGM BROKERAGE BEER #1 TRAILER,22500 SOLEDAD CANYON RD,SANTA CLARITA
496,GNC,,3,2.5,,"Vitamins & Supplements, Health Markets",34.0455343,-118.2540693,LkYRM3jfMlpS3x8kXpiaUw,,GNC C#5165,316 W 7TH ST,LOS ANGELES
497,La Placita Market,,2,4,$,Grocery,34.25918,-118.43218,N_ZWx4jS1fdcGarRYUG6qA,,LA PLACITA MARKET,10402 LAUREL CANYON BLVD,PACOIMA
498,Walgreens,,86,2,$,"Drugstores, Convenience Stores, Cosmetics & Beauty Supply",34.077716,-118.2575413,CUfuQR_zDTKz0KSlqG_wIw,,WALGREENS 09136,1625 W SUNSET BLVD,LOS ANGELES
499,,,,,,,,,,,BOEING 526 CAFE,2060 E IMPERIAL HWY,EL SEGUNDO
500,,,,,,,,,,,CITY OF WALNUT CONCESSIONS,20633 SNOW CREEK DR,WALNUT
501,,,,,,,,,,,MOBIL OIL FOOD MART,110 E PALMDALE BLVD,PALMDALE
502,Circle K,,10,3.5,$$,Convenience Stores,34.09673,-118.01129,JIPoAGBxqXMhZ-AgTFd82w,,CIRCLE K # 3066,5202 N PECK RD,EL MONTE
503,,,,,,,,,,,WORLD'S HARVEST CHARITIES AND FAMILY SERVICES,3200 S GRAND AVE,LOS ANGELES
504,Mia Jee Tandoori,,253,4,$$,"Indian, Halal, Pakistani",34.06998,-118.29206,_5Z-g0BH0iYTu7qDKZf_2A,,MIA JEE TANDOORI LLC,205 S VERMONT AVE,LOS ANGELES
505,Katsuya Brentwood,,1063,4,$$$,"Sushi Bars, Japanese, Venues & Event Spaces",34.05348587,-118.4683838,DCNr01KHmodlV3Kh2bOqkg,,KATSUYA,11777 SAN VICENTE BLVD,LOS ANGELES
506,The Links at Terranea,,62,4,,Golf,33.738226,-118.397968,Jz6OEO1zuKYqd4Bc0HPUXg,,THE SPA AT TERRANEA,100 TERRANEA WAY,RANCHO PALOS VERDES
507,Hot Spot,,361,3.5,$$,"Taiwanese, Hot Pot, Shaved Ice",33.995554,-117.906648,3rqP082z1SgyLZmuRgF17A,,HOT SPOT TAIWANESE RESTAURANT,18246 GALE AVE STE B,INDUSTRY
508,,,,,,,,,,,EL PILON MEAT MARKET #2,14503 PACIFIC AVE,BALDWIN PARK
509,Pasha Market,,78,3.5,$$,"Grocery, Halal",34.105813,-117.8481585,jBOenondZgXtoV5gTefvVA,,PASHA MARKET,20802 E ARROW HWY,COVINA
510,Famous Market,,21,5,$,"Grocery, Salad, Meat Shops",34.18962988,-118.3874732,yELkkZudvnJQFB9E9DiEjA,,FAMOUS MARKET,"6530 LANKERSHIM BLVD UNIT C,D,E",NORTH HOLLYWOOD
511,Hop Secret Brewing at Myrtle Tree Cafe,,234,4,$$,"Beer Bar, Gastropubs",34.1477465,-118.0010949,BdOXUKTKOIKl_KRTbguLuA,,MYRTLE TREE CAFE - MARKET,405 S MYRTLE AVE,MONROVIA
512,,,,,,,,,,,ROSEVAN LIQUOR,14306 S VAN NESS AVE,GARDENA
513,The Hideaway Cafe,,2,5,,Cafes,34.1563403,-118.483258,EjoydjYxUHtzHaLyGI_kvQ,,THE HIDEAWAY CAFE,16055 VENTURA BLVD,ENCINO
514,7-Eleven,,28,2.5,$,"Convenience Stores, Coffee & Tea",34.06219762,-118.3137977,sPc7NGwNO0zDCbmCUPkB7Q,,7-ELEVEN STORE #23393C,3975 WILSHIRE BLVD,LOS ANGELES
515,Hermosa Saloon,,112,3.5,$,"Dive Bars, Champagne Bars",33.85669015,-118.3908572,0RQIMjwAmuC9YWoMa_Lu4A,,HERMOSA SALOON,211 PACIFIC COAST HWY,HERMOSA BEACH
516,99 Cents Only Stores,,8,3.5,$,"Discount Store, Party Supplies",33.780011,-118.267144,TMJn_vCxZtwJQQEZN8JTZQ,,99 CENTS ONLY STORES #283,401 W ANAHEIM ST,WILMINGTON
517,Kindness & Mischief Coffee,,288,4.5,$,Coffee & Tea,34.1088511,-118.1945951,ztYxM5znfbCSvMDt5jC-Zg,,KINDNESS AND MISCHIEF,5537 N FIGUEROA ST,LOS ANGELES
518,Knights of Columbus,,5,2.5,,Venues & Event Spaces,34.09166,-117.92583,IPTS7SfA9ZUxwAImjzLSvw,,KNIGHTS OF COLUMBUS,4315 N VINCENT AVE,COVINA
519,4 Ur Health,,2,5,$$$,Vitamins & Supplements,33.978829,-118.187752,fissylmX8DXj7HhnrTuelQ,,4 UR HEALTH,6355 ATLANTIC AVE,BELL
520,Sprinkles Beverly Hills Ice Cream,,647,3.5,$$,Ice Cream & Frozen Yogurt,34.069668,-118.406045,baI8hhAhfokAQYtyMcl6qw,,SPRINKLES ICECREAM,9631 S SANTA MONICA BLVD,BEVERLY HILLS
521,The Coffee Bean & Tea Leaf,,93,4,$,Coffee & Tea,34.15242214,-118.3512935,mearOJ7qe23C6RUr2cEmOA,,THE COFFEE BEAN & TEA LEAF,10121 RIVERSIDE DR,NORTH HOLLYWOOD
522,,,,,,,,,,,GALY'S FRUIT,4521 GAGE AVE,BELL
523,Yogurtland Norwalk,,51,4,$,"Ice Cream & Frozen Yogurt, Cupcakes, Chocolatiers & Shops",33.9044658,-118.083227,cspK8NIWYqTkWXuTeH9bDQ,,YOGURTLAND,13933 PIONEER BLVD,NORWALK
524,Alaska Airlines,,527,2.5,,Airlines,33.9427582,-118.4031324,UAj6EdeaIuei7P5Z-QYvmg,,ALASKA AIRLINES BOARDROOM,600 WORLD WAY #4708,LOS ANGELES
525,Starbucks,,81,3,$,Coffee & Tea,34.026892,-118.3718895,5Sm9a_dNqVZW2HPXbOjNVA,,STARBUCKS COFFEE 14412,3344 S LA CIENEGA BLVD,LOS ANGELES
526,Red Ribbon Bakeshop,,10,3.5,$$,"Bakeries, Fast Food, Filipino",33.99354,-117.93059,a0bUkmWJKZtUcFv23FG5jg,,RED RIBBON,1600 S AZUSA AVE UNIT 166B,INDUSTRY
527,Amapola Deli & Market,,42,3,$,"Grocery, Delis",33.9104216,-118.1691082,6Of5GYvT0MlJ243ddes8Jw,,AMAPOLA DELI & MARKET-BAKERY,13733 GARFIELD AVE,PARAMOUNT
528,,,,,,,,,,,J'S 98 CENTS & UP STORE,2945 TWEEDY BLVD # B,SOUTH GATE
529,,,,,,,,,,,PREMIER CATERING - LOWER DECK,2700 N VERMONT AVE,LOS ANGELES
530,Tumbys Pizza,,26,3,$,Pizza,34.02287201,-118.1341838,yg__ZaccwgtloDS-ahU3dg,,TUMBY'S PIZZA,2900 W BEVERLY BLVD,MONTEBELLO
531,The Coffee Bean & Tea Leaf,,149,3.5,$,Coffee & Tea,34.1828115,-118.3111162,EJlLU2FE_eRiFPREjIVJdA,,THE COFFEE BEAN & TEA LEAF29,340 N SAN FERNANDO BLVD,BURBANK
532,,,,,,,,,,,SILVER MOON MARKET,2501 E 4TH ST,LOS ANGELES
533,The Vine Street Deli,,149,4,$$,"Coffee & Tea, Sandwiches, Delis",34.09375,-118.32724,gRwyPLhPMjWfbun3SNbDkA,,VINE STREET DELI & CAFE,1241 VINE ST,LOS ANGELES
534,Quickly,,176,3.5,$,"Coffee & Tea, Asian Fusion",34.03610082,-117.9124966,vIfJQFyLIYvXdbpa5KQRUg,,QUICKLY BOBA TEA INC,2270 S AZUSA AVE # B,WEST COVINA
535,,,,,,,,,,,WOW SSADA,10923 MAGNOLIA BLVD,NORTH HOLLYWOOD
536,Hudson News,,9,2,$$$,"Newspapers & Magazines, Convenience Stores",33.942465,-118.407058,OTIvrlRmDL24yW9H1f16Eg,,HUDSON NEWS / THAT'S SO LA,400 WORLD WAY # 4C,LOS ANGELES
537,Togo's Sandwiches,,86,3.5,$,"Sandwiches, Delis, Fast Food",34.118833,-117.779702,SXkcQPfX_Ql_qGJh3UOkZw,,TOGO'S SANDWICHES,1253 FOOTHILL BLVD,LA VERNE
538,Lakewood Liquor,,4,5,$,"Beer, Wine & Spirits",33.831779,-118.088918,xxKka909gAGEMUp94UKCvw,,LAKEWOOD LIQUOR,11455 CARSON ST,LAKEWOOD
539,7-Eleven,,6,2.5,$,"Convenience Stores, Coffee & Tea",34.20145518,-118.5442372,RSrCncC-hBFD0HccANibjA,,7-ELEVEN STORE # 39014B,18845 SHERMAN WAY STE # A,RESEDA
540,Skewers Halal,,273,4.5,$$,"Halal, Middle Eastern, Italian",34.2490323,-118.6058351,rPufWjgun7CSJi2xoNSTFw,,SKEWERS HALAL,9820 TOPANGA CANYON BLVD # O,CHATSWORTH
541,Freudian Sip Sierra Center,,12,2,$,"Coffee & Tea, Breakfast & Brunch, Vegan",34.238897,-118.526897,hF3a2N6AnYtyWqp42xakmg,,FREUDIAN SIP -OVIATT LIBRARY,18111 NORDHOFF ST,NORTHRIDGE
542,DD Fry Baldwin Park,,21,4,$,Chicken Shop,34.09082526,-117.960944,TTN_qOpUWd9lHpjCUWEjmQ,,DD FRY CORP,4303 MAINE AVE # 104,BALDWIN PARK
543,,,,,,,,,,,BEVERAGES & MORE #113,2533 PACIFIC COAST HWY STE A,TORRANCE
544,Dragon Palace,,413,3.5,$,Chinese,34.0348888,-118.4720846,iW0td8eN1fWo4EvQ_Gh_uw,,DRAGON PALACE CHINESE RESTAURANT,2832 SANTA MONICA BLVD,SANTA MONICA
545,Toads Discount Liquor,,3,1,$,"Beer, Wine & Spirits",33.94913864,-118.182457,Wtk7eP7zhFA9g9C22H9pGg,,TOAD'S DISCOUNT LIQUOR,9001 ATLANTIC AVE,SOUTH GATE
546,,,,,,,,,,,GENERAL NUTRITION CTR #7032,11809 E WHITTIER BLVD,WHITTIER
547,Laurel Point,,445,4,$$,"American (Traditional), Seafood",34.143007,-118.394442,BzYlcWE8hyO7jSIjdSypgg,,LAUREL POINT,12050 VENTURA BLVD # C202,STUDIO CITY
548,Inland Dairy,,5,3,,"Beverage Store, Beer, Wine & Spirits, Convenience Stores",34.0964996,-117.764,lG5I8YTUc5jeYyIqjHiJ9g,,INLAND DAIRY MARKET,2055 WHITE AVE,LA VERNE
549,Studio Scoop,,2,5,,Ice Cream & Frozen Yogurt,34.138127,-118.353378,N6h7fjM7l-4TfZ-Ri6-vpQ,,STUDIO SCOOP,100 UNIVERSAL CITY PLZ,UNIVERSAL CITY
550,Fruta y Cultura,,16,4.5,$,"Juice Bars & Smoothies, Coffee & Tea, Salad",34.261817,-118.42733,3v-fHWBNbxlVE6W5c0u7AQ,,FRUTA Y CULTURA,13512 VAN NUYS BLVD,PACOIMA
551,Smoke & More,,4,4,,Tobacco Shops,33.93867493,-118.3086319,LwWYetV8SvQnwz20KVUzwQ,,SMOKE & MORE,10714 S WESTERN AVE #105,LOS ANGELES
552,Target,,161,3,$$,"Department Stores, Furniture Stores, Electronics",34.42068,-118.561229,IbSNJ8usYjWPKrRQTLAchA,,TARGET STORES #257,24425 W MAGIC MOUNTAIN PKWY,VALENCIA
553,Starbucks,,131,3.5,$,Coffee & Tea,34.17459,-118.30068,2atCd0-f9SmESftti69JLw,,STARBUCKS COFFEE #5708,113 E ALAMEDA AVE,BURBANK
554,Diep Thanh Thanh Seafood Restaurant Drink and Dessert,,258,4,$$,"Vietnamese, Seafood, Hot Pot",34.06219,-118.08452,5VMj8ttTiE5GOQ0dotSDPQ,,DIEP THANH THANH RESTAURANT - DRINKS - DESSERT,8450 GARVEY AVE # 102,ROSEMEAD
555,Jamba Juice,,69,3.5,$,Juice Bars & Smoothies,33.8330914,-118.3481543,ktrLVnHqLlpjce3MpKAntA,,JAMBA JUICE #866,3525 W CARSON ST # 80,TORRANCE
556,Curry Hut Indian Food,,511,4.5,$,"Indian, Desserts, Barbeque",34.000609,-118.085303,Lzu-hxXmlv8O7jwBY6jMlw,,CURRY HUT INDIAN FOOD,8838 E WHITTIER BLVD,PICO RIVERA
557,Sprouts Farmers Market,,161,3,$$,"Grocery, Health Markets, Organic Stores",34.027767,-118.393745,RGqgnjg1B3S2OzvGxnZYwA,,SPROUTS - BAKERY/DELI,8985 W VENICE BLVD,LOS ANGELES
558,Taqueria Colima,,87,4,$,Mexican,33.93044749,-117.9949969,IpNcKg7fBFE51f6yFXEQKA,,TAQUERIA COLIMA,15648 E LEFFINGWELL RD,WHITTIER
559,Edible Arrangements - Studio City,,70,2.5,$$$,"Gift Shops, Florists, Chocolatiers & Shops",34.1502251,-118.387975,#NAME?,,EDIBLE ARRANGEMENTS,11702 MOORPARK ST,STUDIO CITY
560,,,,,,,,,,,BIONIC LAND,12200 CIVIC CENTER DR,NORWALK
561,,,,,,,,,,,HOLLYWOOD REPORTER #1452,500 WORLD WAY T5,LOS ANGELES
562,McDonald's,,35,1.5,$,"Fast Food, Coffee & Tea, Burgers",34.02757181,-118.219226,P4KShh94GLiwlXGWNtTXEg,,MC DONALD'S,1210 S SOTO ST,LOS ANGELES
563,Smart & Final Extra!,,55,3,$$,Grocery,34.20194531,-118.5786333,1RlwlwXwRDRCbYXrakcDyg,,SMART & FINAL EXTRA #512,7224 MASON AVE,WINNETKA
564,Catrina Mexican Restaurant,,12,3,$,Mexican,33.81645584,-118.3058319,wXleia3q1Ovj-y0SWYREuw,,CATRINA MEXICAN RESTAURANT,1585 SEPULVEDA BLVD UNIT K,TORRANCE
565,Walmart,,7,2,,Department Stores,34.443878,-118.576153,I0Piqu1DIkTqrzfO5CFmrQ,,WALMART-BAKERY,27931 KELLY JOHNSON PKWY,VALENCIA
566,7-Eleven,,24,3,$,"Convenience Stores, Gas Stations, Coffee & Tea",33.74916,-118.40711,e2dwGNoRK5YBUfIdBYXcLQ,,7-ELEVEN #33601,31186 HAWTHORNE BLVD,RANCHO PALOS VERDES
567,Ray & Roy's Market,,3,5,$,"Grocery, Beer, Wine & Spirits",34.03786,-118.20636,PidXKhu6DGVtsQ3R2gpCJA,,RAY & ROY'S MARKET,2800 E 4TH ST,LOS ANGELES
568,Kiss Pizza & Deli,,39,3.5,$,"Pizza, Delis, Sandwiches",34.04661,-118.25291,IhL2Hf4a5aq9AaC-DTx4pQ,,KISS PIZZA AND DELI,609 1/2 S BROADWAY,LOS ANGELES
569,,,,,,,,,,,"C SORE CO, INC.",11402 HAWTHORNE BLVD,HAWTHORNE
570,H Mart - Lakewood,,138,3.5,$$,"Grocery, Korean, Seafood Markets",33.84670141,-118.0825948,C_whtGAuGd7f6H9nmiQrog,,H MART,20137 PIONEER BLVD,LAKEWOOD
571,The Loose Teas Cafe and Gifts,,500,4.5,$,"Coffee & Tea, Sandwiches, Gift Shops",34.139487,-118.013227,CXGoDJIEpWVxWjXzGjQdOA,,THE LOOSE TEAS CAFE AND GIFTS,666 W HUNTINGTON DR,MONROVIA
572,,,,,,,,,,,FAT BURGER,1507 W BEVERLY BLVD,MONTEBELLO
573,Panaderia Salvadorena Bakery,,1,4,$,Bakeries,34.07612,-118.30329,ua3sUuJv3fs33Q7bKkDS2A,,PANADERIA SALVADORENA,4322 BEVERLY BLVD,LOS ANGELES
574,Street Corner,,5,3,,Convenience Stores,34.14568667,-118.259255,Gl6F84PlWqdobu0c2ahU4A,,STREET CORNER NEWS,1317 GLENDALE GALLERIA,GLENDALE
575,The Noypitz Bar and Grill,,66,3.5,$$,"Bars, Filipino, Buffets",34.04448,-118.23824,b_6BTlNfFYVapIl3alRwFw,,T3  BAR & GRILL,333 S ALAMEDA ST STE 115,LOS ANGELES
576,Srisiam Thai Kitchen,,296,4,$,"Thai, Seafood, Asian Fusion",34.1508951,-118.0280399,Y9ebpMiiuASn2PBTgvWLFA,,SRI SIAM THAI RESTAURANT,106 E FOOTHILL BLVD,ARCADIA
577,Atlantic Liquor,,1,4,$$,"Beer, Wine & Spirits",33.9295151,-118.1837945,SBro1PYDIHCzMfLGAtNzcw,,ATLANTIC LIQUOR,11022 S ATLANTIC AVE,LYNWOOD
578,Sheng Ji Noodle House,,20,4,$,Dim Sum,34.080532,-118.092987,B19wH6izxyHwNa9mhtIZvQ,,S.G. NOODLE HOUSE,608 E VALLEY BLVD # A&B,SAN GABRIEL
579,Alondra's Bakery #2,,21,4.5,$,Bakeries,34.14651061,-117.9085593,3cyvsEGblni6iNwz-CZEuA,,ALONDRA BAKERY NO. 2,180 W SIERRA MADRE,AZUSA
580,Claremont Nutrition Center,,2,2.5,,Acupuncture,34.1072449,-117.7302674,qN6nCWY4noVLy9ogfyp0XA,,CLAREMONT NUTRICION CENTER,843 W FOOTHILL BLVD,CLAREMONT
581,Vitamin World,,3,4,$$,Vitamins & Supplements,33.936115,-118.121004,H_SXaxgZJvHm3KNhk7BUtQ,,VITAMIN WORLD #4971,181 STONEWOOD ST,DOWNEY
582,Quenelle,,805,4.5,$,Ice Cream & Frozen Yogurt,34.1726058,-118.3322002,WAqPmh1KCaAjuPSAxsXGUA,,QUENELLE,2214 W MAGNOLIA BLVD # A,BURBANK
583,,,,,,,,,,,7-ELEVEN STORE #34189A,20501 S WESTERN AVE,TORRANCE
584,Kreation Organic Juicery,,91,4.5,$$,Juice Bars & Smoothies,33.88661,-118.41024,D0PY1Z_KdEYRuphhcE19AA,,KREATION JUICERY,1300 HIGHLAND AVE # 110,MANHATTAN BEACH
585,7-Eleven,,8,3.5,$,"Convenience Stores, Coffee & Tea",34.15068039,-118.3786672,17Xp7twKFkSzd5kGf08Gkw,,7 ELEVEN,11351 MOORPARK ST,STUDIO CITY
586,Pieology Pizzeria,,296,3.5,$,Pizza,33.80435,-118.35028,l6ldcHoiFLevjcG28aMydw,,PIEOLOGY PIZZERIA,3720 PACIFIC COAST HWY,TORRANCE
587,Azabu Sabo,,325,4,$$,Japanese,33.98608767,-118.3931365,iGuRzOYDp1VdHxT-krFc-g,,AZABU SABO,6000 SEPULVEDA BLVD STE 2507,CULVER CITY
588,7-Eleven,,30,3.5,$,"Convenience Stores, Coffee & Tea",34.1131699,-118.07309,8IguWlPbKvKsnPgO8cC6Iw,,7 ELEVEN #34630,6262 ROSEMEAD BLVD,TEMPLE CITY
589,Mike's Tobacco,,21,4,$$,Tobacco Shops,34.001609,-117.809226,I2MD1vKfj6vWxH-rrnp2uw,,MIKE'S TOBACCO & LIQUOR,1174 S DIAMOND BAR BLVD,DIAMOND BAR
590,Uncle Tetsu,,1150,3.5,$,"Japanese, Desserts, Bakeries",34.135092,-118.052174,qYbh1TcXnaknbn3HVyAEoQ,,UNCLE TETSU,400 S BALDWIN AVE # M15,ARCADIA
591,,,,,,,,,,,UNIVISION DEPARTURE,200 WORLD WAY,LOS ANGELES
592,Viktor Benes Bakery,,49,3,$$,Bakeries,34.156287,-118.396032,K_g9eJ-eixBmrnOk1o86Ww,,VICTOR BENES,4738 LAUREL CANYON BLVD,VALLEY VILLAGE
593,Focus,,29,3.5,$,Barbeque,34.05839,-118.06481,sD82oi_jlFiaC13BHGd6NQ,,FOCUS,2541 ROSEMEAD BLVD,SOUTH EL MONTE
594,Hughie's Liquor,,13,3.5,,"Beer, Wine & Spirits",34.16531,-118.39734,DAPzY8W05hxbvpUif4vfbg,,HUGHIES LIQUOR MARKET,12121 MAGNOLIA BLVD,NORTH HOLLYWOOD
595,Mediterranean Gourmet,,3,4.5,$$,"Mediterranean, Middle Eastern, African",34.01743166,-118.4095039,S1Ls0a3Dm4yHRavmbUxYSA,,MEDITERRANEAN TRADITIONAL FOOD,10821 VENICE BLVD,LOS ANGELES
596,GNC,,20,3.5,$$,"Health Markets, Vitamins & Supplements",34.1915688,-118.3287992,wxeKyzUQf0T2zMWTzrv4Yg,,GNC #8384,1735 N VICTORY PL,BURBANK
597,Rite Aid,,50,3,$$,"Drugstores, Convenience Stores",33.960969,-118.034569,SpwInS7c94i2JjaoOwh_EQ,,RITE AID #5494,8508 S PAINTER AVE,WHITTIER
598,,,,,,,,,,,HOMEGOODS #644,5530 RESEDA BLVD,TARZANA
599,Wateria,,11,3.5,,Water Stores,34.078826,-117.909146,X1Nk66fEvEOP4PzjUZmaVA,,WATERIA,449 N AZUSA AVE,WEST COVINA
600,,,,,,,,,,,ATLANTIC PETROLEUM,301 S ATLANTIC BLVD,LOS ANGELES
601,,,,,,,,,,,TRAVEL TRADERS #3065,1400 PARK VIEW AVE,MANHATTAN BEACH
602,,,,,,,,,,,QUAN SERVICE CENTER INC.,250 S ATLANTIC BLVD,LOS ANGELES
603,,,,,,,,,,,CUT IN HALF EL SANCHO RESTAURANT,1600 W SLAUSON AVE # L32,LOS ANGELES
604,,,,,,,,,,,ONGGANAE LA,936 S VERMONT AVE,LOS ANGELES
605,,,,,,,,,,,POPCORNOPOLIS,21880 HAWTHORNE BLVD # 337B,TORRANCE
606,n/naka,,790,4.5,$$$$,Japanese,34.02507,-118.41227,tDeuHjIUJrHeELrKEekXtA,,N NAKA SUSHI,3455 OVERLAND AVE,LOS ANGELES
607,,,,,,,,,,,HERITAGE FINE  WINES,9400 S SANTA MONICA BLVD #101,BEVERLY HILLS
608,,,,,,,,,,,PENTHOUSE BAR,1111 2ND ST # 18 FL,SANTA MONICA
609,Office Depot,,39,3,$$,Office Equipment,34.4437184,-118.5736069,Ll-1tvR--oCUk_-3CrZjMQ,,OFFICE DEPOT #2263,28150 NEWHALL RANCH RD,SANTA CLARITA
610,William's Market,,2,3,,"Beer, Wine & Spirits, Convenience Stores",33.80487,-118.2606,bAZjkZuG1_MdRKuH2qwWhA,,WILLIAM'S MARKET,743 E DELORAS DR,CARSON
611,Dollar Tree,,21,2,$,Discount Store,34.060241,-118.274159,vFwbE0ehq1O7NIOKK5976w,,DOLLAR TREE #4095,426 S ALVARADO ST,LOS ANGELES
612,Dollar Tree,,48,2.5,$,Discount Store,34.09281363,-118.3260989,uYJnKxdSsXKiR5U4DvsuXw,,DOLLAR TREE # 5859,1212 N VINE ST,LOS ANGELES
613,,,,,,,,,,,MAKET LATINA,2432 TYLER AVE,SOUTH EL MONTE
614,,,,,,,,,,,CARMEL LIQUOR,12516 VANOWEN ST,NORTH HOLLYWOOD
615,Baskin-Robbins,,151,4,$,"Ice Cream & Frozen Yogurt, Desserts, Custom Cakes",34.0781085,-118.1142895,5yjeRoKtjByh9Lul0m6Ymw,,BASKIN ROBBINS,838 E VALLEY BLVD,ALHAMBRA
616,Barkowski,,233,4.5,$,Bars,34.0245094,-118.4603195,R7qMvTfHz6BasJhNUbvvEQ,,BARKOWSKI,2819 PICO BLVD,SANTA MONICA
617,Mi Latin Kitchen,,67,4,$$,Colombian,34.174338,-118.351411,qXCPVLn2rOQLMudQxp81Mw,,PABLITOS PERUVIAN KITCHEN,3803 BURBANK BLVD,BURBANK
618,,,,,,,,,,,FRUTERIA JUICE,6745 FULTON AVE,VAN NUYS
619,Belle Bakery Cafe,,109,4.5,$,"Cafes, Bakeries, Sandwiches",34.1440554,-118.408636,E0kUoNFek9EsVv3tT5Njmg,,BELLE BAKERY,12634 VENTURA BLVD,STUDIO CITY
620,Prik Kee Noo Thai,,102,4,$,"Thai, Noodles",34.11381,-117.91703,xS16fFOEYGaFfKm42yPEGQ,,PRIK KEE NOO THAI RESTAURANT,16920 E GLADSTONE ST,AZUSA
621,,,,,,,,,,,WESTERN FUEL GROUP,101 E HOLT AVE,POMONA
622,Kmart,,33,2,$$,Department Stores,34.4217359,-118.5433181,ndL8Cj85nQ7DxjXIS6xNIg,,KMART #3018,23222 VALENCIA BLVD,VALENCIA
623,CVS Pharmacy,,56,2.5,$$,"Drugstores, Pharmacy, Convenience Stores",34.0805,-118.109,WlESgE5RebjEIT2QlcjcPA,,CVS/PHARMACY #9679,1485 E VALLEY BLVD,ALHAMBRA
624,Mr T Meat Market,,3,5,$$$,Meat Shops,33.98308563,-118.3086166,8YKaw0AnzLzl3HWePaswyg,,MCM MEET MARKET,6200 S WESTERN AVE,LOS ANGELES
625,Mama Chela's Kitchen,,54,4.5,$,Mexican,34.1018049,-118.3181936,vFF9-VAf3PydCISvOqjfiA,,MAMA CELIA'S KITCHEN,5907 W HOLLYWOOD BLVD,LOS ANGELES
626,Synn Gentlemen's Club,,66,3.5,$$,Strip Clubs,34.22191,-118.46736,hw4jB81-gK8N08vq7p29VQ,,SYNN 2,8314 SEPULVEDA BLVD,NORTH HILLS
627,Nanay Gloria,,35,3.5,$,Filipino,34.07179127,-118.272785,3VQmFmADmuzR06CObvYXYw,,NANAY GLORIA BAKESHOP & RESTAURANT,2432 W TEMPLE ST,LOS ANGELES
628,,,,,,,,,,,ELBOW ROOM,11110 ALONDRA BLVD,NORWALK
629,La Favorita Bakery,,67,3,$,Bakeries,33.881725,-118.292685,fQpnzveE-isWTkJAIfq7Rw,,LA FAVORITA BAKERY,1037 W GARDENA BLVD,GARDENA
630,Chevron Stations,,14,2.5,,Gas Stations,34.09832,-118.36535,wDlqCdaLDGm9j9k0EnrFJA,,CHEVRON STATION #95008,8101 W SUNSET BLVD,LOS ANGELES
631,,,,,,,,,,,THE FIKA COMPANY-COFFEE ROASTERY,350 N PACIFIC COAST HWY,REDONDO BEACH
632,Amin's Oil,,3,1,,Gas Stations,34.03238,-118.30058,Npa4xSH78LuIpgbPaVXjsg,,AMIN'S SHELL,2603 S NORMANDIE AVE,LOS ANGELES
633,San Fernando Union 76,,3,1.5,,Gas Stations,34.29847,-118.41998,pvipOv2_vQMp4t4DH_pgng,,SAN FERNANDO 76,13131 FOOTHILL BLVD,SYLMAR
634,,,,,,,,,,,LUCKY 7 LIQUOR & DELI,13307 PARAMOUNT BLVD,SOUTH GATE
635,Cafe Bonaparte,,240,3.5,$$,"French, Coffee & Tea, Breakfast & Brunch",33.862345,-118.400774,RD3xuEUssCnr4GOTKxxt3Q,,CAFE BONAPARTE,53 PIER AVE,HERMOSA BEACH
636,,,,,,,,,,,LUCKY 1 LIQUOR,8462 S MAIN ST,LOS ANGELES
637,Temakitto,,535,4.5,$$,"Asian Fusion, Japanese, Poke",34.443183,-118.573343,wZn12IonoIr5tG9aX3H11A,,TEMAKITTO,28126 NEWHALL RANCH RD,SANTA CLARITA
638,Sam's Club,,169,3,$$,"Wholesale Stores, Grocery, Tires",33.805314,-118.331767,qgammL_5HOfzWEZH0jIAdQ,,SAM'S CLUB #6628,2601 SKYPARK DR,TORRANCE
639,Just 99¢ & Deals,,6,3.5,,Discount Store,34.1091,-117.75352,l7sPXR7_mCEjYlezYZIwjQ,,JUST DEAL 99,390 W FOOTHILL BLVD,POMONA
640,Local Fixture,,109,4.5,$$,"Gift Shops, Women's Clothing, Coffee & Tea",33.9800288,-118.0361499,WKJUfI-zmVZkqmR30wePvA,,LOCAL FIXTURE,6728 BRIGHT AVE,WHITTIER
641,Flame Broiler,,69,3,$,"American (Traditional), Fast Food, Asian Fusion",34.074708,-117.8913,1KSmp2tpmaP30YtLueJ82Q,,THE FLAME BROILER #106,2532 E WORKMAN AVE,WEST COVINA
642,Delilah,,395,3,$$$,"American (New), Lounges",34.0909402,-118.3636093,PJPubcB4oEtsqwnpu8SSJQ,,DELILAH,7969 SANTA MONICA BLVD,WEST HOLLYWOOD
643,Pho Kobe,,209,3.5,$,Vietnamese,33.8548012,-118.3000412,JqEEiHdVf_bp_wq0eFeLNQ,,PHO KOBE,1441 W KNOX ST STE 200,TORRANCE
644,99 La Fuente,,1,5,,Discount Store,34.0696754,-118.3002243,lP7uS8eSNaULtSRawPiZ3A,,LA FUENTE 99 CENT #2,272 S NORMANDIE AVE,LOS ANGELES
645,,,,,,,,,,,CHICAS TACOS,728 S OLIVE ST,LOS ANGELES
646,Hilton Los Angeles/Universal City,,761,3.5,$$$,"Hotels, Venues & Event Spaces",34.13692071,-118.3582589,oz-l9zWBlNURcPj_5UnABw,,HILTON-LOBBY LOUNGE,555 UNIVERSAL HOLLYWOOD DR,UNIVERSAL CITY
647,Starbucks,,166,3.5,$,Coffee & Tea,34.103758,-118.074074,bNNkKztGTW5V1uEZsT9FkA,,STARBUCKS COFFEE CO,5705 ROSEMEAD BLVD,TEMPLE CITY
648,Cajun Chicken & Wings,,97,3.5,$,"Chicken Wings, Halal",34.4953423,-118.6216965,SIcrCycD63TY9LyZQXcucw,,CAJUN CHICKEN &WINGS,31743 CASTAIC RD,CASTAIC
649,,,,,,,,,,,COFFEEHOUSE @ PARAMOUNT,5555 MELROSE AVE,HOLLYWOOD
650,Christy's Donuts,,13,4,$,"Bakeries, Donuts",34.27794,-118.45201,kJrxGsVm7fhK5lBpwrnXzQ,,CHRISTY'S DONUT,11430 LAUREL CANYON BLVD,SAN FERNANDO
651,Tiendas El Compita,,14,4,$,Mexican,33.94849,-118.21673,Ga1hTeq_1COZkbwjiYFyrw,,TIENDAS EL COMPITA,9600 LONG BEACH BLVD # A,SOUTH GATE
652,Riverton Liquor,,23,3,$$,"Beer, Wine & Spirits",34.164638,-118.366134,g_BHeL8jUsR2FsyZy_Zn3g,,RIVERTON LIQUOR,10800 MAGNOLIA BLVD,NORTH HOLLYWOOD
653,Tree Burger,,41,4.5,$,Burgers,33.89607,-118.1772,NjoORSCNXUL3hC92LYO0kQ,,TREE BURGER,7010 SOMERSET BLVD STE B,PARAMOUNT
654,,,,,,,,,,,WAL-MART #5686 -  DELI,1301 N VICTORY PL,BURBANK
655,Walgreens,,26,3,$$,"Drugstores, Cosmetics & Beauty Supply, Convenience Stores",34.011775,-118.1172449,f5bIEQhPaSD0HKfY2yPg4A,,WALGREENS #2155,1501 W WHITTIER BLVD,MONTEBELLO
656,El Cevichazo,,128,3,$$,"Seafood, Mexican",34.57960057,-118.080075,ZZcObwa4txXs4t10TcGvRw,,EL CEVICHAZO MEXICAN RESTAURANT,2728 E PALMDALE BLVD # 110,PALMDALE
657,24 Hour Fitness - Manhattan Beach,,265,2.5,,"Gyms, Trainers",33.901367,-118.3874464,#NAME?,,24 HOUR FITNESS #163,1500 ROSECRANS AVE,MANHATTAN BEACH
658,Good Water,,1,5,,Grocery,33.94466,-118.19827,Ik25-K_9hlISYtXVEiFong,,GOOD WATER,4161 TWEEDY BLVD STE #A,SOUTH GATE
659,Jersey Mike's Subs,,92,3.5,$,"Fast Food, Delis, Sandwiches",33.9481048,-118.08842,kiWXXidHOOIPgfKZhe1FPA,,JERSEY MIKE'S SUBS,11514 TELEGRAPH RD,SANTA FE SPRINGS
660,Hilton Garden Inn Burbank Downtown,,125,3.5,$$,Hotels,34.17800735,-118.3056615,jqec9sUBjR1kyfkEew_JjQ,,HILTON GARDEN INN - PAVILLION PANTRY,401 S SAN FERNANDO BLVD,BURBANK
661,,,,,,,,,,,BILLIARDS & SPORTS BAR,13325 VICTORY BLVD,VAN NUYS
662,Louisiana Famous Fried Chicken,,5,4,,"Chicken Wings, Fast Food, Juice Bars & Smoothies",33.953724,-118.2566556,D1qw5XCo2j2mRHdrDHZl6A,,LOUISIANA FRIED CHICKEN & CHINESE FOOD,9101 S CENTRAL AVE,LOS ANGELES
663,La Blanquita Carniceria,,20,4.5,$$,"Mexican, Grocery, Meat Shops",34.04028,-118.17678,8NVFi3YzBwCk7g1X9E_CAw,,LA BLANQUITA MARKET,4136 E CESAR E CHAVEZ AVE,LOS ANGELES
664,,,,,,,,,,,CHASE LOUNGE PANTRY STORAGE - 2ND FLR,3900 W MANCHESTER BLVD,INGLEWOOD
665,Tj Maxx,,89,3.5,$$,Department Stores,34.0180454,-118.4968683,ZBLGpjMCrn9S5NoRZXZGHg,,TJ MAXX #1147,1251 4TH ST,SANTA MONICA
666,Dollar Tree,,34,3.5,$,Discount Store,33.87259193,-118.3711141,m1EoyBljierr-hVsEvgIQg,,DOLLAR TREE #5187,2218 ARTESIA BLVD,REDONDO BEACH
667,Roasted Sesame Kitchen,,24,5,$$,"Korean, Asian Fusion",34.09053,-118.29057,5clzXxI0Z789f_6dJTbfjw,,ROASTED SESAME KITCHEN,4632 SANTA MONICA BLVD # 1617,LOS ANGELES
668,Walgreens,,55,3.5,$$,"Drugstores, Convenience Stores, Cosmetics & Beauty Supply",34.03749772,-118.1479007,3ss-az-JaO93X73HpgV6FQ,,WALGREENS,2331 S ATLANTIC BLVD,MONTEREY PARK
669,99 Cost Bargain,,12,2.5,,,34.03403854,-117.750618,R6BT11ts_KDvOoAfM8E_SA,,COST BARGAIN CO,2061 S GAREY AVE,POMONA
670,Tramonto Bistro,,205,4.5,$$,Italian,34.03946475,-118.6592568,UNM0eEblQiJpMeNk9MRAcA,,TRAMONTO BISTRO,22235 PACIFIC COAST HWY,MALIBU
671,,,,,,,,,,,LA TIENDA,9851 ZELZAH AVE,NORTHRIDGE
672,Staples,,49,3,,"Printing Services, Shipping Centers, Mobile Phone Repair",34.13631774,-117.9859268,RMkV22qFUNXuOUwi1MGwpg,,STAPLES THE OFFICE SUPER 107,1450 S MOUNTAIN AVE,DUARTE
673,,,,,,,,,,,RALPH'S GROCERY #295,8626 FIRESTONE BLVD,DOWNEY
674,,,,,,,,,,,THE WAY FORWARD FOUNDATION,8728 S WESTERN AVE,LOS ANGELES
675,,,,,,,,,,,HOUSE OF TACO,13521 SHERMAN WAY STE G,VAN NUYS
676,Original Thai BBQ Restaurant,,139,2,$$,"Thai, Barbeque",34.43580571,-118.5627043,X-_MW5vjNnv2IlQAkeXvHA,,ORIGINAL THAI BBQ RESTAURANT,27530 NEWHALL RANCH RD STE 109,VALENCIA
677,Alberto's Mexican Food,,76,3,$,Mexican,34.06207,-117.78443,sENb2UVzeZIvCWsL78MCpg,,ALBERTOS MEXICAN FOOD,1925 N HOLT AVE,POMONA
678,Yummy Donuts,,28,4.5,$,"Donuts, Juice Bars & Smoothies, Sandwiches",34.5799851,-118.0877173,SD4R7Yhdzn-TDRKHC2mqCg,,YUMMY DONUTS,2270 E PALMDALE BLVD STE J,PALMDALE
679,Old Torrance Coffee & Tea,,365,4,$,Coffee & Tea,33.83406851,-118.3153235,uHBW2iiyhS5xq5EqgWHjdw,,OLD TORRANCE COFFEE & TEA,1413 MARCELINA AVE,TORRANCE
680,Starbucks,,134,3.5,$$,Coffee & Tea,33.978721,-118.437827,kIe4x79r-dC3m0hU9luXoA,,STARBUCKS COFFEE #9545,4724 1/2 ADMIRALTY WAY,MARINA DEL REY
681,Shefa Melrose,,200,4.5,$$,"Mediterranean, Middle Eastern, Kosher",34.08379,-118.3484,7yjl8XCATZAF76mCPlMAyw,,SHEFA,7275 MELROSE AVE,LOS ANGELES
682,Village Market,,5,3.5,$$$$,Grocery,34.0954751,-117.7188316,aC8FG-NVrzEpxwd1qVmBlg,,VILLAGE MARKET,370 W 2ND ST,CLAREMONT
683,Pink Elephant,,622,4,$,"Japanese, Thai",34.2013,-118.60742,LJClyEXLzFaML3FlLROySQ,,PINK ELEPHANT THAI JAPANESE FOOD,22039 SHERMAN WAY,CANOGA PARK
684,7-Eleven,,25,3,$,"Convenience Stores, Gas Stations, Coffee & Tea",34.4372388,-118.5643933,1YaI1ORl_02yy1tLZF4t5A,,7-ELEVEN # 33154B,27602 NEWHALL RANCH RD,VALENCIA
685,4100 Bar,,528,4,$$,Bars,34.09288568,-118.2813181,xH7qAmJbtiLCIKdHCOHvMg,,4100 BAR,1087 MANZANITA ST,LOS ANGELES
686,Chung King Cafe,,31,4,$,"Cafes, Chinese, Fast Food",34.0225785,-118.1682717,Lse8nMKhWfGhiFeDUVg33A,,CHUNG KING CAFE HOUSE,4578 WHITTIER BLVD,LOS ANGELES
687,Ana's Party & Balloon Boutique,,3,1,,Balloon Services,33.851314,-118.212233,bD78-o1BKsfYMsuY8A5WMw,,PARTY & BALLOON BOUTIQUE,2787 E DEL AMO BLVD # B-11,COMPTON
688,Hudson Booksellers,,8,3,$$,"Bookstores, Newspapers & Magazines, Convenience Stores",33.9451098,-118.4057203,R5D_jIFmE8KrhH7N4MzE3g,,HUDSON NEWS #507,300 WORLD WAY,LOS ANGELES
689,Burger oliBella,,53,4,$,"Burgers, Salad, Hot Dogs",33.943004,-118.050933,eq6AwliY5O_VCEWY7lk-Tg,,BURGER OLIBELLA,10320 PAINTER AVE,SANTA FE SPRINGS
690,,,,,,,,,,,BEN & JERRY'S,1000 UNIVERSAL STUDIO BLVD STE 151,UNIVERSAL CITY
691,Embassy Suites by Hilton Valencia,,200,3.5,$$,Hotels,34.4432555,-118.6005834,9V-yXGn3ZYShTpnTWnXAOA,,EMBASSY SUITES VALENCIA - HOTEL BAR,28508 WESTINGHOUSE PL,VALENCIA
692,Hall Market & Liquor Store,,3,1.5,$$$,Grocery,33.93182,-118.12632,T5I3bEkEVBKRHsLYajXBKg,,HALL MARKET & LIQUOR,11534 LAKEWOOD BLVD # #A,DOWNEY
693,Boba Corner,,34,3.5,$,Coffee & Tea,34.07889938,-118.0920258,DJy5UqKnnpjuqFiiC7ovMw,,BOBA CORNER,1635 S SAN GABRIEL BLVD,SAN GABRIEL
694,Pho Ga Bac-Ninh,,275,3.5,$,Vietnamese,34.069366,-118.108429,e2QM4-Fz6fGlEF0z-pfa9A,,PHO GA BAC NINH,605 NEW AVE STE C,MONTEREY PARK
695,Jim's Burgers,,2,2.5,$,Restaurants,34.01856232,-118.1919174,tBatJlp7H96ctUlfusnuIg,,JIM'S BURGERS,3900 E OLYMPIC BLVD,LOS ANGELES
696,Paseo San Miguel Restaurant,,73,4,$$,Salvadoran,34.015063,-118.308548,aEWwZqGgntdGxqF1oOsR8w,,PASEO SAN MIGUEL RESTAURANT,3874 S WESTERN AVE,LOS ANGELES
697,,,,,,,,,,,SNA GENERAL DISCOUNT & MARKET,9522 1/2 S FIGUEROA ST,LOS ANGELES
698,Crenshaw Discount Store,,2,2.5,$,Grocery,34.02111435,-118.335495,C9HBO8Q1ESbnoztUwRi3Bw,,CRENSHAW DISCOUNT STORE,3657 CRENSHAW BLVD,LOS ANGELES
699,Belcomp Car Wash,,89,2.5,,Car Wash,33.8966975,-118.1261701,BcdxWyS8fswCswORwqxWAw,,BEL COMP CARWASH,9765 SOMERSET BLVD,BELLFLOWER
700,Colima Tortilleria Market,,3,4,$,Meat Shops,34.089365,-118.0153449,6UzzQ0WaVQoO0Za_KaCfiQ,,COLIMA TORTILLERIA,4711 PECK RD,EL MONTE
701,A Naturway Natural Food,,19,3.5,$$,Health Markets,33.9455584,-118.1184537,s5HaD-raKYJPx_JKtaBkFw,,NATURWAY #2,10309 S LAKEWOOD BLVD,DOWNEY
702,Granny's Donuts,,37,4,$,Donuts,33.90245,-118.1249,ghm7-wJCuLwvyYdnnLO06Q,,GRANNY'S DONUT #7,14210 BELLFLOWER BLVD,BELLFLOWER
703,98 Cents Plus Discount Store,,1,4,,Discount Store,34.0107251,-118.2927089,unBXc30Xr0_dzKKaRKUl7Q,,SAM 98 CENTS DISCOUNT STORE,1030 W MLK BLVD STE 105,LOS ANGELES
704,,,,,,,,,,,BAO XING LONG,669 W GARVEY AVE,MONTEREY PARK
705,,,,,,,,,,,"SPACE ON ARGYLE ST. BELOW ""W"" HOTEL",6250 HOLLYWOOD BLVD # 700,LOS ANGELES
706,Café Alexia,,92,4.5,$,"Pizza, Cafes, Burgers",34.14601,-118.25116,aV2WvoGK-PUV0bgP6REAcA,,CAFE ALEXIA,400 E BROADWAY AVE,GLENDALE
707,Joe's Cafe,,2452,4,$$,"Breakfast & Brunch, American (New), Tapas/Small Plates",34.2651553,-118.522398,VWwt4ZSoqpKp2BZYbcZMKQ,,JOE'S CAFE,17823 CHATSWORTH ST,GRANADA HILLS
708,,,,,,,,,,,C I LIQUOR AND MARKET,1658 W CARSON ST STE D,TORRANCE
709,Mega Liquor 8,,43,4.5,$,"Beer, Wine & Spirits",34.07693481,-118.1459885,dt7tr5XQYqzgETJTcu28Hg,,MEGA LIQUOR #8,2020 W VALLEY BLVD,ALHAMBRA
710,Rite Aid,,25,3,$,"Drugstores, Convenience Stores",33.975225,-117.838898,1BXw1diZTyyMDHvMzXsiPw,,RITE AID #05603,2797 S DIAMOND BAR BLVD,DIAMOND BAR
711,La Michoacana,,5,2,,Mexican,33.8958351,-118.2267057,F940-TTLKAA05MQCRIrcsw,,LA MICHOACANA,306 W COMPTON BLVD STE 100,COMPTON
712,TS Emporium,,48,3.5,$$,"Grocery, Traditional Chinese Medicine, Kitchen Supplies",33.992578,-117.923001,xniViaAwM_mFz9UpquqP0w,,TS EMPORIUM,17520 CASTLETON ST #102,INDUSTRY
713,Poké Bar,,388,4,$$,"Seafood, Poke, Bubble Tea",33.836913,-118.3537865,hsnkxsoewSXRA8_HcIaEDA,,POKE BAR,21219 HAWTHORNE BLVD,TORRANCE
714,New Stevenson Ranch Car Wash,,133,3,,"Car Wash, Auto Detailing",34.380166,-118.569522,nMZZGDSH0w2Ga_SJW40xzg,,STEVENSON RANCH CAR WASH,24830 PICO CANYON RD,STEVENSON RANCH
715,,,,,,,,,,,DK LIQUOR,5860 IMPERIAL HWY,SOUTH GATE
716,,,,,,,,,,,MICHAEL'S #2008,219 N GLENDALE AVE,GLENDALE
717,,,,,,,,,,,ALP'Z MINIMARKET,7512 S HOOVER ST,LOS ANGELES
718,Nomin Organics,,15,4.5,$$,Organic Stores,33.9187145,-117.9954464,m36QYskmKhGqFnryxTB9IA,,NOMIN ORGANICS,15745 IMPERIAL HWY # B,LA MIRADA
719,Smart & Final Extra!,,49,2.5,$$,Grocery,34.0436283,-118.3770109,klibp1qybA6LADbRwXdiaQ,,SMART & FINAL #735 - KITCHEN AND MEAT DEPT,1833 S LA CIENEGA BLVD,LOS ANGELES
720,Rite Aid,,48,3.5,$$,"Drugstores, Convenience Stores",34.15736921,-118.264168,WK7hUt-PzdbSZw8oE0AbVg,,RITE AID #6756,707 N PACIFIC AVE,GLENDALE
721,Papa John's Pizza,,41,2.5,$,Pizza,33.789782,-118.314311,c87xdVo4J-0k0DmA9xRFuA,,PAPA JOHN'S PIZZA,1963 PACIFIC COAST HWY,LOMITA
722,Auntie Anne's,,17,1.5,$,Pretzels,33.9853431,-118.3955544,cfWVfIfcbg0pLOmP61PrmA,,AUNTIE ANNE'S PRETZELS #142,6000 S SEPULVEDA BLVD STE 2294,CULVER CITY
723,,,,,,,,,_ZTo8n3pvMXRPAviBIqpIA,,ICHO IZAKAYA FUSION CUISINE,5561 ROSEMEAD BLVD,TEMPLE CITY
724,Sushi Ike,,381,4,$$$,Sushi Bars,34.10196,-118.321817,de4wIjS1fNwoyLPY_QtbWQ,,SUSHI IKE,6051 HOLLYWOOD BLVD # 105,LOS ANGELES
725,Bibigo,,97,3.5,$,Korean,33.98565789,-118.3935903,XwZ5L-SNfkXD_u1Rz22Zog,,BIBIGO,6000 SEPULVEDA BLVD # 3002S,CULVER CITY
726,Wateria,,23,3.5,$,Water Stores,34.19939047,-118.4651028,J9v28-JJ9SdhHAxb6o6ntw,,WATERIA,7074 SEPULVEDA BLVD,VAN NUYS
727,Kraphty's,,66,4,$,"Italian, Comfort Food, Gastropubs",34.1131342,-117.8898859,8u5VvjZW0eBvAnTN6jIqFg,,KRAPHTY'S INC.,530 S CITRUS AVE # 14-15,AZUSA
728,Six Flags Hurricane Harbor,,375,2.5,,Water Parks,34.42242327,-118.5939007,RqwSe3TYZ1XnmWakSGc_oQ,,SIXFLAGS HURRICANE CATERING,26101 MAGIC MOUNTAIN PKWY,VALENCIA
729,Highlight Restaurant,,17,4,$$,Mediterranean,34.1012158,-118.3455179,A645aTNuEoeXp1AniiDd-Q,,HIGHLIGHT RESTAURANT,1651 1/2 N LA BREA AVE,LOS ANGELES
730,Toasted Bun,,387,3.5,$$,"Breakfast & Brunch, Diners",34.13394807,-118.2552052,_oQ9DYS22gCKCmjTurAVJw,,TOASTED BUN,1013 S BRAND BLVD,GLENDALE
731,Agoura Check Cashing,,3,2.5,,Check Cashing/Pay-day Loans,34.15514,-118.78857,wdtG6PT7iJ1wHjMAJcJRqw,,WESTLAKE AGOURA GIRLS SOFTBALL ASSOC.,30743 THOUSAND OAKS BLVD,WESTLAKE VILLAGE
732,,,,,,,,,,,NUEVA IMAGEN,31589 CASTAIC RD,CASTAIC
733,,,,,,,,,,,SHREE KRISHNA MARKET,552 S KALISHER ST,SAN FERNANDO
734,,,,,,,,,,,THE NUT STAND,6600 TOPANGA CANYON BLVD,CANOGA PARK
735,Trans Liquor,,3,5,,"Beer, Wine & Spirits",33.9452726,-118.3528649,p2lvrLF9T4rNZFIu1XMoYA,,TRANS LIQUOR,10021 HAWTHORNE BLVD,INGLEWOOD
736,VIP Cabaret,,48,3,$$,Strip Clubs,34.186989,-118.398331,JL9BZswWPg9vddus7F5-JQ,,VIP SHOW GIRLS,12147 VICTORY BLVD,NORTH HOLLYWOOD
737,Stater Bros. Markets,,124,3.5,$$,"Grocery, Delis, Butcher",34.4040707,-118.4648524,pFBOthr3K0qzAj5OQbxsbg,,STARTER BROS MARKETS #141,26900 SIERRA HWY,CANYON COUNTRY
738,Hung Phat Meat Market,,15,4,,Meat Shops,34.08144,-118.06375,BlQqfGzRBJQ0v6CfG6bKSw,,HUNG PHAT MEAT MARKET,9423 VALLEY BLVD,ROSEMEAD
739,Starbucks,,143,2.5,$,Coffee & Tea,34.038126,-118.440949,gvbBCNIEaFkYJ0AEFNCvNg,,STARBUCKS #5337,11280 W OLYMPIC BLVD,LOS ANGELES
740,,,,,,,,,,,DIPPIN DOTS-UNIT #20,111 RAGING WATERS DR,SAN DIMAS
741,Walgreens,,18,2.5,$$,"Cosmetics & Beauty Supply, Drugstores, Convenience Stores",33.94166565,-118.0472717,ieDY6dWGiwyjTmg_Z7Zzcw,,WALGREENS,13331 TELEGRAPH RD,WHITTIER
742,Vons,,52,2.5,$$,Grocery,34.0854337,-117.8713957,2-J2cT6xe9rM495Vl2QEnQ,,VONS #2056,932 E BADILLO ST,COVINA
743,Dr Java,,16,4,$$,Coffee & Tea,33.94442333,-117.9930069,o7dokHCUfdPcyE2xI4FXFQ,,DR. JAVA,15725 E WHITTIER BLVD STE A,WHITTIER
744,Tea Shack,,5,5,$,Coffee & Tea,34.1720186,-118.5669598,YhqarDsFqwVVDDhR9GxRKg,,TEA SHACK,19936 1/2 VENTURA BLVD,WOODLAND HILLS
745,Leo Bakery,,8,5,$$,Bakeries,33.9031,-118.1611,800G_Ac492QohMa-qyM7OQ,,LEO'S BAKERY,7922 E ROSECRANS AVE STE D,PARAMOUNT
746,Garden Plaza Pharmacy,,14,4,$,Drugstores,34.1704483,-118.5338364,XPwHaCMZjPcR0IGV3q1-bw,,GARDEN PLAZA PHARMACY,18411 CLARK ST,TARZANA
747,Goldstar Doughnuts,,13,4,$,Donuts,34.19431,-118.4831,rr1oVhQeNOG9c_VLWpdVYg,,GOLD STAR BONUTS,16041 VANOWEN ST,VAN NUYS
748,Panda Express,,164,3.5,$,"Fast Food, Chinese, Salad",34.04616547,-118.4341431,SGL6SwcmFA89eLpOh79zvw,,PANDA EXPRESS #2623,2011 WESTWOOD BLVD,LOS ANGELES
749,,,,,,,,,,,GALBI HOUSE,3869 WILSHIRE BLVD,LOS ANGELES
750,Earthbar,,29,3.5,$$,"Juice Bars & Smoothies, Vitamins & Supplements, Acai Bowls",33.90128,-118.37487,C4LQsrXApVdOewIF8snaxA,,EARTHBAR-EQUINOX MANHATTAN,5400 W ROSECRANS AVE,HAWTHORNE
751,,,,,,,,,,,JUNIORS 99 CENTS & UP STORE,2500 W SUNSET BLVD,LOS ANGELES
752,,,,,,,,,,,WHICHWHICH STUDIO CITY,12048 VENTURA BLVD,STUDIO CITY
753,Target,,174,3,$$,"Department Stores, Furniture Stores, Electronics",33.925134,-118.107045,Z6G5VG00c0W1EBIIDOZfUA,,TARGET STORES #1340,10600 E FIRESTONE BLVD,NORWALK
754,,,,,,,,,,,DALES JR STORE,12500 OXNARD ST,NORTH HOLLYWOOD
755,Toast,,1337,4,$$,"Coffee & Tea, Breakfast & Brunch, American (New)",33.931969,-117.986551,bzLfR98CLaQmXozHihMeUw,,TOAST,11119 1ST ST,WHITTIER
756,,,,,,,,,,,YOUR BAKERY,6525 WEST,INGLEWOOD
757,Tiburon Grill & Bar,,104,4.5,$$,"Mediterranean, American (New), Bars",34.4159098,-118.4730397,vAuZepRW_omK7l87fAYmCA,,TIBURON GRILL & BAR,19319 SOLEDAD CANYON RD,SANTA CLARITA
758,,,,,,,,,,,YOUNGS MEAT MKT/DELI,5421 S HOOVER ST,LOS ANGELES
759,Mariscos Y Sushi Los Tomateros,,94,4.5,$$,"Sushi Bars, Mexican, Seafood",33.94321,-118.21359,U5tz99EJ5SoKi2wx9gYW8g,,MARISCOS Y SUCHI LOS: TOMATEROS,10112 STATE ST,LYNWOOD
760,Chevron,,11,3.5,,Gas Stations,33.82467629,-118.2413015,5Sub9HvQ9o80UmQUBvjK5w,,CARSON CHEVRON,22222 S WILMINGTON AVE,CARSON
761,Drinking Water Store,,24,4.5,$,Water Stores,33.8879249,-118.0646266,DoAGPX2e-n6rOE6mYvrSOA,,DRINKING WATER STORE,12553 1/2 ALONDRA BLVD,NORWALK
762,Shamshiri Restaurant,,339,4,$$,Persian/Iranian,34.16349627,-118.2561708,B57MEeC3qT_cg72FTrNUOQ,,SHAMSHIRI GLENDALE,122 W STOCKER ST,GLENDALE
763,H Mart - Lakewood,,138,3.5,$$,"Grocery, Korean, Seafood Markets",33.84670141,-118.0825948,C_whtGAuGd7f6H9nmiQrog,,H MART - DELI,20137 PIONEER BLVD,LAKEWOOD
764,,,,,,,,,,,MIJIYA #4,2533 PACIFIC COAST HWY STE #B,TORRANCE
765,Lobster Now,,91,3.5,$$,"Seafood, Chinese, Barbeque",33.991217,-117.924605,iKIC-jxWot8KyvQcGdg-gA,,LOBSTERNOW,17501 COLIMA RD STE G-2,INDUSTRY
766,Dingle Berries Coffee & Tea,,1132,4.5,$,"Coffee & Tea, Bubble Tea",34.081307,-118.057478,tAlyBBii7SiI80iSQ28mfw,,DINGLE BERRIES COFFEE & TEA,9711 VALLEY BLVD # A,ROSEMEAD
767,Queen's Kitchen,,58,3.5,$$,Shanghainese,34.0437575,-117.8486149,PtJZTTXjnwQW91kTdK69Bw,,QUEEN'S KITCHEN,1233 N GRAND AVE,WALNUT
768,K's Mini Market,,1,3,,Grocery,34.1940449,-118.4833571,#NAME?,,K'S MINI MARKET,16061 VANOWEN ST,VAN NUYS
769,Becks Burgers And BBQ,,44,4.5,$,"Burgers, Barbeque, Soul Food",33.9412,-118.26552,SvePE7APfmE8d7tji85X-g,,BECK'S BURGERS,10425 S AVALON BLVD,LOS ANGELES
770,,,,,,,,,,,MINI MAX MARKET & LIQUOR,4051 GAGE AVE,BELL GARDENS
771,Las Palmas Mexican Food,,169,4.5,$,Mexican,34.139109,-117.975219,9h0PPCNRnzqChhuEi1_bwQ,,LAS PALMAS MEXICAN FOOD,1408 E HUNTINGTON DR,DUARTE
772,,,,,,,,,,,SUSHI-LITOS,8534 LONG BEACH BLVD STE D,SOUTH GATE
773,,,,,,,,,,,ADENTRO COJUTEPEQUE,10136 LONG BEACH BLVD,LYNWOOD
774,Fast Stop Mini Market,,23,3,$,"Beer, Wine & Spirits",34.16893,-118.4049,lyB6sUtHSWfdkujnfXcv0Q,,FAST STOP MINI MARKET,5406 WHITSETT AVE,VALLEY VILLAGE
775,,,,,,,,,,,WEIGHT WATCHERS,8330 PAINTER AVE # C1,WHITTIER
776,Yogurt Zone,,57,3.5,$,Ice Cream & Frozen Yogurt,34.155834,-118.4832065,EYyxrt7OrobkMoNxMpEHHw,,YOGURT ZONE,16060 VENTURA BLVD #111,ENCINO
777,,,,,,,,,,,SUPER HEALTH INSTITUTE,333 S ALAMEDA ST STE #202,LOS ANGELES
