,name,address,review_count,rating,price,categories,latitude_yelp,longitude_yelp,yelp_id,hours,program_name,facility_address,facility_city,latitude,longitude
0,,,,,,,,,,,RALLYS B P,4345 MAINE AVE,BALDWIN PARK,,
1,South Bay Diner,,31,3.5,$$,"Latin American, American (Traditional), Asian Fusion",33.89531,-118.35176,1atIsDQvWJIxfMjXHu4Kcg,,SOUTH BAY CUCINA,15000 HAWTHORNE BLVD STE A,LAWNDALE,,
2,,,,,,,,,,,LA EXPRESS 1842 - GATE 35,300 WORLD WAY # 338,LOS ANGELES,,
3,Tacomiendo,,84,4.5,$,"Mexican, Breakfast & Brunch",34.02466,-118.14175,0PtF2I7OIYQt4MD4Yy-AMQ,,TACOMIENDO,3501 BEVERLY BLVD,MONTEBELLO,,
4,,,,,,,,,,,SNACKMART,1458 S SAN PEDRO ST UNIT #127,LOS ANGELES,,
5,Pancho's Tacos,,159,3.5,$,Mexican,34.004134,-118.4728633,eX0NAPNCGDdTYQQDDDMtZA,,PANCHOS TACOS INC,2920 LINCOLN BLVD,SANTA MONICA,,
6,Little Brother's Sushi,,21,5,,"Sushi Bars, Japanese",34.1683499,-118.53345,c532GAdLAWNutUEwDF-9sQ,,LITTLE BROTHERS SUSHI TARZANA,18373 VENTURA BLVD,TARZANA,,
7,Karas,,462,4,$$,"Barbeque, Pizza, Burgers",34.1447611,-118.2548151,cuQeL5alLr_UEjrSeQiPQQ,,KARAS RESTAURANT,158 S BRAND BLVD,GLENDALE,,
8,Casa de cafe bakery,,17,3,,"Bakeries, Desserts, Custom Cakes",33.94242,-118.352388,0DyBkk1S9vjHJD-TCesstw,,CASA DE CAFE BAKARY,10310 HAWTHORNE BLVD,INGLEWOOD,,
9,,,,,,,,,,,LA MEXICANA TAQUERIA,1911 E GAGE AVE,HUNTINGTON PARK,,
10,IL Bambino Restaurant,,187,4.5,$$,Italian,34.02647,-118.24329,fARvUjZALi0qdmgRS1uMhQ,,IL BAMBINO RESTAURANT,1403 HOOPER AVE,LOS ANGELES,,
11,Jersey Mike's Subs,,41,4,$,"Sandwiches, Fast Food, Delis",33.89083,-118.30027,6Bkc7lJfWHLqy9rgtPTR6Q,,JERSEY MIKE'S SUBS,1400 W REDONDO BEACH BLVD STE 110,GARDENA,,
12,La Familia hay sabor,,5,2.5,,New Mexican Cuisine,34.22113,-118.53732,0E1u8okswV4xKDudKcsH_A,,LA FAMILIA HAY SABOR,18515 ROSCOE BLVD,NORTHRIDGE,,
13,,,,,,,,,,,A & B WHOLESALE,4117 SLAUSON AVE,MAYWOOD,,
14,Tala Market,,1,1,,Grocery,33.94837952,-118.2390976,wzBAgy74AXpIL_EXjAXO8A,,VICTORIA MARKET #2,1865 E 97TH ST,LOS ANGELES,,
15,Domino's Pizza,,43,2,$,"Chicken Wings, Pizza, Sandwiches",34.2200749,-118.588842,#NAME?,,DOMINO'S PIZZA,20905 ROSCOE BLVD,CANOGA PARK,,
16,The Last Drop Cafe,,640,4.5,$,"Bakeries, Coffee & Tea, Sandwiches",34.0950205,-117.7164283,JLyP3zNKUb1VFD0MVj0ZxQ,,THE LAST DROP CAFE,119 HARVARD AVE,CLAREMONT,,
17,TESTA,,186,3.5,$$,"Cocktail Bars, American (New), Breakfast & Brunch",34.04209,-118.2637,GizHDInjgH6fKOH5c3Dgfw,,QUADLINE LLC/TESTA,1111 HOPE ST # 100,LOS ANGELES,,
18,Gelson's,,105,3.5,$$,"Delis, Grocery, Beer, Wine & Spirits",34.007018,-118.474928,FK4BC3QXWaTnFmxHHOVvBg,,GELSON'S MARKET #29 - FRESH JUICE / CUT FRUITS,2627 LINCOLN BLVD,SANTA MONICA,,
19,Olympic Burger,,178,4,$,"Burgers, American (Traditional), Fast Food",34.05211,-118.29195,87yQHTD_9NOCmiDCIpgyEw,,OLYMPIC BURGER,1001 S VERMONT AVE # 108,LOS ANGELES,,
20,Our Kosher Table,,5,4,,Kosher,34.07025,-118.4384,xZEj7-V4F2YFZOKY59MU1w,,UCLA HILLEL-OUR KOSHER TABLE,574 HILGARD AVE,LOS ANGELES,,
21,Special Cakes By Ruben,,113,4,$$,Custom Cakes,34.201544,-118.4147856,kM6lBfSvSQsHPt6PTFiCFQ,,SPECIAL CAKES,12915 SHERMAN WAY,NORTH HOLLYWOOD,,
22,Fiesta Michoacana,,4,4,$$,"Ice Cream & Frozen Yogurt, Juice Bars & Smoothies, Desserts",34.02546,-118.25341,I3FQSJiYL3FIedHWM9ZVhg,,FIESTA MICHOACANA,1000 E WASHINGTON BLVD # 116,LOS ANGELES,,
23,Winston Pies,,256,4,$$,"Desserts, Coffee & Tea, Ice Cream & Frozen Yogurt",34.0536145,-118.4645502,X4VoBUeSyvlraAsKB4bNDg,,WINSTON PIES,11678 SAN VICENTE BLVD,LOS ANGELES,,
24,Freshii,,307,4,$$,"Vegetarian, Salad, Fast Food",34.24230672,-118.5597424,cWGbuH2kSfbSzzbp99caPg,,FRESHII,19500 PLUMMER ST # F6,NORTHRIDGE,,
25,Casa Montejo Restaurant,,3,3.5,,"Salad, Breakfast & Brunch, Burgers",34.05463,-118.26265,AByJx7rmn-KPcJQ4Jmn5ew,,CASA MONTEJO RESTAURANT,1125 W 6TH ST UNIT 105,LOS ANGELES,,
26,Espacio Bakery & Cafe,,35,4,$,"Bakeries, Cupcakes, Custom Cakes",34.01864739,-118.1146943,19YOqbhNNotboKY5Yx09NA,,J'S BAKERY CAFE,1513 W BEVERLY BLVD,MONTEBELLO,,
27,Baby Lobster,,51,3,$$,"Seafood, Mexican",34.038311,-118.2542496,__D9TH9-JRh_7CvWJcPZcQ,,BABY LOBSTER,1001 MAPLE AVE STE 201,LOS ANGELES,,
28,Sipan Bakery Express,,87,4.5,$,"Sandwiches, Armenian, Arabian",34.250364,-118.519492,KG7_W4AuXuml0vZBmp_ViQ,,SIPAN EXPRESS,17646 LASSEN ST,NORTHRIDGE,,
29,Delhi Bites,,162,3.5,$$,"Indian, Asian Fusion, Mexican",34.05844,-118.3087,2cm5bYhr-nGI2v8ZKtpCxQ,,DELHI BITES,740 S WESTERN AVE #115 - 116,LOS ANGELES,,
30,,,,,,,,,,,KRIMSEYS LLC,12900 VICTORY BLVD,NORTH HOLLYWOOD,,
31,Garage Restaurant,,138,2.5,$,"Chinese, Breakfast & Brunch",34.06341895,-118.1215541,Mwyw-cMwqF8peRlzqUm9Lw,,GARAGE KITCHEN,123 N LINCOLN AVE,MONTEREY PARK,,
32,See's Candies,,55,4.5,$$,"Chocolatiers & Shops, Candy Stores, Gift Shops",33.895112,-118.394381,BeWZRXdtDZbdEbEZgYgERQ,,SEE'S CANDY,2614 N SEPULVEDA BLVD,MANHATTAN BEACH,,
33,Family Fish Market,,202,4,$$,Seafood Markets,33.8625146,-118.2663949,hUf940E2HuvwYA5uaGDlBg,,FAMILY FISH MARKET,18503 AVALON BLVD,CARSON,,
34,Serina Bakery & Food,,2,1,,Bakeries,34.06269503,-118.0499542,_uCq8NWtmV9SskrM6Bu15Q,,FORTALEZA BAKERY RESTAURANT,10040 GARVEY AVE,EL MONTE,,
35,Nachos Lab,,229,4,$$,Mexican,33.901195,-118.299755,kk0_MTufPU-WKo6xXioBgA,,NACHOS LAB,1322 W ROSECRANS AVE,GARDENA,,
36,Big Fish Little Fish,,92,3,$$,"Poke, Asian Fusion",34.0590031,-118.418866,Yx-Q0-So7QpwkYOSxq60YQ,,BIG FISH LITTLE FISH POKE,10250 SANTA MONICA BLVD # FC23,LOS ANGELES,,
37,Goji Tea House,,153,4,$,Bubble Tea,33.8581951,-118.0926299,M9cAguyARRhrdN33ta67xw,,GOJI TEA HOUSE,11312 SOUTH ST,CERRITOS,,
38,TJ Maxx,,33,3,$$,Department Stores,33.86732971,-118.0958506,k3gl8QYDFJ3XaLay6m8PKA,,TJ MAXX #425,11151 183RD ST,CERRITOS,,
39,Burger King,,27,2.5,$,"Burgers, Fast Food",34.2012056,-118.5952513,wcRAeKVXCVRI9F4pfj38dg,,BURGER KING #1036,21227 SHERMAN WAY,CANOGA PARK,,
40,,,,,,,,,,,AFC SUSHI @ RAPLHS #0120,1413 HAWTHORNE BLVD,REDONDO BEACH,,
41,Las Salsas Mexican Grill,,8,4,,"Mexican, Buffets",33.77734,-118.26184,GcRxyTIdiE4J3XWQ_Lt7-Q,,LAS SALSAS MEXICAN GRILL,600 N AVALON BLVD # C,WILMINGTON,,
42,Smart & Final Extra!,,24,3.5,,Grocery,34.13386,-117.90456,gCXxmoma-13vkS5mR1oOLg,,SMART & FINAL #794 - MEAT DEPT,303 E FOOTHILL BLVD,AZUSA,,
43,Shell,,7,1.5,,Gas Stations,34.00620385,-118.1096836,reCOE48o7kJrbIorKDsVLg,,SHELL #1,801 W OLYMPIC BLVD,MONTEBELLO,,
44,Pollo Campero,,38,2.5,$,"Chicken Wings, Latin American, Fast Food",34.05648,-118.27762,zhSRmaq2S9S7DGOb1AMUHQ,,POLLO CAMPERO,2116 W 7TH ST,LOS ANGELES,,
45,,,,,,,,,,,FAMILY NUTRITION CENTER,423 N MEDNIK AVE,LOS ANGELES,,
46,The Highlight Room Grill,,268,4,$$,American (New),34.10016,-118.33014,XT5o_SKmmpIGvwDKYZw5tg,,DREAM HOTEL - THE HIGHLIGHT ROOM GRILL,6417 SELMA AVE,LOS ANGELES,,
47,La Diosa Cocina & Craft Bar,,296,4.5,$$,Mexican,33.90396347,-118.1532772,O5NdYe2CVI_uu6FzYlg-hg,,LA DIOSA DE LOS MOLES,8335 ROSECRANS AVE,PARAMOUNT,,
48,,,,,,,,,,,ARCOIRIS 98 CENTS,3011 WABASH AVE,LOS ANGELES,,
49,The Backhouse,,906,4,$$,"Sushi Bars, Japanese, Bars",34.03962,-118.4302,zC1iJsl9VlIaRnEBm9yDKQ,,THE BACKHOUSE RESTAURANT,10915 W PICO BLVD,LOS ANGELES,,
50,The Local Pub & Grill,,661,4.5,$$,"Sports Bars, American (Traditional), Breakfast & Brunch",34.40965805,-118.5785322,t7CakyTux_3QtutqJKJbow,,THE LOCAL PUB & GRILL,26876 THE OLD RD,STEVENSON RANCH,,
51,iTech Pizza,,315,4.5,$,"Pizza, Chicken Wings, Pasta Shops",34.030778,-118.124793,5-VeatO1qBhlPA3QA5A4DA,,ITECH PIZZA,2575 VIA CAMPO BLVD,MONTEBELLO,,
52,Birrieria Baldomero No 3,,30,4.5,,"Mexican, Soup",33.96676185,-118.1563292,u8a40m3bgRcdptEMczrBPw,,BIRRIERIA BALDOMERO #3,6040 1/2 FLORENCE AVE,BELL GARDENS,,
53,The Coffee Bean & Tea Leaf,,16,4.5,,Coffee & Tea,33.94613,-118.39268,f2qG3QsALcu1mrI_n_ZO0g,,THE COFFEE BEAN & TEA LEAF,6151 W CENTURY BLVD,LOS ANGELES,,
54,Grocery Outlet Bargain Market,,59,3.5,$,"Grocery, Discount Store",34.12958,-118.07249,ej7895XYF0VnIdYSrFNSZg,,GROCERY OUTLET OF SAN GABRIEL,7260 ROSEMEAD BLVD,SAN GABRIEL,,
55,Eataly Los Angeles,,2141,3.5,$$,"Specialty Food, Italian, Food Court",34.059609,-118.419437,2cNmmr9yzdnNPppwExt9SQ,,EATALY - 3RD FL STREET FOODS AND FISH,10250 SANTA MONICA BLVD STE 2705,LOS ANGELES,,
56,Lollicup Fresh,,52,3.5,$,"Coffee & Tea, Juice Bars & Smoothies, Bubble Tea",34.06012202,-118.4452246,z-PcXAnQVVEampVDhGQGKg,,LOLLICUP,1131 WESTWOOD BLVD,LOS ANGELES,,
57,Eataly Los Angeles,,2141,3.5,$$,"Specialty Food, Italian, Food Court",34.059609,-118.419437,2cNmmr9yzdnNPppwExt9SQ,,"EATALY - 3RD FL SAFO, ROTI, SALAD, PALA",10250 SANTA MONICA BLVD STE 2705,LOS ANGELES,,
58,Fish Pepper Restaurant,,117,4,$,"Seafood, Mexican",33.9278107,-118.1978149,C8NMYU2qY9ae_5YfRTFuBQ,,FISH PEPPER RESTAURANT,3837 MARTIN LUTHER KING JR BLVD,LYNWOOD,,
59,Jimmy John's,,99,3,$,"Sandwiches, Fast Food, Delis",33.9025935,-118.3713552,Wzg7eeEKGmlVMfLF-bcVwg,,JIMMY JOHNS STORE 3839,5227 W ROSECRANS AVE,HAWTHORNE,,
60,Scorpion,,42,3.5,,"Web Design, Marketing, Videographers",34.42178,-118.58681,w8xgsFxmzhuXSmdVauKTxw,,SCORPION EMPLOYEE CAFETERIA,27750 ENTERTAINMENT DR,VALENCIA,,
61,The Stalking Horse Brewery & Freehouse,,317,4,$$,"Breweries, Breakfast & Brunch, Cocktail Bars",34.04471,-118.42041,olom_vkNVhqxD4W9BkiUAw,,STALKING HORSE,10543 W PICO BLVD,LOS ANGELES,,
62,Wetzel's Pretzels,,32,2.5,$,Pretzels,33.86080472,-118.0922571,JWZfJ6T8FwZiXvepjZbs0w,,WETZEL'S PRETZELS,239 LOS CERRITOS MALL KIOS 9030,CERRITOS,,
63,Miss Donuts and Bagels,,226,4.5,$,"Donuts, Bagels, Breakfast & Brunch",34.1014604,-117.7700999,pNa_I4EUT1yGUYmFHNof1A,,MISS DONUTS,2082 BONITA AVE,LA VERNE,,
64,Quest Yes Food,,49,4,$$,"Taiwanese, Chinese, Soup",33.87269,-118.07742,2RoI0C-zuhTEsmbHlnWWSQ,,QUEST YES,11976 ARTESIA BLVD,ARTESIA,,
65,Reborn Coffee - La Crescenta,,172,4.5,,Coffee Roasteries,34.237665,-118.261091,xlyvoK-czYBe7N3nK9z6IQ,,REBORN CAFE,3747 FOOTHILL BLVD,GLENDALE,,
66,La Chuperia,,172,4,$,"Bars, Mexican",34.05959763,-118.1860545,eqTKWLekpdMucy_nBzNYhg,,LA CHUPERIA 2.0,3702 MEDFORD ST,LOS ANGELES,,
67,Ocha Classic Restaurant,,106,4,$$,Thai,34.10153468,-118.3063054,29EIWSCJCUjUMdeRh7bUUw,,OCHA THAI RESTAURANT,5310 HOLLYWOOD BLVD,LOS ANGELES,,
68,Tom's Jr,,65,3,$,"Burgers, Fast Food",33.98906,-118.24754,eY63E5AIZj7HV5cPM8G5ng,,TOM'S JR BURGERS #4,1500 E SLAUSON AVE,LOS ANGELES,,
69,,,,,,,,,,,WATTS STAR MINI MARKET,11228 S WILMINGTON AVE,LOS ANGELES,,
70,,,,,,,,,r67rAULENQfNDM82xYR0gg,,THE OASIS CAFE,375 VAN NESS AVE,TORRANCE,,
71,Bella's Bakery,,7,4,$,"Bakeries, Cupcakes, Custom Cakes",34.0108764,-118.1080858,OEti8fIVgqOhk4LgjYo9WQ,,BELLA'S BAKERY,125 N MONTEBELLO BLVD STE A,MONTEBELLO,,
72,,,,,,,,,,,P & J MARKET,1479 E 22ND ST,LOS ANGELES,,
73,Auntie Anne's Soft Pretzel,,12,3.5,$,Pretzels,34.0107472,-118.3362908,C2vaZbsfe0_exZjzKji4RQ,,AUNTIE ANNE'S PRETZEL,3650 W MARTIN LUTHER KING JR. BLVD # K-1A,LOS ANGELES,,
74,GNC,,14,3,$$$,"Health Markets, Vitamins & Supplements",34.1401051,-118.010923,Xenbl_wnKOgDaCVdOrxVKw,,GNC,514 W HUNTINGTON DR,MONROVIA,,
75,Chianti Trattoria & Pizzeria,,39,4.5,$$,"Italian, Pizza",34.14288,-118.75708,u0AdMwGaQMMjeljR26yFDg,,CHIANTI TRATTORIA & PIZZERIA,29020 AGOURA RD # A10,AGOURA HILLS,,
76,A & W Seafood Restaurant,,536,3,$$,"Seafood, Dim Sum",34.23934,-118.53562,EFtTmbbUcZ2BIz6kEh9Nbw,,A & W SEAFOOD RESTAURANT,9306 RESEDA BLVD,NORTHRIDGE,,
77,Kogiya 2 Korean BBQ,,120,3,$$,"Barbeque, Korean",34.37861277,-118.542784,XDlT2ybzPPDt9kdb4MhPYA,,KOGIYA 2,23410 LYONS AVE,SANTA CLARITA,,
78,Hometown Seafood Restaurant,,1,2,$$,"Seafood, Chinese, Barbeque",34.1246932,-118.0598927,vbcZa3r_cZVFPRDIMDL0zQ,,HOMETOWN SEAFOOD RESTRAURANT,1228 S GOLDEN WEST AVE,ARCADIA,,
79,K. Minamoto,,34,4.5,$$$,"Desserts, Chocolatiers & Shops",34.0599599,-118.41982,oLtXgp0JawyA9giS0G3saQ,,USA K MINAMOTO,10250 SANTA MONICA BLVD # 2650,LOS ANGELES,,
80,Wienerschnitzel,,14,1.5,$,"Hot Dogs, Fast Food, Sandwiches",33.93705689,-118.0423176,9MrkZ-C9AbRzbDHyzYFn0A,,WIENERSCHNITZEL #831,13543 FLORENCE AVE,WHITTIER,,
81,Donas,,482,3.5,$$,Donuts,33.9182131,-118.1412201,DiO4pzIFAswbgzhtoHzQVQ,,DONAS,8636 IMPERIAL HWY,DOWNEY,,
82,,,,,,,,,,,GRILL GUYS,1233 W RANCHO VISTA BLVD STE 829,PALMDALE,,
83,Clay PoQ,,48,4,$$,"Chinese, Taiwanese, Asian Fusion",33.98733586,-117.9066159,LFxMrB7Yk7EY8prNAxPLkQ,,CLAY POT,1745 FULLERTON RD,ROWLAND HEIGHTS,,
84,Dirdawa Cafe,,49,3.5,$$,"Ethiopian, Mediterranean",33.9609771,-118.3758925,gcI5QSFr9kPUT6sSEXENtA,,EQUELECUA CAFE,1120 W FLORENCE AVE STE C,INGLEWOOD,,
85,,,,,,,,,,,JAMAICANONTHEGO@GMAIL.COM,4716 W SLAUSON AVE,LOS ANGELES,,
86,Felix Super Market,,1,3,,International Grocery,34.011537,-117.885312,x5IVULDG6KhWbVJlFSC6kQ,,FELIX SUPERMARKET - SEAFOOD,3650 S NOGALES ST,WEST COVINA,,
87,Davenport's Restaurant,,721,4.5,$$$,"Seafood, Steakhouses, Cocktail Bars",34.1563218,-118.4844206,NZCyNH6EKmvcrcbIIfk4vA,,DAVENPORT'S,16120 VENTURA BLVD,ENCINO,,
88,Menchie's Frozen Yogurt,,82,3.5,$,"Ice Cream & Frozen Yogurt, Custom Cakes",34.155158,-118.64295,1SKDDDnOsPVXq7vHWxyUgA,,MENCHIE'S CALABASAS,4776 COMMONS WAY UNIT D,CALABASAS,,
89,Rose Market West,,5,4,$$,Grocery,34.044159,-118.454361,zRv9eozofveyAirt0I7eng,,ROSE MARKET,11628 SANTA MONICA BLVD # 5,LOS ANGELES,,
90,,,,,,,,,,,AZUCAR,425 W FOOTHILL BLVD STE B,GLENDORA,,
91,Cultured Slice,,40,5,$$,Cheese Shops,33.85688,-118.39106,49CUzXaEtkLe2lFX6f1c8A,,CULTURED SLICE,229 PACIFIC COAST HWY,HERMOSA BEACH,,
92,Neighbor,,385,4,$$$,"Cocktail Bars, American (New), Breakfast & Brunch",33.99213,-118.47149,ni2KJCj0NwYetbJ36X-hQg,,NEIGHBOR LA,1031 ABBOT KINNEY BLVD,VENICE,,
93,Chio's Peruvian Grill,,290,4,$$,Peruvian,34.1996715,-118.4487824,qYR5rkNKOzCK4JXmFU6qvQ,,CHIO'S PERUVIAN GRILL,7115 VAN NUYS BLVD,VAN NUYS,,
94,Ensenada Kitchen,,68,4,$,Mexican,34.18483503,-118.3592071,AsBgWH0t3o-ZJlAU8Gq6dQ,,ENSENADA KITCHEN,4412 W VICTORY BLVD,BURBANK,,
95,Baskin-Robbins,,67,3,$,"Ice Cream & Frozen Yogurt, Desserts, Custom Cakes",33.822058,-118.327307,8lU2H5u78-6mhXH7JVaoXw,,BASKIN ROBBINS,2455 SEPULVEDA BLVD STE B,TORRANCE,,
96,Gugu's Tacos,,30,3.5,$,Mexican,34.19404723,-118.4668439,CEzTO_-ybnUEydMxxoKfqQ,,TACOS MICHOACAN,15317 VANOWEN ST # A,VAN NUYS,,
97,,,,,,,,,,,ROYCE,400 S BALDWIN AVE # 9016,ARCADIA,,
98,Ralphs,,79,3,$$,Grocery,34.170254,-118.570297,BU7VLjmV59-4i84ouiz16g,,AFC SUSHI @ RALPHS #0070,20060 VENTURA BLVD,WOODLAND HILLS,,
99,Palace Cafe,,3,2,,Cafes,34.1380666,-118.3532259,URHHxalloIIZUw7iqx4rxw,,PALACE CAFE,100 UNIVERSAL CITY PLZ,UNIVERSAL CITY,,
100,Skyline Pool at the Everly,,2,3.5,,Swimming Pools,34.10394,-118.3248,B9NttMxyRx-UFamf5kKYSg,,THE EVERLY-5TH FLOOR KITCHEN AND PANTRY,1800 N ARGYLE AVE,LOS ANGELES,,
101,California Ramen Factory,,340,4,$$,"Ramen, Noodles",34.068876,-118.300936,3VlKf0Z55eiPwl764_dVjA,,CALIFORNIA RAMEN FACTORY,4010 W 3RD ST,LOS ANGELES,,
102,,,,,,,,,,,VILLAMAR MARKET,6200 compton AVE,LOS ANGELES,,
103,Thai Daily BBQ,,163,4,$,"Thai, Barbeque",34.0403724,-118.187652,B279bvhbpOzOLyA2KHYmCA,,THAI DAILY BBQ,3552 E CESAR E. CHAVEZ AVE,LOS ANGELES,,
104,Tacos Mexico,,10,2.5,$,Mexican,33.95099815,-118.2176301,PxDnozQQfb2s2ILl9IWwMA,,JAVIER TACO MEXICO LLC,9322 LONG BEACH BLVD,SOUTH GATE,,
105,Cake Bash Studio,,125,4.5,,"Bakeries, Desserts, Custom Cakes",34.19359,-118.50927,DGmzi9yc1VU6uaGlYLLcDQ,,CAKE BASH STUDIO,17246 VANOWEN ST,VAN NUYS,,
106,Dirty South Soul Food,,224,4,$$,"Southern, Soul Food, Buffets",33.90369,-118.32616,CYM8TPl1gGqqie-FehgppQ,,DIRTY SOUTH SOUL FOOD BUFFET,14100 CRENSHAW BLVD,GARDENA,,
107,BIBIBOP Asian Grill,,176,4,$$,"Korean, Asian Fusion, Salad",34.015691,-118.495861,9pclAS6YxsxsWCG6Rkj3lA,,BIBIBOP ASIAN GRILL,1401 3RD ST PROMENADE,SANTA MONICA,,
108,Domino's Pizza,,37,2,$,Pizza,34.03426,-118.21623,EeS5KsJsNdJlUPbBWLeIgQ,,DOMINO'S PIZZA,2324 WHITTIER BLVD,LOS ANGELES,,
109,Hawaii Supermarket,,280,3,$$,"Grocery, Beer, Wine & Spirits",34.07915,-118.09888,orbkE6lAhtVypzPw9a4vfw,,HAWAII SUPERMARKET - MEAT MARKET,120 E VALLEY BLVD,SAN GABRIEL,,
110,El Cariso Golf Course Starter Shop,,1,1,,Golf,34.31496811,-118.4146271,qXzDjsUvNAfH54oZlhoAXQ,,EL CARISO GOLF COURSE - RESTAURANT,13100 ELDRIGE AVE,SYLMAR,,
111,Hummus Republic,,166,4.5,$$,"Mediterranean, Vegetarian",34.072591,-118.370769,EogEmrNVM2cedKSqHzosrA,,HUMMUS REPUBLIC,8320 W 3RD ST,LOS ANGELES,,
112,8oz Poke,,186,4.5,$$,"Poke, Hawaiian",34.1411219,-118.3756707,N70bv3Mi4xdSdleJgjQZTA,,8OZ POKE,11273 VENTURA BLVD,STUDIO CITY,,
113,Hop Woo,,407,3,$$,"Cantonese, Szechuan, Dim Sum",34.039667,-118.43808,5xQLCkZlFroGvytK8YGhvQ,,HOP WOO,11110 W OLYMPIC BLVD,LOS ANGELES,,
114,Crab Mentality,,214,4,$$,Seafood,34.415992,-118.4741998,_n_Ygjx98QD9PK8VVPaW6w,,CRAB MENTALITY,19385 SOLEDAD CANYON RD,SANTA CLARITA,,
115,Koupa Cafe,,42,5,$,"Greek, Coffee & Tea, Sandwiches",33.8997929,-118.0292849,p4gvFD_YBgLMUY3cye-qbQ,,KOUPA,14565 VALLEY VIEW AVE # J,SANTA FE SPRINGS,,
116,XO on Beverly,,48,4.5,$$,"American (New), Pan Asian",34.07641,-118.35298,S03imuaSCxHx7j_gXwVSPw,,XO BEVERLY,7475 BEVERLY BLVD,LOS ANGELES,,
117,East Garden Restaurant,,177,4,$$,"Hong Kong Style Cafe, Chinese, Asian Fusion",34.061763,-118.239587,P35lIoabQQm-c2QFJPhykg,,EAST GARDEN,750 N HILL ST STE F,LOS ANGELES,,
118,Mini Mercadito in E.L.A.,,3,3.5,,Imported Food,34.03731,-118.1937,An3zsihuDSZSUUa6CQnbqw,,MINI MERCADITO IN E.L.A. #2,3425 E 1ST ST STE 116,LOS ANGELES,,
119,Guatemalteca Bakery & Restaurant,,48,4,$$,"Bakeries, Latin American",33.99221,-118.1836,Te302ycaEsmrGS8fmUEE4A,,GUATEMALTECA BAKERY,5250 ATLANTIC BLVD,MAYWOOD,,
120,Studio Movie Grill,,404,3.5,$$,"Cinema, American (Traditional)",34.14752,-118.00008,iMc2ZEtpkr8fKueOe4Caxw,,STUDIO MOVIE GRILL- KITCHEN,410 S MYRTLE AVE,MONROVIA,,
121,Dominique Ansel Bakery,,729,3.5,$$,Bakeries,34.07214457,-118.357401,dB5yGLYOq-FSIixuHtQQCg,,DOMINIQUE ANSEL-BAKERY,189 THE GROVE DR # H-10,LOS ANGELES,,
122,Tierra Mia Coffee,,242,4,$,Coffee & Tea,34.01896141,-118.1133716,_3PTM3i7Okhp-LteC2synw,,TIERRA MIA COFFEE COMPANY,1416 W BEVERLY BLVD,MONTEBELLO,,
123,Yum Yum Donuts,,17,2,$,"Donuts, Coffee & Tea, Sandwiches",34.04303,-117.94974,5PB_wUGxUbrN3G6IEUVR4g,,YUM YUM DONUTS FRANCHISE #9026F,1225 N HACIENDA BLVD,LA PUENTE,,
124,Eataly Los Angeles,,2141,3.5,$$,"Specialty Food, Italian, Food Court",34.059609,-118.419437,2cNmmr9yzdnNPppwExt9SQ,,"EATALY -  BOH, MEAT & SEAFOOD",10250 SANTA MONICA BLVD STE 2705,LOS ANGELES,,
125,Blue Bottle Coffee,,83,4.5,$$,Coffee & Tea,34.076125,-118.383536,CQUzCT7XKX03P1faoQYa9g,,BLUE BOTTLE COFFEE,116 N ROBERTSON BLVD,LOS ANGELES,,
126,Sunmerry Bakery | Happy Lemon,,314,4,$,"Coffee & Tea, Bakeries, Bubble Tea",34.06828,-118.13367,0Q_0eYnAGaoNLogUl2EiSg,,SUNMERRY BAKERY,500 N ATLANTIC BLVD # 112,MONTEREY PARK,,
127,BBQ & Shabu Legend,,170,3,$$,"Japanese, Chinese, Asian Fusion",34.1337614,-118.0523229,XZVzJbst-0Lf0aIFBMAR4w,,SHABU SHABU AND GRILL LEGEND,400 S BALDWIN AVE STE 2315,ARCADIA,,
128,Pho Mai,,25,4,$,Vietnamese,34.115994,-118.073058,fMdKQ07n_n3Tfbuhdt0ElQ,,PHO MAI,6420 ROSEMEAD BLVD,TEMPLE CITY,,
129,Greenleaf Gourmet Chopshop,,133,3.5,$$,"American (New), Breakfast & Brunch, Salad",34.153654,-118.646674,EuMDrPsh-AkSixLQWkOrSg,,GREENLEAF,4799 COMMONS WAY # J,CALABASAS,,
130,Burger Basket,,106,4,$,"Burgers, Breakfast & Brunch, Mexican",33.908723,-118.074019,miMRDBuxJ1Rv-lNIhVfu9g,,BURGER BASKET,12155 FIRESTONE BLVD,NORWALK,,
131,Chop Stop,,141,4.5,$$,Salad,34.4207482,-118.5629649,z4lamthIZkki8waK4HuKOw,,CHOP STOP VALENCIA,27015 MCBEAN PKWY,VALENCIA,,
132,honeyfish poke,,262,3.5,$$,"Sushi Bars, Poke, Ramen",34.2014162,-118.4488857,XzmA3JBIj6l20QibB78U7w,,HONEY FISH POKE,7205 VAN NUYS BLVD,VAN NUYS,,
133,,,,,,,,,,,LA NORIA RESTAURANT,229 E FOOTHILL BLVD,MONROVIA,,
134,Christy's Donuts,,3,5,$,Donuts,33.9720001,-118.3571014,iXqckMTpramIc_CsrHaQ1w,,CHRISTY'S DONUTS,710 N LA BREA AVE,INGLEWOOD,,
135,Tinder's Pizza,,146,4.5,,Pizza,34.20796,-118.5530986,ewMPI_uTSDyATk63P_QrkA,,LENZINI'S PIZZA,7550 TAMPA AVE UNIT G,RESEDA,,
136,Raspados Zone,,108,4.5,$,"Shaved Ice, Ice Cream & Frozen Yogurt, Juice Bars & Smoothies",34.04631436,-117.9498867,lbVApunO9v8HebhB3vociQ,,RASPADOS ZONE,1385 N HACIENDA BLVD,LA PUENTE,,
137,Panda Garden,,5,4,,"Fast Food, Chinese",33.92324626,-118.2659927,DSKV89af02CnX8G3T4YU6A,,PANDA GARDEN,12003 S AVALON BLVD STE 102,LOS ANGELES,,
138,,,,,,,,,,,YUMMY FOODS - MARKET,7141 SANTA MONICA BLVD STE 300,WEST HOLLYWOOD,,
139,Carl's Jr,,48,2,$,"Fast Food, Burgers",34.10544494,-117.8194957,VSjc_eujt21VUYkAxVQH5w,,CARL'S JR # 234,698 W ARROW HWY,SAN DIMAS,,
140,Ceviches,,77,4,$$,"Seafood, Mexican",34.2862148,-118.4375529,M80mz2a9NPcPeYw85f6xAw,,CEVICHES,313 N MACLAY AVE,SAN FERNANDO,,
141,Aztig Grill,,180,3.5,$$,"Filipino, Buffets, Bars",34.03039543,-117.9119293,FhscEii2tcbkQHYLTMDajw,,AZTIG GRILL,1559 E AMAR RD UNIT A-B,WEST COVINA,,
142,,,,,,,,,,,SOPHIE'S DONUT,10301 ARTESIA BLVD,BELLFLOWER,,
143,JOE & THE JUICE,,141,3.5,$$,Juice Bars & Smoothies,34.081783,-118.377913,6jyTbWwKqn1jwXu9yizU9A,,JOE & THE JUICE,8532 MELROSE AVE,WEST HOLLYWOOD,,
144,Venice Fish Tacos and Smoothies,,127,4.5,$,"Breakfast & Brunch, Burgers, Sandwiches",33.98621913,-118.4730434,Nn9pr5gR-DvuPHBPw5o52A,,VENICE FISH TACOS,1701 OCEAN FRONT WALK # A,VENICE,,
145,Orto Santa Monica,,163,4.5,$$$,"Italian, Cocktail Bars, Breakfast & Brunch",34.01727,-118.49378,24_9KYm8stvW7r5lFSJVhg,,ORTO - PREP KITCHEN @ LOWER LEVEL,502 SANTA MONICA BLVD,SANTA MONICA,,
146,,,,,,,,,,,AFC SUSHI @ RALPH'S # 41,211 E FOOTHILL BLVD,ARCADIA,,
147,,,,,,,,,,,CLARITA'S 99 & MAS,2412 W WHITTIER BLVD,MONTEBELLO,,
148,Goldstar Bakery,,77,4.5,$,"Bakeries, Custom Cakes",34.0979851,-118.3038051,Ff5i6bcqxDWmlNWCNBnm2Q,,GOLDSTAR BAKERY,5216 W SUNSET BLVD,LOS ANGELES,,
149,,,,,,,,,,,COOK BOOK LOSANGELES,5611 N FIGUEROA ST STE 4,LOS ANGELES,,
150,The Empire Tavern,,68,5,$$,"Beer Bar, Wine Bars",34.19132,-118.32458,de0Ua96MIA4v3PNUZeZxHg,,THE EMPIRE TAVARN,1623 N SAN FERNANDO BLVD,BURBANK,,
151,Tacos Mexico,,25,2.5,$,Mexican,34.0298422,-117.7489509,7gE681R43fhRkZNO_k1qRQ,,VARGAS TACOS MEXICO,2298 S GAREY,POMONA,,
152,,,,,,,,,,,GAMMA RICH ARES,2500 W 8TH ST UNIT 103,LOS ANGELES,,
153,Pollo Campero,,77,3,$,"Latin American, Fast Food",34.20102966,-118.3689819,fG60ZWqbdKXuYQDkP-QElg,,POLLO CAMPERO,10960 SHERMAN WAY,LOS ANGELES,,
154,Wokcano,,292,3,$$,"Chinese, Japanese, Seafood",33.985664,-118.394983,HkALPbZX4BVzVoS2yiH5kg,,WOKCANO CULVER CITY,6000 SEPULVEDA BLVD # 1161,CULVER CITY,,
155,Lucifers Pizza,,120,3.5,$$,Pizza,34.09734627,-118.3225774,On2iDyqib84rX0b7cM4Llw,,LUCIFER'S PIZZA,6104 W SUNSET BLVD,LOS ANGELES,,
156,Tummy Stuffer,,71,4,$,"Sandwiches, Salad, American (Traditional)",33.963366,-118.058739,PW_nbLxC_rVcywug5qTMOw,,TUMMY STUFFER,12035 E SLAUSON AVE,SANTA FE SPRINGS,,
157,,,,,,,,,,,VANESSA'S MARKET,4728 GAGE AVE,BELL,,
158,Afters Ice Cream,,173,4,$$,Ice Cream & Frozen Yogurt,34.15478065,-118.448106,swvTtRcoAKHxT8xgEl9kUg,,AFTERS ICE CREAM,4550 VAN NUYS BLVD # B,SHERMAN OAKS,,
159,Masataco,,551,3.5,$$,Tacos,33.95047765,-118.026739,Z6InbWd_pLA8lqd82Bk9sQ,,MASATACO,14103 LAMBERT RD,WHITTIER,,
160,Gasoline & Coffee,,40,4.5,$,Coffee & Tea,34.6976299,-118.1424,8YpiKR8JF-pRf_iVH9jG2A,,GASOLINE AND COFFEE,706 W LANCASTER BLVD # 101,LANCASTER,,
161,Miras Grill,,175,4.5,$$,Persian/Iranian,33.99209421,-118.090543,M6JX2XYn8ddg7mDOz5BRww,,MIRAS GRILL,6001 ROSEMEAD BLVD STE E,PICO RIVERA,,
162,Luna Grill - Sherman Oaks,,311,4,$$,"Mediterranean, Greek, Wraps",34.15481549,-118.4483188,QEH2lDjOaH6yKd4Fmd0TKQ,,LUNA GRILL RESTAURANT- LG37 SHERMAN OAKS,4550 VAN NUYS BLVD # A3,SHERMAN OAKS,,
163,,,,,,,,,,,DND MART,200 W ROSECRANS AVE,COMPTON,,
164,Something Vegan,,425,4.5,$$,"Vegan, Asian Fusion, Burgers",34.151932,-118.349256,xNrmJ7OlerEnkvwQRJ9VSQ,,SOMETHING VEGAN,10000 RIVERSIDE DR,TOLUCA LAKE,,
165,Mainland Poke,,69,3.5,$$,"Poke, Sushi Bars, Seafood",34.0659928,-118.3989851,MHHGYyex5EREmS8x0pBytQ,,MAINLAND POKE,130 S BEVERLY DR,BEVERLY HILLS,,
166,Press Brothers Juicery & Kitchen,,59,4.5,$$,"Juice Bars & Smoothies, Acai Bowls, American (Traditional)",34.10548,-118.31881,4KumLSyeMYx45NSVtjjnEw,,PRESS BROTHERS JUICERY,5913 FRANKLIN AVE,LOS ANGELES,,
167,The Halal Guys,,824,4,$,"Halal, Middle Eastern, Mediterranean",34.04654,-118.25596,ZVjU7rMpPfZDqfwFR62tNA,,THE HALAL GUYS,510 W 7TH ST # 107,LOS ANGELES,,
168,JP Sushi Japanese Kitchen,,94,4,$$,"Japanese, Sushi Bars",34.06225,-118.1137,9HoH8ivtFtTdPYrntuhA5A,,JP JAPANESE KITCHEN,610 E GARVEY AVE,MONTEREY PARK,,
169,,,,,,,,,,,CYNTHIAS,241 W ADAMS BLVD,LOS ANGELES,,
170,Com Tam Kieu,,138,3,$$,"Vietnamese, Noodles",34.07977743,-118.0848275,gSzFeXgxO1ge4C2YDRXlfQ,,COM TAM KIEU RESTAURANT,8450 E VALLEY BLVD # 111,ROSEMEAD,,
171,Holy Roly Ice Cream,,289,4,$$,Ice Cream & Frozen Yogurt,34.08325,-118.34804,YAAijfBW7PKkz9sW_fTx5w,,COLD ROLLED ICE CREAM CO,7266 MELROSE AVE,LOS ANGELES,,
172,Local Ice,,57,4.5,$$,Ice Cream & Frozen Yogurt,34.07217768,-118.3607787,7XhSOz47twW5yGLTgTaREw,,LOCAL ICE,6333 W 3RD ST # 416,LOS ANGELES,,
173,Vegas Seafood Buffet,,1481,3.5,$$,"Buffets, Seafood, Sushi Bars",34.14503994,-118.2548957,VVbEoA9GAPB4H70wSnJy6A,,VEGAS BUFFET GLENDALE,110 S BRAND BLVD,GLENDALE,,
174,Hoke Poke,,157,3.5,$$,"Poke, Hawaiian, Japanese",34.162741,-118.373767,EKw7BVW4eiepqcQJhX-VmA,,HOKE POKE,5077 LANKERSHIM BLVD # B,NORTH HOLLYWOOD,,
175,Denny's,,133,3,$,"Diners, Breakfast & Brunch, American (Traditional)",33.82418639,-118.3414245,fAK9S8xi1xMUo7R7cfnSOQ,,DENNY'S #7435,3060 SEPULVEDA BLVD,TORRANCE,,
176,Edible Arrangements,,70,2,$$,"Florists, Gift Shops, Chocolatiers & Shops",34.05255,-118.26274,0NqeltZR2xurVtTHaSFcNQ,,EDIBLE ARRANGEMENTS,1055 WILSHIRE BLVD # GN5,LOS ANGELES,,
177,Jose Chiquito,,7,3.5,$,"American (Traditional), Breakfast & Brunch, Food Stands",34.09069421,-118.2903852,kvo2je7EwLwKknKMscJd2w,,JOSE CHIQUITO 2,4632 SANTA MONICA BLVD STE 25,LOS ANGELES,,
178,Kalye Grill,,190,4,$,"Filipino, Breakfast & Brunch",34.01978697,-117.8099018,8vja7UjCBL5wnZYM2GlLjg,,KALYE GRILL,315 S DIAMOND BAR BLVD # B,DIAMOND BAR,,
179,Panda Express,,235,4,$,"Chinese, Fast Food, Salad",33.9906551,-117.9320967,xu0qqzRPfBCsONZe05Nsdg,,PANDA EXPRESS 2690,17184 COLIMA RD,HACIENDA HEIGHTS,,
180,El Pollo Criollo,,59,3.5,$$,Peruvian,34.031729,-117.970611,SwMGLksu8lF2lA8iAAGVCQ,,EL POLLO CRIOLLO,14828 VALLEY BLVD,LA PUENTE,,
181,,,,,,,,,,,GAVIN DE BECKER LOUNGE,10250 SANTA MONICA BLVD,LOS ANGELES,,
182,,,,,,,,,,,7 ESTRELLAS DISCOUNT,201 E BEVERLY BLVD STE F,MONTEBELLO,,
183,La Familia,,40,3.5,$$,Mexican,33.9451098,-118.4057203,sr6GtUVLTuz1mshiiqtecg,,LA FAMILIA RESTAURANT AND BAR,300 WORLD WAY # 333,LOS ANGELES,,
184,Wow Bento & Roll,,80,3.5,$,"Sushi Bars, Japanese",34.0455764,-118.254589,JNeiIc1maDtBx-vQF-7n3Q,,WON BENTO & ROLL,710 S HILL ST,LOS ANGELES,,
185,Gatten Sushi,,439,3,$$,"Sushi Bars, Japanese",34.265609,-118.524898,pP5Mb7eHZlFfoRQHwoSktg,,GATTEN SUSHI,17941 CHATSWORTH ST,GRANADA HILLS,,
186,,,,,,,,,,,FUNCOLO RESTAURANT,724 S SPRING ST STE 106,LOS ANGELES,,
187,Hite Kwang-Jang,,91,3.5,$$,"Bars, Korean, Chicken Wings",34.05295054,-118.3039493,rmarl_jaL1LW_JJAS4pnjw,,HITE KWANG JANG,3121 W OLYMPIC BLVD # 105,LOS ANGELES,,
188,Mulligan Family Fun Center,,88,3,,"Mini Golf, Arcades, Party & Event Planning",34.59893,-118.14197,7C-ACnTNkj3BcVlmX16Ebg,,MULLIGAN FAMILY FUN CENTER,525 W AVENUE P4,PALMDALE,,
189,I Love LA,,12,2.5,$$,"Bookstores, Souvenir Shops, Gift Shops",33.9414886,-118.4046023,381dcS6X6gN0-PBRKiAs0Q,,I LOVE LA,380 WORLD WAY,LOS ANGELES,,
190,Dandy Fine Ice Cream,,179,4.5,$$,Ice Cream & Frozen Yogurt,33.857496,-118.0847881,MGCe3dDlxU8fpwUs9JqouA,,DANCY ICE CREAM,11688 SOUTH ST # 103,ARTESIA,,
191,Fairfield Inn & Suites Los Angeles LAX/El Segundo,,85,2.5,$$,Hotels,33.92299488,-118.3968883,AnFGpW8OGpc2pgVg1kTrXA,,FAIRFIELD INN & SUITES LOS ANGELES LAX EL SEGUNDO - KITCHEN,525 N PACIFIC COAST HWY,EL SEGUNDO,,
192,,,,,,,,,,,BELLSHINE NUTRITIONAL CENTER,4700 E GAGE AVE #B,BELL,,
193,Bobalicious,,167,4,$,"Tea Rooms, Bubble Tea, Taiwanese",34.1395697,-118.2051677,Ls_1CkMbwfZCmhdgPrjbkA,,BOBALICIOUS,1743 COLORADO BLVD,LOS ANGELES,,
194,Don Alfonso's Mexican Food,,76,4,$,Mexican,34.10684554,-117.8483734,nj0herm92NmD4pGSqyg2hg,,SUPER ALBERT MEXICAN FOOD #4,815 E ARROW,GLENDORA,,
195,Dae Bok Jung,,72,3.5,$$,Korean,34.05279,-118.27807,Tddg_yLDmr6lM19KN9UpDQ,,DAE BOK JUNG,2010 JAMES M WOOD BLVD,LOS ANGELES,,
196,Oriel Chinatown,,146,4.5,$$,"French, Wine Bars",34.0625239,-118.2362958,9EaRONZCZxomy3TTkLM8DA,,ORIEL,1135 N ALAMEDA ST,LOS ANGELES,,
197,,,,,,,,,,,SMILEY'S STOP,1911 E GAGE AVE # D-35,HUNTINGTON PARK,,
198,Carl's Jr,,46,3,$,"Fast Food, Burgers",34.03732466,-118.3771269,J26BhUCBCa2sDMee4pf1wg,,CARLS JR #404,2310 S LA CIENEGA BLVD,LOS ANGELES,,
199,Blackjack Market,,35,3,$$,Grocery,34.2012181,-118.4085037,p8zLt5-Ji6m4X-vLngqclw,,BLACKJACK MARKET - MEAT MARKET,12643 SHERMAN WAY # G,NORTH HOLLYWOOD,,
200,RBTA,,69,4.5,$$,"Japanese, Beer Bar",34.1095024,-118.1932834,bX69pK6ZD2nH29OywRucCg,,RBTA,5629 1/2 N FIGUEROA ST,LOS ANGELES,,
201,Cafe Time,,22,5,$,"Breakfast & Brunch, Mediterranean, Creperies",33.9591726,-118.4483145,NxWQmtQBmZaSAAouoxPlFA,,CAFE TIME,207 CULVER BLVD,PLAYA DEL REY,,
202,Kogi Taqueria,,29,3,$$,Mexican,33.90650515,-118.3926582,_v6zK3erxsW2am5M81Ey0Q,,KOGI TAQUERIA LLC,760 S SEPULVEDA BLVD,EL SEGUNDO,,
203,MJ Cafe & Teahouse,,565,3,$,"Taiwanese, Cafes, Chinese",34.043115,-117.8502,Klytq3epEvJYncpOsZ9HLg,,MJ CAFE & TEAHOUSE,20747 AMAR RD STE 6,WALNUT,,
204,Blue Bottle Coffee,,43,4.5,$$,Coffee & Tea,34.08631,-118.36112,#NAME?,,BLUE BOTTLE COFFEE,830 N FAIRFAX AVE BLDG A,LOS ANGELES,,
205,,,,,,,,,,,IFRESH MARKET - BAKERY,11850 VALLEY BLVD # 100,EL MONTE,,
206,,,,,,,,,,,BREAD FISH CAFE,19253 COLIMA RD,ROWLAND HEIGHTS,,
207,Cauldron Ice Cream,,342,4,$$,"Ice Cream & Frozen Yogurt, Coffee & Tea",33.87274,-118.07291,Qe917T5GtPu8-UNJTQtmmQ,,CAULDRON ICE CREAM,12154 ARTESIA BLVD # B,ARTESIA,,
208,Amandine Patisserie Cafe KTown,,276,4,$$,"Bakeries, Breakfast & Brunch, American (New)",34.0527449,-118.3038449,4uSZ0G-8hteI26CBYWnwgg,,AMADINE PATISSERIE CAFE KT,3121 W OLYMPIC BLVD,LOS ANGELES,,
209,,,,,,,,,,,9TH STREET MARKET,1432 W 9TH ST,POMONA,,
210,,,,,,,,,,,SUPER 98 CENT STORE,8030 ATLANTIC AVE,CUDAHY,,
211,Cafe De Paris,,136,4,$,"Cafes, Coffee & Tea, Juice Bars & Smoothies",33.99058104,-117.9219109,iR8GUqVF9SGtGjW9qx9mpQ,,CAFE DE PARIS,17575 COLIMA RD,INDUSTRY,,
212,3rd Generation Sake Bar,,316,4,$$,"Sushi Bars, Ramen",34.0487192,-118.2590779,S9A_ln-DFonx3vmCydjb4Q,,3RD GENERATION,808 W 7TH ST,LOS ANGELES,,
213,M F Noodle,,44,4,$,"Ramen, Japanese Curry, Noodles",34.062118,-118.131487,ZY3fpu6QifdF8yChGoCb7w,,M F NOODLE,644 W GARVEY AVE,MONTEREY PARK,,
214,Ari Market,,5,5,,"Grocery, International Grocery, Delis",34.1774416,-118.297998,q4y7ZW0A6hGSfUkvjEl5Gg,,ARI MARKET,906 S GLENOAKS BLVD,BURBANK,,
215,Michael-Thy Donut's,,17,4.5,$,"Donuts, Cafes, Breakfast & Brunch",33.90207307,-118.1175998,3tfWvUn5ZEWnYHFYSour1g,,MICHAEL-THY DONUTS,10137 ROSECRANS AVE,BELLFLOWER,,
216,Crowne Plaza Los Angeles Airport,,418,3,$$$,Hotels,33.946559,-118.388885,AZg1sYbxb6WLvxZv5-VZpA,,CROWNE PLAZA TAPROOM,5985 CENTURY BLVD,LOS ANGELES,,
217,Mini Monster,,235,4,$,"Bubble Tea, Coffee & Tea, Desserts",34.13551163,-118.3513792,nOVw8XfN_rr-FaZUxflMxQ,,SNOW MONSTER,1000 UNIVERSAL CITY PLZ # 143,UNIVERSAL CITY,,
218,BAJA Cali Fish & Tacos,,363,4,$,"Seafood, Mexican, Cocktail Bars",34.1692649,-118.0992072,A8e1CCtLh9C3xQ4Ttd4rJQ,,BAJA CALI FISH & TACOS - PASADENA,2487 E WASHINGTON BLVD STE B,PASADENA,,
219,Skyline Pool at the Everly,,2,3.5,,Swimming Pools,34.10394,-118.3248,B9NttMxyRx-UFamf5kKYSg,,THE EVERLY-1ST  FLOOR KITCHEN AND PANTRY,1800 N ARGYLE AVE,LOS ANGELES,,
220,Fundamental DTLA,,358,4,$$,"American (New), Bars, Breakfast & Brunch",34.04625345,-118.2574876,JJxUBk2Zueqm_1jEgwjyDQ,,FUNDAMENTAL,750 S GRAND AVE # 30,LOS ANGELES,,
221,El Rincon Del Sabor Poblano,,35,4.5,$,Mexican,34.08919765,-117.950413,pY7AFRyvQ7vKRrm5iwOyjg,,EL RINCON DEL SABOR POBLANO,15011 RAMONA BLVD,BALDWIN PARK,,
222,Gina Feeds,,3,5,,Caterers,34.2034059,-118.226618,CCtx1Zb7-PpdgANDHDr-qA,,GINA FEEDS,3527 N VERDUGO RD,GLENDALE,,
223,Magic Buzz Mini Market & Tobacco Shop,,2,4.5,$,"Tobacco Shops, Convenience Stores",34.06225204,-117.7456512,V4pG7JHSPVIxkc5ezJXIVA,,MAGIC MINI MARKET,304 E HOLT AVE,POMONA,,
224,,,,,,,,,XtkGbNi4B5G4xt5yOqZnwQ,,THE RED LOUNGE,222 N GLENDORA AVE,GLENDORA,,
225,El Vaquerito Restaurant,,81,4,$,"Mexican, Breakfast & Brunch",34.094637,-118.151719,Xz_K_5a992ila_RHkbVtzw,,EL VAQUERITO RESTAURANT,14 S FREMONT AVE,ALHAMBRA,,
226,Donut Star,,17,4,$,Donuts,33.75481,-118.30865,pkOaVWBlciOAxlU6B5Ayyg,,DONUT STAR,29050 S WESTERN AVE STE 134,RANCHO PALOS VERDES,,
227,Cold Stone Creamery,,79,3,$$,"Ice Cream & Frozen Yogurt, Custom Cakes, Cupcakes",34.02745,-117.83645,htiMUT_aHnpq1od5H8zEFQ,,COLDSTONE CREAMERY WALNUT #692,505 N GRAND AVE # 3D,WALNUT,,
228,Excellent Donuts,,2,4.5,,Donuts,33.94575,-118.31742,t41SpxNiaqJZk0mjxXmLSA,,EXCELLENT DONUTS,2157 W CENTURY BLVD,LOS ANGELES,,
229,Tacos Tu Madre,,38,3,$$,Tacos,34.04383567,-118.2526857,f3WC4njPQTKrTFcWXQKogw,,TACO TU MADRE RESTAURANT,724 S SPRING ST STE 110,LOS ANGELES,,
230,Smitten Ice Cream,,54,4,$$,Ice Cream & Frozen Yogurt,34.0599599,-118.41982,ciBLSJEZW1nbBGaJ6gv-9g,,SMITTEN ICE CREAM,10250 SANTA MONICA BLVD # 9190,LOS ANGELES,,
231,Teriyaki House Grill,,275,4.5,$,American (Traditional),33.880539,-118.142177,GKpsPOxHZA1C4bhMr827OQ,,TERIYAKI HOUSE GRILL,16900 LAKEWOOD BLVD UNIT 203,BELLFLOWER,,
232,Baja Cali Fish & Tacos,,509,4.5,$,"Seafood, Tacos",34.03150371,-117.9127782,eGHX2NwDznFsmC7-Gwk-rQ,,BAJA CALI FISH & TACOS,1535 E AMAR RD,WEST COVINA,,
233,Bomb Chicken,,514,4,$$,"Chicken Wings, Korean, Chicken Shop",34.03639268,-118.1303748,7ThcadbFoL6gVUZGp_hVsw,,BOMB CHICKEN,2300 S GARFIELD AVE STE A,MONTEREY PARK,,
234,,,,,,,,,,,PARTYSUBS,12727 SHERMAN WAY # B 06,NORTH HOLLYWOOD,,
235,Jacaranda Gourmet,,89,4,$$,"Sandwiches, Breakfast & Brunch, Seafood",33.7535119,-118.3087912,I5N3G-4M1rEIbPqqY-oxCg,,JACARANDA,1030 N WESTERN AVE,SAN PEDRO,,
236,Chinese Kitchen,,20,4,$,Chinese,33.92549452,-118.3532595,X2-3M1Oie11vdelm9Hm21w,,CHINESE KITCHEN,11913 HAWTHORNE BLVD,HAWTHORNE,,
237,H Mart - Arcadia,,340,3,$$,"Grocery, Seafood Markets, Food Court",34.13160236,-118.0657359,BS7QS0JXfpfVGm5lEWzNvA,,H MART - DELI,1101 W HUNTINGTON DR,ARCADIA,,
238,7 Leaves Cafe,,973,4,$,"Coffee & Tea, Macarons",34.096632,-118.128162,IsnuQoc2QRvs0QSU0ZOxEg,,7 LEAVES CAFE,151 N GARFIELD AVE,ALHAMBRA,,
239,Afters Ice Cream,,133,4.5,$$,Ice Cream & Frozen Yogurt,34.186087,-118.604688,_-pGOOS_94P1eb0kubB0fA,,AFTERS ICE CREAM,6344 TOPANGA CANYON BLVD # 1075,WOODLAND HILLS,,
240,The Meat Cellar,,1122,4,$$,"Meat Shops, Sandwiches, Steakhouses",34.10677,-117.71634,9r4_2UYmm184BIupahvc6Q,,THE MEAT CELLAR,160 W FOOTHILL BLVD,CLAREMONT,,
241,,,,,,,,,,,MONTRESOR,11266 VENTURA BLVD,STUDIO CITY,,
242,,,,,,,,,,,CONI SEAFOOD,4532 S CENTINEA AVE,LOS ANGELES,,
243,,,,,,,,,,,EL PARAISO MARKET,5075 RANDOLPH ST,MAYWOOD,,
244,La Michoacana Super,,22,4,$,Ice Cream & Frozen Yogurt,34.67548,-118.11427,bBk4nn6AkW_rqv2nCDtctw,,LA MICHOACANA SUPER,805 E K AVE # 111,LANCASTER,,
245,Albert's Mexican Food,,11,3,,Mexican,34.0631,-118.03834,r9x1d7BOBWS7XYmVX5Vq7A,,ALBERT'S MEXICAN FOOD,10829 E GARVEY AVE,EL MONTE,,
246,Smoky Hollow Roasters,,43,4.5,$,Coffee Roasteries,33.91704,-118.40858,mhTO26c2ISPfv8_ysBSJiw,,SMOKY HOLLOW BAKING CO.,118 SIERRA ST UNIT A,EL SEGUNDO,,
247,Pacific Kosher Express,,66,4,$$,"Pizza, Kosher, Breakfast & Brunch",34.17254,-118.56625,1nGJRSSyIEjPUJ7EWV9oBA,,PACIFIC KOSHER AT WOODLAND HILLS,19907 VENTURA BLVD,WOODLAND HILLS,,
248,The Baked Bear,,98,4,$,"Desserts, Ice Cream & Frozen Yogurt, Donuts",34.02498319,-118.2853116,HZ0ZaBYmO5f-ywQBbsEtlw,,THE BAKED BEAR,929 W JEFFERSON BLVD,LOS ANGELES,,
249,H Mart - Arcadia,,340,3,$$,"Grocery, Seafood Markets, Food Court",34.13160236,-118.0657359,BS7QS0JXfpfVGm5lEWzNvA,,H MART - SEAFOOD MARKET,1101 W HUNTINGTON DR,ARCADIA,,
250,The Crab Shack,,398,4,$$,"Seafood, Cajun/Creole",33.8736012,-118.3019314,qp8aM4iB0voO7jVDY20bFA,,THE CRAB SHACK,1451 W ARTESIA BLVD # 1,GARDENA,,
251,Night + Market Sahm,,348,3.5,$$,Thai,33.991526,-118.449021,yGWI26LCzQeTVIrdPjPlNg,,NIGHT MARKET SAHM,2533 LINCOLN BLVD,VENICE,,
252,Harajuku Taproom,,338,4,$$,"Izakaya, Tapas/Small Plates, Beer Bar",34.00334,-118.40704,4slNo32X_N2JB_785Qj7gg,,HARAJUKU TAPROOM,4410 SEPULVEDA BLVD,CULVER CITY,,
253,Nizam Of India,,371,4,$$,Indian,34.03991,-118.42906,6zO7ihNqwMKyQDtgkyRbZg,,NIZAM INDIAN CUISINE,10871 PICO BLVD,LOS ANGELES,,
254,,,,,,,,,,,A & M DISCOUNT,4159 BEVERLY BLVD,LOS ANGELES,,
255,Brighton Coffee Shop,,233,3,$$,"Coffee & Tea, Breakfast & Brunch",34.0682934,-118.4040552,oedmWwu4MUJ6k4KKlQ_b8g,,BRIGHTON COFFEE SHOP,9600 BRIGHTON WAY,BEVERLY HILLS,,
256,,,,,,,,,,,FAMILY DOLLAR #31950,1101 W I AVE,LANCASTER,,
257,,,,,,,,,,,YAMIBUY.COM,280 MACHLIN CT,INDUSTRY,,
258,Menchie's,,24,3.5,$$,"Ice Cream & Frozen Yogurt, Custom Cakes",34.259394,-118.466401,_FgVdj6AIv5Jo19KW7JJ9g,,MENCHIE'S FROZEN YOGURT,10386 SEPULVEDA BLVD,MISSION HILLS,,
259,Birrieria San Marcos,,114,3.5,$,"Tacos, Food Trucks",34.178655,-118.440264,lPA1aMVIP0kHLz10bRuaAg,,SAN MARCOS MEXICAN GRILL,5937 HAZELTINE AVE,VAN NUYS,,
260,Cafe Cola,,773,4.5,$$,"Burgers, Cheesesteaks",34.09777454,-117.8897622,SoucC2gPg33WEaQFcGoeog,,CAFE COLA,1010 N CITRUS AVE,COVINA,,
261,Cocina Distrito,,241,4,$$,Mexican,33.93199,-118.1454,oXwiM9gorbwOgoTiNlZk3A,,COCINA DISTRITO,12056 PARAMOUNT BLVD,DOWNEY,,
262,Burgerim,,126,3.5,$$,"Burgers, Sandwiches, American (Traditional)",34.12839,-117.87396,n16A26YExwKvEP6rc6wCOw,,BURGERIM,604 W ROUTE 66 # 102,GLENDORA,,
263,Creamy Spoon French Bistro,,520,5,$$,"French, Breakfast & Brunch, Wine Bars",34.1465013,-118.2469332,q98WlyRMyDbol-8l6xJkEA,,CREAMY SPOON,106 N GLENDALE AVE,GLENDALE,,
264,WaBa Grill,,84,2.5,$,"Fast Food, Asian Fusion",33.94056506,-118.0463858,uEB9XGxa6rmoUkXu8UWYPA,,WABA GRILL,10138 CARMENITA RD,WHITTIER,,
265,iFood Chinese,,55,3.5,,"Chinese, Seafood",34.02630751,-118.426815,Bsl3Ih8AppYQqddlpYV4qg,,IFOOD CHINESE,3120 S SEPULVEDA BLVD,LOS ANGELES,,
266,Discount Liquor 'n Market,,5,4,,"Grocery, Beer, Wine & Spirits",34.04612652,-118.1620393,k0feUPQO-XSJXzu-S4buAQ,,DISCOUNT LIQUOR 'N MARKET,1472 MONTEREY PASS RD,MONTEREY PARK,,
267,Café 84,,15,3.5,$$,"Coffee & Tea, Juice Bars & Smoothies",34.02429982,-118.2874398,ELI4BXMqvLxUh2wl3CZ9IA,,USC STARBUCKS CAFE 84,1025 W 34TH ST,LOS ANGELES,,
268,Sopita Cafe,,5,4.5,,"Ramen, Bubble Tea, Cafes",34.0693,-118.29253,tt-Av0eP5EM__cb-nanGOg,,SOPITA CAFE,3525 W 3RD ST # 2,LOS ANGELES,,
269,,,,,,,,,,,TOM N TOMS,14300 WHITTIER BLVD,WHITTIER,,
270,The Habit Burger Grill,,131,3.5,$,"Salad, Burgers, Sandwiches",34.07704,-118.26469,1fAnrUJOTGV4ZwP5WBrlsw,,THE HABIT BURGER GRILL #230,2134 W SUNSET BLVD,LOS ANGELES,,
271,Ohana Hawaiian BBQ,,173,2.5,$$,"Hawaiian, Barbeque, Japanese",33.8541711,-118.1334748,vQwI3nAhU673szRvaXqWdQ,,OHANA HAWIIAN BBQ,5316 CLARK AVE,LAKEWOOD,,
272,Pho Viet Express,,33,4.5,,"Vietnamese, Soup",34.131117,-118.066055,NTc9PbuG-VuttCuDuQC30g,,PHO VIET EXPRESS,1101 W HUNTINGTON DR # 5,ARCADIA,,
273,Rincon Mexicanito,,6,4.5,$,"Accessories, Women's Clothing, Shoe Stores",33.97260496,-118.1639712,8EXOjc-VJ1NFt3cv8NjIuA,,RINCON MEXICANITO,6614 EASTERN AVE,BELL GARDENS,,
274,,,,,,,,,,,AV LIQUOR & JR MARKET,44201 20TH ST W,LANCASTER,,
275,Delucia Bar,,65,4.5,$$,Bars,33.9047129,-118.1690049,FV2OVKq5zn-8updp6VZ0Ig,,DELUCIA COCINA BAR,14123 GARFIELD AVE,PARAMOUNT,,
276,The Funnel House,,196,4,$$,"Desserts, Bakeries, Ice Cream & Frozen Yogurt",34.24032296,-118.5564783,cXsqR3VwBi_UsZLTaVIlGA,,FUNNEL HOUSE,9301 TAMPA AVE # 135,NORTHRIDGE,,
277,Paleo Diner Healthy Kitchen,,95,3.5,$$,American (New),34.165759,-118.374748,kpmpx0u7krv0QYw_PScCQg,,PALEO DINER,5230 LANKERSHIM BLVD,NORTH HOLLYWOOD,,
278,ALDI,,38,3.5,$,"Grocery, Fruits & Veggies, Organic Stores",34.11738963,-117.8307208,yAasnF-tWTOaxhqhsmipKg,,ALDI #111,1241 S LONE HILL AVE # A,GLENDORA,,
279,,,,,,,,,,,JASMIN MEXICAN RESTAURANT,3605 TWEEDY BLVD,SOUTH GATE,,
280,Taqueria Las Virgenes,,111,4,$,Mexican,34.1448097,-118.6984406,IvDmzpi3AmpLbx90fck6cw,,LAS VIRGENES CHEVRON,4807 LAS VIRGENES RD,CALABASAS,,
281,Myke's Cafe,,219,4,$$,"Coffee & Tea, Breakfast & Brunch, Burgers",34.17237827,-118.4568647,bRBEbIkCj_hwKtZ-8yRtHg,,MYKE'S CAFE,14845 BURBANK BLVD,SHERMAN OAKS,,
282,Polly's on the Pier,,337,4,$,"American (Traditional), Breakfast & Brunch, Diners",33.8426435,-118.391695,14nI_Mlra3mF3GO1XkcBkw,,POLLY'S ON THE PIER,160 INTERNATIONAL BOARDWAL # 131,REDONDO BEACH,,
283,,,,,,,,,,,IGRILL,15425 VALLEY BLVD,INDUSTRY,,
284,Heektea,,61,4,$,"Juice Bars & Smoothies, Tea Rooms",33.8895074,-118.3056207,BEoONOf7-93eRK9JBlitCA,,HEEKTEA,1610 W REDONDO BEACH BLVD # 12B,GARDENA,,
285,Jack's Classic Hamburgers,,325,3.5,$,Burgers,34.1572776,-118.3784043,lVYLaOxRYK2my0awWL8whg,,JACKS CLASSIC HAMBURGER,11375 RIVERSIDE DR,NORTH HOLLYWOOD,,
286,Domino's Pizza,,29,2.5,$,Pizza,34.43604467,-118.5628476,5unYtEiYTjvKbeOaellXuQ,,DOMINO'S PIZZA #8692,27530 NEWHALL RANCH RD # 107,VALENCIA,,
287,Sweet Veggie,,199,4.5,$,"Vegetarian, Vegan, Taiwanese",33.99794888,-117.853822,pXYQrDtiQTdbf7F_1LCBkQ,,SWEET VEGGIE,20657 GOLDEN SPRINGS DR #104 -105,DIAMOND BAR,,
288,Kokoroll Cafe,,133,4.5,$$,"Poke, Juice Bars & Smoothies, Japanese",34.1809318,-118.3084678,YFBRjmiaS9QCMpl6lRHIew,,KOKOROLL CAFE,214 E OLIVE AVE,BURBANK,,
289,Brew Kitchen Bar,,395,4.5,$$,Gastropubs,34.03571,-118.13006,pKsoDexjldKm7lND9XJdSQ,,BREW KITCHEN & BAR,2328 S GARFIELD AVE,MONTEREY PARK,,
290,Port Royal Cafe,,68,4,$$,"Caribbean, Barbeque, Sandwiches",34.02297,-118.48349,hfRaEH8TOqpRTIuhcShq7Q,,PORT ROYAL CAFE,1412 BROADWAY,SANTA MONICA,,
291,Flame Broiler,,55,4,$,"Fast Food, Korean",34.1147781,-117.7748386,GvOlLipcJUalh4xq3A4eAA,,THE FLAME BROILER THE RICE BOW KING,1548 FOOTHILL BLVD,LA VERNE,,
292,,,,,,,,,,,SANTOS JR 98  & UP,4272 E FLORENCE AVE STE I&C,BELL GARDENS,,
293,Chick-fil-A,,473,3.5,$,Fast Food,34.0166393,-118.2825753,Fs7lKMANuifCyDjF99opRA,,CHICK-FIL-A @ USC,3758 S FIGUEROA ST,LOS ANGELES,,
294,Côté Est,,222,4,$$,"Wine Bars, French",34.12104,-118.20615,sMsnfCbzi21JPmXg3xTQGQ,,COTE EST,5022 YORK BLVD,LOS ANGELES,,
295,Anatra,,83,4.5,$$$,"Italian, French",34.04163,-118.25155,jDmJ3wNBKYZILzDOkEk1CA,,ANATRA,217 E 8TH ST,LOS ANGELES,,
296,,,,,,,,,,,ANGELITO'S NUTRICIONAL,4000 GAGE AVE,BELL,,
297,Project LA,,63,2,$$,"Dance Clubs, Music Venues, Bars",34.10147745,-118.3285412,7oXA5z8PnceeW0TxgZEPgA,,PROJECT,6356 HOLLYWOOD BLVD FL 1ST F,LOS ANGELES,,
298,The Bucket Crabs And Crawfish,,236,4,$$,"Cajun/Creole, Seafood",33.8814,-118.08278,G2HrNgwhZ6pXRthihMF21g,,THE BUCKET CRAB AND CRAWFISH,16441 PIONEER BLVD,NORWALK,,
299,Magic Pizza,,158,4.5,$,"Pizza, Sandwiches, Pasta Shops",34.4101977,-118.5790776,qmnTe4mAHxnVmzmBPAuQNQ,,MAGIC PIZZA,26870 THE OLD ROAD,VALENCIA,,
300,Boba Tivo,,46,4.5,$,"Juice Bars & Smoothies, Bubble Tea, Shaved Ice",33.9132467,-118.0816051,1WiFbj-QCfz8d0KQvRraRA,,BOBA TIVO,12848 PIONEER BLVD,NORWALK,,
301,,,,,,,,,,,MASICHINA,1585 SEPULVEDA BLVD # D,TORRANCE,,
302,The NoMad Rooftop Bar,,104,3.5,$$$,Cocktail Bars,34.04697,-118.25557,wMnhDaXezM-y5vBcBj0hzQ,,NOMAD HOTEL - ROOFTOP RESTAURANT AND BAR,649 S OLIVE ST,LOS ANGELES,,
303,Subway,,15,2.5,$,Sandwiches,34.0327881,-117.9154366,JRmQaYQAkVSuXxy_WLZXWg,,SUBWAY,2427 S AZUSA AVE,WEST COVINA,,
304,,,,,,,,,,,WESTERN REFINING RETAIL #68625,23140 HAWTHORNE BLVD,TORRANCE,,
305,Papa John's Pizza,,42,3,$,Pizza,34.00158,-117.81056,aB2GjKJG1KLF1CInKjkpCA,,PAPA JOHN'S PIZZA,1176 S DIAMOND BAR BLVD,DIAMOND BAR,,
306,The Oaks Club at Valencia,,61,4,,"Golf, Venues & Event Spaces",34.402728,-118.583019,x1ceztN01yTnzSoTnXzO4w,,THE OAKS CLUB AT VALENCIA- SNACK SHOP,26550 HERITAGE VIEW LN,STEVENSON RANCH,,
307,,,,,,,,,,,DAVID & MARGARET HOME INC.,1351 PALOMARES AVE,LA VERNE,,
308,Tamales House,,269,4.5,$,Mexican,34.2091936,-118.5359251,GsPE2cHSL5aEo3xkcvGFvA,,CALIFORNIA TAMALE HOUSE,7622 RESEDA BLVD,RESEDA,,
309,La Michoacana Ice Cream Parlor,,117,3,$,Ice Cream & Frozen Yogurt,34.5805,-118.09492,SoAfvSRf4WkSrLRlVMAAZg,,LA MICHOACANA VIP ICE CREAM PARLOR,1823 E PALMDALE BLVD,PALMDALE,,
310,,,,,,,,,,,LATINA MARKET,1503 E 66TH ST,LOS ANGELES,,
311,Boba Time,,31,2,$,"Coffee & Tea, Bubble Tea",33.99401,-117.926536,s9FjYfU89n3BRQHG_C_eZQ,,BOBA TIME,1600 S AZUSA AVE # 561-C,CITY OF INDUSTRY,,
312,Creamistry,,79,3.5,$$,"Desserts, Ice Cream & Frozen Yogurt",34.127852,-117.8728549,5c0zjhofju4YdT0MFKcSjQ,,CREAMISTRY,651 S GRAND AVE # 104,GLENDORA,,
313,,,,,,,,,,,NEON COFFEE,3206 W SUNSET BLVD,LOS ANGELES,,
314,Yummy BBQ,,33,3,$$,"Barbeque, Chinese",34.06218,-118.12159,INmc2ef52R1JztwOgLVKYg,,YUMMY BBQ,168 E GARVEY AVE # B,MONTEREY PARK,,
315,Ludingji Noodles,,63,3.5,$$,"Chinese, Noodles, Asian Fusion",33.996109,-117.9061707,N87wm9HBBQAWze3qRk0F-Q,,LUDINGJI,18211 E GALE AVE,CITY OF INDUSTRY,,
316,Feel Karaoke,,220,3.5,$$,Karaoke,34.06318,-118.30373,ApeypMG7u0kJT9RcjqZN0w,,FEEL KARAOKE,600 S HARVARD BLVD 2ND FLOOR,LOS ANGELES,,
317,Water R Us,,1,5,,"Water Stores, Convenience Stores, Keys & Locksmiths",34.17863,-118.44031,wr6s6terr-Riw5v_un5w2g,,WATER R US,5939 HAZELTINE AVE,VAN NUYS,,
318,The Pier Grill,,96,4.5,$$,Seafood,34.12803009,-117.8304479,JBQnCrmUGc7PI_o6LRx1uQ,,"THE PIER GRILL, GLENDORA",1810 E ROUTE 66,GLENDORA,,
319,Manpuku Japanese Yakiniku Dining,,118,4.5,$$$,"Japanese, Barbeque",34.073128,-118.376015,quDRbtVyZHsvVeEMe0K6zw,,MANPUKU,8486 W 3RD ST,LOS ANGELES,,
320,7-Eleven,,12,3.5,$,"Convenience Stores, Coffee & Tea",34.421588,-118.497893,ZB3IoGCXMy0r-YMPat-eJA,,7-ELEVEN STORE #38127A,20655 SOLEDAD CANYON RD # 44,SANTA CLARITA,,
321,Big Boi Filipino,,451,3.5,$$,Filipino,34.0401269,-118.4431476,XjriQ5bVJIHbgasRDDAncA,,BIG BOI BY B SWEET,2027 SAWTELLE BLVD,LOS ANGELES,,
322,,,,,,,,,,,"PARK,HEUNG KU",1258 68TH ST,LOS ANGELES,,
323,Edible Arrangements,,37,3.5,$$$,"Chocolatiers & Shops, Juice Bars & Smoothies",33.8862822,-118.3788843,DsRo_IWANvumcvTbOqVR9Q,,EDIBLE ARRANGEMENTS,1061 AVIATION BLVD,MANHATTAN BEACH,,
324,Tara's Market,,3,3,,Grocery,34.001,-118.42778,0l78lgujPloPFmxI7kYH4w,,TARA AND JB'S MARKET,12131 WASHINGTON PL STE E,LOS ANGELES,,
325,Becerra's Meat Market,,13,5,,"Farmers Market, Mexican",33.83918061,-118.0820296,GiSZBSUn_bUCPFCbwQJzOw,,BECERRA'S MEAT MARKET,20917 PIONEER BLVD,LAKEWOOD,,
326,7-Eleven,,7,2,$,"Convenience Stores, Coffee & Tea",34.04531,-117.96366,VHDYehkZm_KmGdxZ85wc8w,,7-ELEVEN #34031B,861 N SUNSET AVE,LA PUENTE,,
327,,,,,,,,,,,SARA'S MINI MARKET,5900 CLARA ST,BELL GARDENS,,
328,Rinconcito Mexicano,,6,3.5,,Mexican,34.075248,-117.7193849,#NAME?,,RINCONCITO MEXICANO,1681 N INDIAN HILL BLVD,POMONA,,
329,Carson Buffet,,257,3,$$,"Buffets, Chinese",33.84007933,-118.2598172,SUI22RpsoLufTnjdO35Uyg,,CARSON BUFFET,888 E DOMINGUEZ ST STE E,CARSON,,
330,Bella Frozen Yogurt,,17,4.5,$,"Coffee & Tea, Ice Cream & Frozen Yogurt",34.04820589,-118.2510565,mxImCkXAkjbzx6n3EPgLqQ,,BELLA FROZEN YOGURT,312 W 5TH ST # R-105,LOS ANGELES,,
331,,,,,,,,,,,LIM MARKET,704 W COMPTON BLVD,COMPTON,,
332,Japan House Los Angeles,,24,4,,Cultural Center,34.10239346,-118.3400505,83oQyBcqUqSS0H5tF_KlTg,,JAPAN HOUSE LA 2ND FLOOR,6801 HOLLYWOOD BLVD #213 -221,LOS ANGELES,,
333,Domino's Pizza,,33,2,$,"Chicken Wings, Pizza, Sandwiches",34.022148,-118.2610431,5sz_h7GgFicFWv4dXrpiGg,,DOMINO'S PIZZA #7795,2527 S SAN PEDRO ST,LOS ANGELES,,
334,The Dudes' Brewing Company,,150,4,$$,Breweries,34.4164,-118.55954,a9ymWb-NPzZNazYsw0pAeA,,THE DUDES' BREWING COMPANY,24250 TOWN CENTER DR # 190,VALENCIA,,
335,Spice Affair Century City,,126,4,$$,Indian,34.0599599,-118.41982,z7VieaCUNfdMmGZqOMYxDA,,SPICE AFFAIR,10250 SANTA MONICA BLVD # FC10,LOS ANGELES,,
336,Broken Yolk Cafe,,1736,4,$$,"American (Traditional), Breakfast & Brunch, Cafes",34.127031,-117.872349,P3I8aRhuC4G80HFpDYeY5g,,BROKEN YOLK CAFE,670 S GRAND AVE,GLENDORA,,
337,Batch Baking Bar,,27,4,$,"Desserts, Bakeries",34.24079512,-118.555744,xouNGahMQ2hAKHY8PUIDFw,,BATCH BAKING BAR,9301 TAMPA AVE # 5543,NORTHRIDGE,,
338,,,,,,,,,YhJ2bXYk-SIxpFfT4RgHUQ,,CAFE MAJI,12232 ARTESIA BLVD,ARTESIA,,
339,Family Dollar,,9,2,$,Discount Store,33.9019051,-118.1015744,HV1o--4al_MgRTNgU9VzMQ,,FAMILY DOLLAR #32105,10930 ROSECRANS AVE,NORWALK,,
340,Tasty Choice,,9,3.5,$,"Burgers, Fast Food, Mexican",34.04008865,-117.9767151,F2lC2HkwKjq3J-VjGFneZQ,,TASTY CHOICE,14304 NELSON AVE,INDUSTRY,,
341,Kebab Daddy,,129,4.5,$$,"Kebab, Mediterranean, Barbeque",34.09753,-118.32312,CR8q9bHVOhFom_-Ul_owxg,,"KEBAB DADDY HOLLYWOOD, LLC",6110 W SUNSET BLVD,LOS ANGELES,,
342,7-Eleven,,3,3.5,$,"Convenience Stores, Coffee & Tea",33.974181,-118.3304328,vPt9wpcr6bCHf749eUHpzQ,,7 ELEVEN #37215A,3330 W FLORENCE AVE,LOS ANGELES,,
343,,,,,,,,,,,BELL GAS,5151 FLORENCE AVE,BELL GARDENS,,
344,Five Guys,,42,3,$$,"Burgers, Fast Food",33.9307668,-118.3253234,I8TsThqoj_dg3dbDymsX6A,,FIVE GUYS BURGERS & FRIES #CA0689,2942 W IMPERIAL HWY,INGLEWOOD,,
345,,,,,,,,,,,GSE 76 GLENDALE,1501 W GLENOAKS BLVD,GLENDALE,,
346,Luv Tan,,46,3.5,$,"Tanning, Cosmetics & Beauty Supply",34.42160797,-118.5639267,b17t_GYFRLdwUEw4H2w8mQ,,LUV 'N DONUTS,27051 MCBEAN PKWY # 103,SANTA CLARITA,,
347,Einstein Bros Bagels,,82,2,$$,"Bagels, Coffee & Tea, Breakfast & Brunch",33.946364,-118.401084,Bau4dA_PcPeHi_-Nn0dHfQ,,EINSTEIN BEGELS,100 WORLD WAY # TM23,LOS ANGELES,,
348,Anda Lari,,68,4,$,Indian,33.8601768,-118.0819951,XkJwrkAzxetxuwcb9-tqDg,,ANDA LARI,18740 PIONEER BLVD,ARTESIA,,
349,,,,,,,,,,,MAYA'S GRILL,1645 FIRESTONE BLVD,LOS ANGELES,,
350,Cali's Pizza,,54,4.5,$,Pizza,33.8727551,-118.1101264,ub7j3ssBi1kU8TzgztPsKA,,CALIS PIZZA,10502 ARTESIA BLVD STE A,BELLFLOWER,,
351,Shell,,33,2,,Gas Stations,34.37798,-118.56216,1GL3k4rBXYDsZAzTrv2h2A,,KELLY'S SHELL,24440 LYONS AVE,NEWHALL,,
352,Wendy's,,63,3,$,"Burgers, Fast Food",34.155119,-118.793486,nm42HNpE0HNvmmx6cJw9Pg,,WENDY'S #76820,5788 N LINDERO CANYON RD,WESTLAKE VILLAGE,,
353,Tasty Noodle House,,253,3.5,$$,"Shanghainese, Dim Sum, Noodles",34.0389048,-118.4420525,h3rQpPzQ-wiAoctnMLSIUA,,TASTY NOODLE HOUSE,2117 SAWTELLE BLVD,LOS ANGELES,,
354,Octopus Japanese Restaurant,,1453,4,$$,"Japanese, Sushi Bars",34.1469282,-118.2537603,U0Rp6zWvuSSBvupDY24BhA,,OCTOPUS JAPANESE RESTAURANT,112 N ARTSAKH AVE,GLENDALE,,
355,Brewport Tap House,,363,4.5,$$,"Beer Bar, American (New), Brewpubs",33.9181418,-118.4158251,dOa2vmwFaveT_OLxjLrnug,,BREWPORT TAPHOUSE,204 MAIN ST,EL SEGUNDO,,
356,Center Theatre Group Kirk Douglas Theatre,,137,4.5,,Performing Arts,34.0217469,-118.3970341,DUVnTAd3ByNAgmCsyOiGlA,,KIRK DOUGLAS THEATRE CONCESS,9820 W WASHINGTON BLVD,CULVER CITY,,
357,Sugar & Spice Cupcakery,,172,4,$$,"Bakeries, Patisserie/Cake Shop, Cupcakes",33.91904535,-118.0102064,ycf0KzSJMPAzuShjNyx0Kg,,SUGAR AND SPICE CUPCAKERY,12240 LA MIRADA BLVD,LA MIRADA,,
358,Denny's,,153,3,$,"Breakfast & Brunch, Diners, American (Traditional)",34.13925598,-117.982804,IsdXYU-IBbwVMgIJ1_nBRw,,DENNY'S #6986,1060 HUNTINGTON DR,DUARTE,,
359,El Zarape Melrose,,178,4,$$,"Mexican, Breakfast & Brunch, Beer Bar",34.083714,-118.3055,koAIofFAgzs3ewEYJyUjgg,,EL ZARAPE MELROSE,4809 MELROSE AVE,LOS ANGELES,,
360,7-Eleven,,6,2,$,"Convenience Stores, Coffee & Tea",34.20819435,-118.5365716,D6G_vNmgI2FSyTM7AjoVkQ,,7-ELEVEN STORE 19882F,7555 RESEDA BLVD,RESEDA,,
361,,,,,,,,,,,DOLLAR SMART,4205 E COMPTON BLVD,COMPTON,,
362,Raymond's Liquor Market,,3,4.5,$,"Beer, Wine & Spirits, Grocery",34.0957985,-118.0998688,h19V_sDKhTsBY1WA1s5Rlw,,RAYMONDS LIQUOR MARKET,501 S DEL MAR AVE,SAN GABRIEL,,
363,Las Dunas Peruvian Cuisine,,140,3.5,$$,"Peruvian, Seafood",34.2405776,-118.5618105,k3ju22YVTQrzPjRxBfmBpw,,LAS DUNAS PERUVIAN CUISINE,9350 CORBIN AVE,NORTHRIDGE,,
364,Annie's Sweet Oven,,246,5,$,"Coffee & Tea, Juice Bars & Smoothies, Salad",34.3217582,-118.4792807,cP3wMdnnUWcRR-xp8ynmPA,,ANNIE'S SWEET OVEN,15983 YARNELL AVE,SYLMAR,,
365,Boba Tea & Me,,145,4,$,Bubble Tea,34.02652667,-118.4889667,ddN59qkIc4Q1xx5RPUE_Tw,,BOBA TEA & ME,1328 WILSHIRE BLVD,SANTA MONICA,,
366,Madison & Park Coffee,,108,4,$$,Coffee & Tea,34.09048,-118.35288,znR-dD1qxt_VqQMJQDT9KA,,MADISON & PARK COFFEE,7494 SANTA MONICA BLVD # B,WEST HOLLYWOOD,,
367,sweetgreen,,92,3.5,$$,"Salad, Vegetarian",34.0599599,-118.41982,3aHFyG9tiJS-hrKF3w0_Xw,,SWEETGREEN,10250 SANTA MONICA BLVD # 1415,LOS ANGELES,,
368,Carl's Jr,,25,2,$,"Fast Food, Burgers",34.017066,-118.220416,DG5rkS1r9-0WvHVqyqrRiw,,CARLS JR #212,1751 S SOTO ST,LOS ANGELES,,
369,Cascada Refrescante,,59,5,$$,Juice Bars & Smoothies,33.88768497,-118.1596671,LsqxBezFtYexApprBd1hjQ,,CASCADA REFRESCANTE,16000 PARAMOUNT BLVD # B,PARAMOUNT,,
370,Guy's Sammich Joint,,1,3,,Sandwiches,34.19645,-118.35415,JeJvuusrBnksTjzizQW4bw,,MCS - GUYS SAMMICH,2627 N HOLLYWOOD WAY,BURBANK,,
371,La Vaquita Sunland Market,,13,4.5,$$,Grocery,34.25988,-118.30856,SVmMK-lUjAOyXrO6JkiTxw,,LA VAQUITA MARKET______,8045 FOOTHILL BLVD,SUNLAND,,
372,Maru Sushi Bar,,414,4.5,$$,Sushi Bars,34.2573749,-118.5992899,DekQJzXRwhqJs8lZO5XX0A,,MARU SUSHI BAR,21515 DEVONSHIRE ST,CHATSWORTH,,
373,Wendy's,,115,2.5,$,"Burgers, Fast Food",34.09816167,-118.3452267,ofFN5_csgb2ZGFHdlxZ0sQ,,WENDY'S #44030,7135 SUNSET BLVD,HOLLYWOOD,,
374,P&R Taste,,38,4,$$,"Chinese, Breakfast & Brunch",33.9885994,-117.9052215,JlmRBPO88J0mOnuU7iASyA,,P&R TASTE,18347 COLIMA RD,ROWLAND HEIGHTS,,
375,Purdy's Liquor,,29,4,$$,"Beer, Wine & Spirits, Tobacco Shops, Convenience Stores",33.94749,-118.3866,XnyJQ8axvPIW0vObHvi2DA,,"EDWIN B PURDY, PRES",5919 W 98TH ST,LOS ANGELES,,
376,RuiHua Restaurant,,42,3,$,"Noodles, Vietnamese, Chinese",34.039954,-118.143848,DUgvGGMWsxn6BXAWmNCIrA,,RUIHUA RESTAURANT,2099 S ATLANTIC BLVD # A,MONTEREY PARK,,
377,California Eatery,,285,3.5,$$,"Bakeries, Cafes, Bagels",34.17902392,-118.3378679,KuEerLyiD_jDz1qrxBam1g,,CALIFORNIA EATERY,2411 W BURBANK BLVD,BURBANK,,
378,,,,,,,,,,,MOUNTAIN HIGH RESORT - GRAND VIEW BISTRO,24512 STATE HIGHWAY 2,WRIGHTWOOD,,
379,Starbucks,,2,4.5,,Coffee & Tea,34.025744,-118.284216,ONR--tZVuJwWfKZbVCYU5w,,TARGET STORE  T-3217 - STARBUCKS,3131 S HOOVER ST # 9-A,LOS ANGELES,,
380,,,,,,,,,,,"WESTERN REFINING RETAIL, LLC STORE #68517",22232 S WILMINGTON AVE,CARSON,,
381,Grocery Outlet Bargain Market,,60,4,$,"Grocery, Discount Store",34.053935,-118.263727,XkvLgI0V5-hjZyKO5bOpTA,,GROCERY OUTLET,1120 W 6TH ST # 103,LOS ANGELES,,
382,,,,,,,,,,,MUL DAE PO,808 S WESTERN AVE # 207,LOS ANGELES,,
383,Shell / Exxon,,31,2.5,,Gas Stations,34.0905687,-118.365226,grsl9Ekd82bmtaqY4n5ITg,,SHELL GAS STATION,8020 SANTA MONICA BLVD,WEST HOLLYWOOD,,
384,7-Eleven,,12,1.5,$,"Convenience Stores, Coffee & Tea",34.2190661,-118.6008681,r7Q3_d47pnPgliyFVfuxBg,,7-ELEVEN STORE 13868D,21618 ROSCOE BLVD,CANOGA PARK,,
385,Il Saggio Italian Restaurant,,329,4.5,$$,Italian,34.001276,-118.162097,3tf35qNtcBglCvdJu4V0Bg,,IL SAGGIO,5427 E WASHINGTON BLVD,COMMERCE,,
386,The Flame Broiler,,34,3.5,$,"Asian Fusion, Fast Food",34.0863264,-117.9666616,vpP7V3dGzaOrf7qrfiTF_A,,THE FLAME BROILER #158,14103 RAMONA BLVD STE D,BALDWIN PARK,,
387,Mi Cuscatlan,,29,3.5,$,Salvadoran,34.0453051,-118.291142,OksCQNQ71ByZRPddN4cavQ,,MI CUSCATLAN,1436 S VERMONT AVE,LOS ANGELES,,
388,Grilliant,,60,4,$$,"Mediterranean, Salad",34.0601582,-118.4431394,w_NM7H-eRccg7DlXtDNLZg,,GRILLIANT,10861 LINDBROOK DR,LOS ANGELES,,
389,Snow Factory,,9,4.5,$$,Ice Cream & Frozen Yogurt,33.9286185,-118.2148936,Rb34wAFqRD6glItkveNf2A,,SNOW FACTORY,3150 E IMPERIAL HWY # 201,LYNWOOD,,
390,Boba Fresca,,20,4,$,"Bubble Tea, Juice Bars & Smoothies",33.79108333,-118.267809,heBxuLCjUo6GLxOos5Z5-A,,BOBA ALBO,435 W PACIFIC COAST HWY,WILMINGTON,,
391,,,,,,,,,,,THE CHOCOLATE GIRL,524 1/2 N LA BREA AVE,LOS ANGELES,,
392,,,,,,,,,,,ALBERTSON'S #191 - STARBUCKS,5015 E DEL AMO BLVD,LAKEWOOD,,
393,,,,,,,,,,,TOPANGA NORDHOFF GAS AND CARWASH,9110 TOPANGA CANYON BLVD,CHATSWORTH,,
394,Pollen,,405,4,$$,"Breakfast & Brunch, American (New), Beer, Wine & Spirits",34.08957,-118.24977,ALUAIZZrhELXUQIKfi52yA,,POLLEN,2100 ECHO PARK AVE,LOS ANGELES,,
395,Chick-fil-A,,714,4,$,Fast Food,34.2321436,-118.5541586,RsQIUUAMM5xNeHSP_M0VrQ,,CHICK-FIL-A AT NORTHRIDGE FSU,8875 TAMPA AVE,NORTHRIDGE,,
396,Cup & Cone Ice Cream,,125,4.5,$,"Ice Cream & Frozen Yogurt, Desserts, Coffee & Tea",34.1564101,-118.6056751,jl-2FsMiAgAYrHoQZwv3AA,,CUP & CONE ICE CREAM,4874 TOPANGA CANYON BLVD,WOODLAND HILLS,,
397,,,,,,,,,,,BMCPHO,154 E ARROW HIGHWAY,COVINA,,
398,HALAL Valentino's New York Pizza and Kebabs,,128,3.5,$,"Pizza, Italian, Kebab",34.2006,-118.580124,sVKUb923HhmRHIgkA8ncPQ,,VALENTINO'S NEW YORK PIZZA,20504 SHERMAN WAY,WINNETKA,,
399,Bruster's Real Ice Cream,,249,4,$,Ice Cream & Frozen Yogurt,33.82225,-118.328111,TmsYJBl5Y8iyGb2L1RWChg,,BRUSTERS ICE CREAM,2390 CRENSHAW BLVD # F,TORRANCE,,
400,Clarita's Caffe,,6,3.5,$$,Juice Bars & Smoothies,34.41361668,-118.5027573,0FXdD7aYC2SWhXB3XJWmkw,,CLARITA'S CAFE,26455 GOLDEN VALLEY RD,SANTA CLARITA,,
401,Fins Or Tails Poke Bar,,95,4,$,"Sushi Bars, Poke, Seafood",33.93931,-118.044564,zTgdRkXaQXReGLExEoZwoQ,,FINS OR TAILS POKE BAR,13473 TELEGRAPH RD # B,SANTA FE SPRINGS,,
402,Vons,,63,2.5,$$,Grocery,34.2048408,-118.2217991,Qb8HE0G2jWnixrw09N6yNg,,ACE SUSHI @ VONS 2288,2039 VERDUGO BLVD,MONTROSE,,
403,H Mart - Arcadia,,340,3,$$,"Grocery, Seafood Markets, Food Court",34.13160236,-118.0657359,BS7QS0JXfpfVGm5lEWzNvA,,H MART - MEAT DEPT,1101 W HUNTINGTON DR,ARCADIA,,
404,,,,,,,,,fNmtVF78LnWNbKfL8cETTA,,BIRRIERIA APATZINGAN,10040 LAUREL CANYON BLVD,PACOIMA,,
405,Cafecito Pura Vida,,83,5,$$,Coffee & Tea,34.0525565,-118.2471725,GkWkr8GX0uZQ4Q6jBTt1PA,,CAFECITO PURA VIDA,306 W 2ND ST,LOS ANGELES,,
406,Tipsy Tails Hollywood,,110,4.5,$$,"Bars, Seafood",34.10196,-118.32769,y3JFivchVHsgZSarLx55FA,,TIPSY TAILS,6325 HOLLYWOOD BLVD,LOS ANGELES,,
407,,,,,,,,,,,FUSION BAR & KITCHEN,11672 RAMONA BLVD,EL MONTE,,
408,Burger King,,49,2,$,"Burgers, Fast Food",34.25694,-118.58773,DS_p916fQD66RCMbI45leg,,BURGER KING #5896,20838 DEVONSHIRE ST,CHATSWORTH,,
409,Sabra Beirut Mix,,278,3.5,$$,"Mediterranean, Middle Eastern",33.92103312,-118.3957518,33Zmrm_btd1lAbZyKD1UNw,,SABRA'S BEIRUT MIX,400 N PACIFIC COAST HWY,EL SEGUNDO,,
410,Taqueria Zavalas,,30,3,$,Mexican,33.903144,-118.217523,nFT-maHKMHCdKqdCAaWWkA,,TAQUERIA ZAVALA #5,518 E ROSECRANS AVE,COMPTON,,
411,Vogue Café,,53,4,$$,"Coffee & Tea, Cafes, Breakfast & Brunch",34.08385,-118.3514,IHluxyrTA_vR5mYAYstkaw,,VOGUE CAFE,7407 1/2 MELROSE AVE,LOS ANGELES,,
412,Paradis Claremont Ice Cream Cafe,,111,4.5,$,Ice Cream & Frozen Yogurt,34.0946703,-117.7194449,Ks2T6tjxz4iamNvwBrMwvg,,PARADIS ICE CREAM,1 N INDIAN HILL BLVD STE 101-D,CLAREMONT,,
413,,,,,,,,,,,BOTANAS EL ATORON,4433 S ALAMEDA ST # B5,LOS ANGELES,,
414,Triniti,,89,4.5,$$,"Coffee & Tea, Cafes, Breakfast & Brunch",34.077642,-118.2597713,s0q-Li3-UkvmJQgCTIfZTw,,TRINITI ECHO PARK,1814 W SUNSET BLVD,LOS ANGELES,,
415,A N B Teriyaki,,35,4.5,$,"Japanese, Fast Food",34.04930067,-117.9964732,TgWkY9SsNIabsdw6G9jabQ,,ANB TERIYAKI,13310 VALLEY BLVD,LA PUENTE,,
416,Da Thai Food & BBQ,,102,3,$,"Thai, Barbeque",33.97133,-118.35687,ZT9jUkPHwUYCNtiSukdisA,,DA THAI FOOD & BBQ,630 N LA BREA AVE # 116,INGLEWOOD,,
417,Szechwan Inn Chinese Restaurant,,279,3.5,$$,"Chinese, Bars, Soup",34.2018,-118.61272,eDi_Nl40RmAfxB0LpQmA8A,,SZECHWAN INN,22323 SHERMAN WAY UNIT 18,CANOGA PARK,,
418,La Michoacana The Ice Cream Spot,,82,4,$,Ice Cream & Frozen Yogurt,33.8896767,-118.1365935,LsJAU4b-GEEyrciUCoLvzg,,LA MICHOACANA THE ICE CREAM SPOT,9251 ALONDRA BLVD STE D,BELLFLOWER,,
419,Lee's Sandwiches,,149,3,$,"Vietnamese, Coffee & Tea, Sandwiches",33.83110583,-118.073217,0tvPIaFY6ijmyC_V1xLmlA,,LEE'S SANDWICHES,12140 CARSON ST STE A,HAWAIIAN GARDENS,,
420,Dollar Tree,,22,3,$,Discount Store,34.164734,-118.523535,ZwQgJNqRJVwCtSjGNjT9nA,,DOLLAR TREE #07327,17955 VENTURA BLVD,ENCINO,,
421,Fat Tomato Pizza,,125,3,$$,Pizza,34.0972099,-118.33886,a3Iz4f_bnWymrTxpsEgr9A,,FAT TOMATO / WHIPPED LA,1429 N HIGHLAND AVE,LOS ANGELES,,
422,Starbucks,,38,3,$$,Coffee & Tea,34.69757,-118.146025,ZH3cCpUkQ2BVbHbbut7kjw,,STARBUCKS COFFEE #50527,843 W LANCASTER BLVD,LANCASTER,,
423,DFS Duty Free,,14,2.5,$$,Duty-Free Shops,33.94195,-118.406847,Rz09mkiTT6ksVzYaBWwT7w,,DUTY FREE - BUS GATE,380 WORLD WAY,LOS ANGELES,,
424,Yung Ho Cafe,,295,3,$,"Taiwanese, Chinese, Breakfast & Brunch",34.081429,-118.084785,zO8V4fi49QQMn4Sa_0OS9g,,YUNG HO CAFE,1045 E VALLEY BLVD # A105,SAN GABRIEL,,
425,La Praviana,,66,3.5,$,Latin American,33.9633705,-118.2251893,ilARrKiTQeYO6oxk3zWAGw,,LA PRAVIANA,8225 LONG BEACH BLVD # A,SOUTH GATE,,
426,Paddy O'Brien's Irish Pub,,13,4,$$$$,"Irish Pub, Dive Bars, Sports Bars",33.86854,-118.383,ZU6ry3gwn-AsAX0bsRI6tg,,PADDY O'BRIEN'S IRISH PUB,1517 W AVIATION BLVD,REDONDO BEACH,,
427,85°C Bakery Cafe,,478,3.5,$,"Bakeries, Coffee & Tea, Patisserie/Cake Shop",34.2343259,-118.5534151,rA6I-RPUpbkC5cWYiEy5bw,,85C BAKERY CAFE,9046 TAMPA AVE,NORTHRIDGE,,
428,Bobaland,,93,4,$,Bubble Tea,34.06955812,-117.9225744,c6eOctxlLgx-y9_PGN4x5g,,BOBALAND,244 S GLENDORA AVE,WEST COVINA,,
429,Toms Jr Burgers,,11,4,,Burgers,34.0104512,-118.292576,plNw3p6vi2Qf6dohaw6pyQ,,TOMS JR BURGERS,1030 W MARTIN LUTHER KING JR BLVD STE 108,LOS ANGELES,,
430,,,,,,,,,,,JOHN SERVICE STATION,105 E EL SEGUNDO BLVD,LOS ANGELES,,
431,Monsieur Marcel Seafood Market,,17,4.5,,Seafood Markets,34.0722795,-118.3602751,h1XCPF4_bCKusL47STJ7TA,,MONSIEUR MARCEL SEAFOOD MARKET,6333 W 3RD ST # 138,LOS ANGELES,,
432,Roca Fuerte,,6,4.5,,"Salvadoran, Mexican",34.20620905,-118.5355959,gTQrAUKgpIA8pekD_PsFRA,,ROCA FUERTE RESTAURANTE SALVADORENO,7448 RESEDA BLVD,RESEDA,,
433,Glendale Liquor,,12,3.5,$$,"Beer, Wine & Spirits",34.14285786,-118.2371951,hA36SmTTUNxIxeZFMmCmzw,,GLENDALE LIQUOR,1311 E COLORADO ST,GLENDALE,,
434,Oasis Restaurant & Bar,,30,5,,"American (New), Bars",34.18012,-118.439675,9F52FTDUGCQAdDxa5BS0CA,,OASIS BAR & RESTAURANT,6024 HAZELTINE AVE,VAN NUYS,,
435,Na Jia Cafe,,27,3,$$,"Chinese, Breakfast & Brunch",33.98711123,-117.9030127,z2JuudI_LZEVM0bHIaTtdw,,NAJA CAFE,18406 COLIMA RD UNIT B,ROWLAND HEIGHTS,,
436,Wahlburgers,,453,3.5,$$,"Burgers, American (Traditional)",34.092699,-118.3795194,GqTdN_kEsrTDzo9NtnzxHA,,WAHLBURGERS,8615 SUNSET BLVD,WEST HOLLYWOOD,,
437,Orangetheory Fitness - Glendora,,26,4,,"Trainers, Interval Training Gyms",34.127852,-117.8728549,tcs0i4QY_PzcHy8XVYn4SA,,OKE POKE GLENDORA,651 S GRAND AVE STE 102,GLENDORA,,
438,Tuscan Son,,347,4.5,$$,"Breakfast & Brunch, Sandwiches, Bakeries",34.05157,-118.43192,mmFT0RqB9PDv8z9TVv9qWA,,TUSCAN SON,10700 SANTA MONICA BLVD # 150,LOS ANGELES,,
439,Jamba Juice,,39,3.5,$$,Juice Bars & Smoothies,33.893549,-118.3522551,bVPECevkKyA1X5bvNhjvjQ,,JAMBA JUICE 1507,15126 HAWTHORNE BLVD,LAWNDALE,,
440,,,,,,,,,,,"GW SUPERMARKET OF ROWLAND HEIGHTS, INC. - MEAT/FISH",18475 COLIMA RD,ROWLAND HEIGHTS,,
441,Silk Road Garden,,33,4,$$,"Halal, Chinese",34.1141537,-117.766939,G7Ydc4KgxMFW07hcMAnU-A,,SILK ROAD GARDEN,1965 FOOTHILL BLVD,LA VERNE,,
442,Happy Lemon,,345,4,$,"Bubble Tea, Bakeries, Desserts",33.8894408,-118.3058063,C4Hu2I114cENxFumRG1dpA,,HAPPY LEMON,1630 W REDONDO BEACH BLVD # 16,GARDENA,,
443,Ay Caramba Helados y Cafe,,37,4.5,$,"Ice Cream & Frozen Yogurt, Cafes, Sandwiches",33.971968,-118.1881012,4DD4gNRaO2ShS0lJDtkEFA,,AY CARAMBA HELADOS Y CAFE,7017 ATLANTIC AVE,BELL,,
444,Saffron Mediterranean Grill,,179,4,$$,Mediterranean,34.15087,-118.4494,y34K07PKWr14pEg3MBNurQ,,SAFFRAN MEDITERRANEAN GRILL,14518 VENTURA BLVD,SHERMAN OAKS,,
445,,,,,,,,,,,THE LONDON HOTEL BAR,1020 N SAN VICENTE BLVD,WEST HOLLYWOOD,,
446,King Kong Roll N Teriyaki,,36,4.5,$$,"Sushi Bars, Ramen",34.06323,-118.29702,fCUFFyXQiKLX6g1hUVyvUw,,KING KONG ROLL N TERIYAKI,3450 W 6TH ST # 107,LOS ANGELES,,
447,Taqueria Las Virgenes,,111,4,$,Mexican,34.1448097,-118.6984406,IvDmzpi3AmpLbx90fck6cw,,TAQUERIA LAS VIRGENES,4807 LAS VIRGENES RD,CALABASAS,,
448,The Lincoln,,196,4,$$,"Wine Bars, Cocktail Bars, Beer Bar",33.9915657,-118.448349,IWwgdftEmr299qFv7m3Vdg,,THE LINCOLN,2536 LINCOLN,VENICE,,
449,,,,,,,,,,,JASONS WINE & SPIRITS,2901 W SUNSET BLVD,LOS ANGELES,,
450,La Michoacana Ice Cream Parlor - San Fernando,,120,3.5,$,"Ice Cream & Frozen Yogurt, Juice Bars & Smoothies",34.2846688,-118.4436811,ZZSxeXsq6BdxakNGbSJexA,,LA MICHOACANA PLUS ICE CREAM PARLOR,1230 SAN FERNANDO RD,SAN FERNANDO,,
451,Moorpark Chevron,,12,3.5,,Gas Stations,34.15003,-118.36993,iVmicHoCo-wZ2ehG6Yno8A,,N. HOLLYWOOD CHEVRON,10960 MOORPARK ST,NORTH HOLLYWOOD,,
452,Stand Up Tacos,,86,3,$,Tacos,34.070709,-117.922849,5I66_JK8IV6WiWWdbvUlIA,,STAND UP TACOS #3,1240 LAKES DR STE C,WEST COVINA,,
453,LaRocco's Pizzeria,,668,4,$,Pizza,34.024858,-118.394843,ZlyyQdj_pfQLKRzT19zKKg,,LA ROCCO'S PIZZERIA,3819 MAIN ST,CULVER CITY,,
454,Brian's Shave Ice & Boba,,377,4.5,$,"Shaved Ice, Bubble Tea",34.17217793,-118.5595107,plQMomWRDF08TWz3Cdeb6w,,BRIAN'S SHAVE ICE & BOBA,19572 VENTURA BLVD,TARZANA,,
455,La Michoacana Ice Cream Parlor,,52,3,$$,Ice Cream & Frozen Yogurt,34.24663597,-118.4466874,yA-CR6kf1Ps1abGJUDSeAg,,MEXUSA LA MICHOACANA ICE CREAM PARLOR,9700 WOODMAN AVE # A16,ARLETA,,
456,The Living Room,,52,4,$,"Jazz & Blues, Dive Bars",34.0315401,-118.3349851,21axDSHwRAufV_ZeLB11iw,,THE LIVING ROOM,2636 CRENSHAW BLVD,LOS ANGELES,,
457,Southland Bar,,307,4,$$,"Sports Bars, Cocktail Bars",33.80726,-118.32767,QoEHhlUWK0wjNEoh8ElyCQ,,SOUTHLAND BAR,23900 CRENSHAW BLVD,TORRANCE,,
458,Starbucks,,72,2.5,$,Coffee & Tea,33.97752,-118.36993,xHTxxqm7XqWYx1dMqDEKmA,,STARBUCKS 49425,1740 CENTINELA AVE,INGLEWOOD,,
459,T4 Tea For U,,491,3.5,$,"Bubble Tea, Juice Bars & Smoothies, Cafes",34.094749,-118.1271033,GIFL1ylzLUbcEoNQuIXVLQ,,T4 TEA FOR U,16 W MAIN ST,ALHAMBRA,,
460,Siry's Pizza,,55,4,$,"Pizza, Chicken Wings, Barbeque",33.9569089,-118.2058406,12_bCH3pXUDO5GIUZ6ccHg,,SIRY'S PIZZA GRILLS & COFFEE,8611 CALIFORNIA AVE STE F,SOUTH GATE,,
461,V K Food Products,,156,4.5,$,"Delis, Desserts, Vietnamese",34.0808336,-118.0692632,4nPlOYzQd46sa6muXY7bUg,,V K FOOD PRODUCTS,9210 VALLEY BLVD,ROSEMEAD,,
462,Five Guys,,45,3,$$,"Fast Food, Burgers",34.14609643,-118.2562054,it3vMSFSMP9ozaZzNN7Vsg,,FIVE GUYS BURGERS & FRIES,1137 GLENDALE GALLERIA WAY # FC11,GLENDALE,,
463,Sup Noodle Bar,,1788,4.5,$$,"Vietnamese, Asian Fusion, Noodles",33.857314,-118.092906,vtfPomIfhDCva6QXwiyPCg,,SUP NOODLE BAR CERRITOS,11314 SOUTH ST,CERRITOS,,
464,BAJA Cali Fish & Tacos,,500,4,$,"Tacos, Seafood",34.0956575,-118.1261967,cPyPILLizks84Sjtbn5OjQ,,BAJA CALI FISH & TACOS - ALHAMBRA MAIN,31 E MAIN ST,ALHAMBRA,,
465,,,,,,,,,,,IMPERIAL STATIONS INC #7,105 E ARROW HWY,SAN DIMAS,,
466,B & K Liquor Market,,1,4,,"Beer, Wine & Spirits",33.96633,-118.11632,04wkn-EOeWoMAbPLkPNWFw,,ASL LIQUOR AND MARKET,8500 PARAMOUNT BLVD,DOWNEY,,
467,,,,,,,,,,,PINKBERRY WESTFIELD CULVER CITY,6000 SEPULVEDA BLVD STE K136,CULVER CITY,,
468,Aeirloom Bakery,,659,4,$$,"American (New), Coffee & Tea, Breakfast & Brunch",34.151974,-118.360705,RFgdMwiv_5jtwN--B7Vg2Q,,AEIRLOOM-CATCHER,10550 RIVERSIDE DR,NORTH HOLLYWOOD,,
469,Threes Kitchen Restaurant,,152,4.5,,Cantonese,34.08071,-117.98239,G6mn1C1kj4wsOST1cMJcBg,,GUANG HUA RESTAURANT,13334 RAMONA BLVD STE K,BALDWIN PARK,,
470,Brother's Burritos,,50,4.5,$,Mexican,33.87593999,-118.4060488,V4DVKp8jdT5dVCjJ8ZpJ9g,,BROTHERS BURRITOS,3216 MANHATTAN AVE STE B,HERMOSA BEACH,,
471,,,,,,,,,,,TINDER'S PIZZA,235 N MACLAY AVE,LOS ANGELES,,
472,,,,,,,,,,,SUNNY LAUNDRY AND MARKET,7731 EASTERN AVE,LOS ANGELES,,
473,Dollar Hits,,339,4,$,Filipino,34.07145,-118.27267,pxg3VJKR9sA7cJqgXFTrSw,,DOLLAR HITS TEMPLE,2432 W TEMPLE ST,LOS ANGELES,,
474,Waypoint Kitchen,,10,3,,American (New),33.9461299,-118.39268,L-E-XwfvActSa18EzwI7rQ,,WAYPOINT KITCHEN - LEVEL 2,6151 W CENTURY BLVD,LOS ANGELES,,
475,Big Mama's & Papa's Pizzeria,,248,3,$$,"Pizza, Sandwiches, Salad",34.13877,-118.21328,Icy6m2v2vfM3CbKqbsg_Qw,,MAMA'S PIZZA,2136 COLORADO BLVD UNIT B,LOS ANGELES,,
476,Salata,,158,3.5,$$,"Salad, Soup, Wraps",34.1567946,-118.437451,kT5-m9nZLEGkcbyOpIIF7Q,,SALATA,14006 RIVERSIDE DR # 249,SHERMAN OAKS,,
477,Tacos Gavilan,,184,3,$,Mexican,34.07113892,-117.9082336,00N-e8W_68gwYtDopqdOqw,,TACOS EL GAVILAN,101 S AZUSA AVE,WEST COVINA,,
478,Chipotle Mexican Grill,,76,2,$,"Mexican, Fast Food",34.259422,-118.466595,4RhYP9M5BxmHs515brpvOw,,CHIPOTLE MEXICAN GRILL #2711,10310 SEPULVEDA BLVD,MISSION HILLS,,
479,Sharetea,,360,4,$,"Bubble Tea, Coffee & Tea, Juice Bars & Smoothies",34.13004,-118.02898,7jeto3qjTiijp5YcQsi2dA,,SHARETEA,55 E DUARTE RD,ARCADIA,,
480,Rincon Poblano Angelita,,18,4,$,"Mexican, Seafood, Sandwiches",34.01912,-118.14967,PupjLV4PN5ZvYq-X-DEPbg,,RINCON POBLANO #1,5615 WHITTIER BLVD,COMMERCE,,
481,King Charcoal BBQ,,34,3.5,,"Chinese, Barbeque, Asian Fusion",34.0606148,-118.1226751,86wMUqpo_Z_0VhmtImMd6A,,KING CHARCOAL BBQ,220 S GARFIELD AVE,MONTEREY PARK,,
482,,,,,,,,,,,FAMILY DOLLAR #11527,7300 S WESTERN AVE,LOS ANGELES,,
483,,,,,,,,,,,GOLDEN SUNSHINE HOUSE,500 N ATLANTIC BLVD STE 171,MONTEREY PARK,,
484,Wendy's,,83,2,$,"Fast Food, Burgers",34.201409,-118.553926,94vIlUlv9XnfG1gAAAi6fw,,WENDY'S #9847,19317 SHERMAN WAY,RESEDA,,
485,Little Highness Bao,,32,3.5,$$,Dim Sum,34.06729,-118.40467,7X7bKDq19jY1WwTZpZgN4w,,LITTLE HIGHNESS BAO,9667 1/2 WILSHIRE BLVD,BEVERLY HILLS,,
486,American Airlines Flagship Lounge,,111,3.5,$$,Airport Lounges,33.94153634,-118.406951,jLrrI4z6EHVqU0P0ujH6CQ,,FLAGSHIP LOUNGE WINE BAR,400 WORLD WAY,LOS ANGELES,,
487,,,,,,,,,,,GENESIS MARKET,3807 E CESAR E CHAVEZ AVE,LOS ANGELES,,
488,Domino's Pizza,,50,2,$,"Chicken Wings, Pizza, Sandwiches",34.172406,-118.405677,lO7JhenZxAp2RRnJhLiRNg,,DOMINO'S PIZZA #7897,12501 BURBANK BLVD # 6,VALLEY VILLAGE,,
489,,,,,,,,,,,CHEF BOX,434 FAIR OAKS AVE,SOUTH PASADENA,,
490,Cactus Mexican Cuisine,,108,3,$$,Mexican,34.0951464,-118.3263447,nIxiVHBdelc3_TN-5vEbrw,,CACTUS MEXICAN CUISINE,1320 VINE ST,LOS ANGELES,,
491,Jack Donuts,,8,4,$,"Coffee & Tea, Donuts, Ice Cream & Frozen Yogurt",33.7907962,-118.2676691,Ogz3Q_y-kshfb2zxEtjKEw,,JACKS DONUTS,410 W PACIFIC COAST HWY # 1,WILMINGTON,,
492,Lupita's Express,,21,4,,"Seafood, Mexican, Shaved Ice",33.96635572,-118.1163895,Z3xCmMKOyLYdWXUcfCNg5g,,LUPITAS EXPRESS,8530 PARAMOUNT BLVD,DOWNEY,,
493,,,,,,,,,,,THE FOOD SHOP,1015 S CROCKER ST # S02,LOS ANGELES,,
494,,,,,,,,,,,MARISCOS  LAS QUICE LETROS,7344 VAN NUYS BLVD,VAN NUYS,,
495,Trimana Grill,,47,2.5,$$,"Breakfast & Brunch, American (Traditional)",33.929719,-118.396679,pRenpG_0e0Ql7OCdqJ4HnQ,,TRIMANA GRILL,909 N PACIFIC COAST HWY STE 155,EL SEGUNDO,,
496,Rainbow Coffee,,143,4.5,$,"Coffee & Tea, Breakfast & Brunch, Sandwiches",34.128046,-118.055096,Ac0HLdDNoA5Swhnf_BUNHw,,RAINBOW RECIPES,1021 1/2 S BALDWIN AVE,ARCADIA,,
497,Tan-Cha,,381,4,$$,"Bubble Tea, Juice Bars & Smoothies, Coffee & Tea",34.06373348,-118.295803,_-lXkoRUJJLyUgIdtzFj1w,,TAN-CHA,3407 W 6TH ST UNIT 101B,LOS ANGELES,,
498,,,,,,,,,,,MOBIL LAKEWOOD #15,5500 E SOUTH ST,LAKEWOOD,,
499,The NoMad Restaurant,,351,4,$$$$,"American (New), Cocktail Bars, Tapas/Small Plates",34.04697,-118.25557,77OCLqNangVVY-GHXAE7ng,,NOMAD HOTEL - COFFEE RESTAURANT,649 S OLIVE ST,LOS ANGELES,,
500,Mi Pueblo Restaurant y Pupuseria,,14,4.5,$,"Mexican, Breakfast & Brunch, Salvadoran",33.974984,-118.250638,cNsX6Tn4nWTqV2l0QpuUTw,,MI PUEBLO RESTAURANT,1341 E FLORENCE AVE,LOS ANGELES,,
501,Panda Express,,28,2.5,$$,"Chinese, Fast Food",33.9451098,-118.4057203,HZweBXpby_pmwbnWpAnSOA,,PANDA EXPRESS ASHLAND HILL,300 WORLD WAY # 329,LOS ANGELES,,
502,Lisa's Café & Bakery,,83,3,$$$,"Cafes, Bakeries, Breakfast & Brunch",33.794171,-118.335795,JFwY1CcTYtVTusIOIY4kZw,,LISA'S BON APPETIT,2809 PACIFIC COAST HWY,TORRANCE,,
503,Pollo Campero,,98,2.5,$,Latin American,34.2339109,-118.4673181,OFk33Px2VHZp-I3Z_PPQUg,,POLLO CAMPERO,9000 SEPULVEDA BLVD,NORTH HILLS,,
504,Afters Ice Cream,,87,4,$$,Ice Cream & Frozen Yogurt,34.10982083,-118.1927129,UwQv0U2cHSAmKBeAbWbFxw,,AFTERS ICE CREAM,5711 N FIGUEROA ST,LOS ANGELES,,
505,Mr. Wish,,142,4,$,"Bubble Tea, Juice Bars & Smoothies",34.07975,-118.08489,fkmFbyDCzj83zSIh3Rp_cw,,MR. WISH TEA SHOP,8450 VALLEY BLVD # 107,ROSEMEAD,,
506,Pizza Man & El Pollon Express,,55,3.5,$,"Pizza, Peruvian, Salad",33.91764,-118.14052,QT99f2ifmceVFgkbZ9vtrQ,,PIZZA MAN & EL  POLLON EXPRESS,8720 IMPERIAL HWY,DOWNEY,,
507,,,,,,,,,,,CHEN CHEN EXPRESS,5022 MELROSE AVE,LOS ANGELES,,
508,Dickey's Barbecue Pit,,241,3,$$,"Barbeque, American (Traditional), Chicken Wings",33.873332,-118.306459,FhrDZwBgT7-JMq7kDZ-9MA,,DICKEY'S BARBECUE PIT,1697 W ARTESIA BLVD,GARDENA,,
509,Poke Home,,334,4,$$,"Poke, Acai Bowls, Wraps",34.1868149,-118.4161325,nffvoO9E8IPiXHqw4ieebQ,,POKE HOME,13011 VICTORY BLVD,NORTH HOLLYWOOD,,
510,Joe's Crab Shack,,743,2.5,$$,"Seafood, American (Traditional)",33.84429,-118.395706,UqY_WHJEQOed-66Xg8EBZA,,JOE'S CRAB SHACK,230 PORTIFINO WAY,REDONDO BEACH,,
511,,,,,,,,,,,MARLENE'S DISCOUNT STORE,4912 S HOOPER AVE,LOS ANGELES,,
512,Michoacana,,1,5,,"Ice Cream & Frozen Yogurt, Desserts, Creperies",34.021209,-118.16204,MKUhOgruaTVr3OlyEoNiDQ,,LA MICHOACANA PEDIR DE BOCA,4972 WHITTIER BLVD,LOS ANGELES,,
513,Dots Cafe,,337,4,$$,"Cafes, Bakeries, Sandwiches",34.1466932,-118.0701618,0hkctqGnPIcHN2_fleCheg,,DOTS CAFE,3819 E COLORADO BLVD,PASADENA,,
514,Mi Tea,,100,3.5,$,Coffee & Tea,34.0799091,-118.098795,CAdGhMY9lNGhB11sdC83NA,,MI TEA,123 E VALLEY BLVD,SAN GABRIEL,,
515,Brian's Shave Ice & Boba,,403,4,$,"Shaved Ice, Bubble Tea, Ice Cream & Frozen Yogurt",34.15112605,-118.446967,a13oHHez-LBWoRQ0TnrXGg,,BRIAN'S SHAVE ICE & BOBA,14425 1/2 VENTURA BLVD,SHERMAN OAKS,,
516,,,,,,,,,,,EL BIEJON TACOS,1076 W PHILLIPS BLVD,POMONA,,
517,Ubatuba Acai - Northridge,,351,3.5,$,"Brazilian, Juice Bars & Smoothies, Acai Bowls",34.246511,-118.537032,XC4NniT721tFrn1mCIzzcQ,,UBATUBA ACAI,9667 RESEDA BLVD,NORTHRIDGE,,
518,Yogurt & More,,46,4,$,"Ice Cream & Frozen Yogurt, Bubble Tea, Juice Bars & Smoothies",34.1623435,-118.0529667,R8WIBMu6HLwpdUarNTRNYg,,YOGURT AND MORE,7 KERSTING CT,SIERRA MADRE,,
519,,,,,,,,,,,AUTLAN MARKET,1337 E FLORENCE AVE,LOS ANGELES,,
520,Xhea,,36,5,$$,Mediterranean,34.13041,-118.35062,IJ45b4liz3mB9iNpzmpJRw,,XHEA,3315 CAHUENGA BLVD W,LOS ANGELES,,
521,Delicious Chengdu,,27,4,,"Noodles, Hot Pot, Szechuan",34.10734,-118.05824,aDjuEXDn0zTBtnXajSb9yA,,CHENGDU YAO DIAN ZI,9679 LAS TUNAS DR,TEMPLE CITY,,
522,Target,,529,3.5,$$,"Department Stores, Furniture Stores, Electronics",34.090343,-118.344638,SgfTzLZMawnGsb7RnupLlw,,TARGET #1884 - STARBUCKS,7100 SANTA MONICA BLVD,WEST HOLLYWOOD,,
523,Radici,,178,4.5,$$$,Italian,33.86034755,-118.399182,GTqICExP3Cv3BY0NaSTBhA,,RADICI,934 HERMOSA AVE # 7,HERMOSA BEACH,,
524,,,,,,,,,,,LOPEZ MEAT & GROCERY,1523 W ROSECRANS AVE,HAWTHORNE,,
525,Flowerboy Project,,108,4,$,"Cafes, Florists",33.99922,-118.46291,fMv_najQZnX7vk1A8wJUhg,,FLOWER BOY PROJECT,824 LINCOLN BLVD # C,VENICE,,
526,White Prawn,,55,3.5,$$,"Hot Pot, Seafood, Chinese",34.07815,-118.12405,DpjlbDv-9r9tr75X44szlA,,WHITE PRAWN,46 W VALLEY BLVD,ALHAMBRA,,
527,Bollywood Bites Indian Restaurant - Sherman Oaks,,102,4,$$,Indian,34.147135,-118.424299,mMRSKrB0ParHA-eHimDx2Q,,BOLLYWOOD BITES,13355 VENTURA BLVD,SHERMAN OAKS,,
528,Janet's Mediterranean Cuisine,,510,4,$$,"Mediterranean, Lebanese, Halal",34.13913168,-117.975403,CVgEnI_jUNt66Ajo2x1Dcg,,JANET'S MEDITERRANEAN CUISINE,1402 E HUNTINGTON DR,DUARTE,,
529,Bangkok Street Food,,147,4,$,Thai,34.10195009,-118.3059321,j8BwB_iNmmI9JPnR4DWWpw,,BANGKOK STREET FOOD,5269 HOLLYWOOD BLVD,LOS ANGELES,,
530,The Dolly Llama,,473,4,$,"Desserts, Waffles, Ice Cream & Frozen Yogurt",34.045819,-118.251491,P-BxXRT5V6D7YtggfsMgYw,,THE DOLLY LLAMA,611 SPRING ST,LOS ANGELES,,
531,The Pie Bar,,41,4,$$,"Desserts, Coffee & Tea",34.1464024,-118.2541217,spA-0tGZ63-cqpA6pnECRw,,THE PIE BAR,109 E BROADWAY,GLENDALE,,
532,Ralphs,,79,3,$$,Grocery,34.170254,-118.570297,BU7VLjmV59-4i84ouiz16g,,RALPHS MARKET # 70 - STARBUCKS,20060 VENTURA BLVD,WOODLAND HILLS,,
533,Alta California,,10,3.5,$,Tacos,34.70456537,-118.1478692,j1m9-yO3gZyQiLhaGN5F7g,,ALTA CALIFORNIA FONDA,45216 10TH ST W,LANCASTER,,
534,Jersey Mike's Subs,,39,3.5,,"Fast Food, Delis, Sandwiches",33.93963359,-118.0480747,Sj6r9OLBwUqTmn92y4KjiQ,,JERSEY MIKE'S SUBS,13352 TELEGRAPH RD,SANTA FE SPRINGS,,
535,Canela Bakery,,59,4,$,Bakeries,34.02105031,-118.1260562,t-h387lzAcCiJv4KV8Q5Yw,,CANELA BAKERY,2401 W BEVERLY BLVD,MONTEBELLO,,
536,S & L Dried Foods Wholesale,,1,5,$$$,"Grocery, Specialty Food",34.0810178,-118.0751852,E5Jg8d_s-mnjjEBXS0zn5A,,S & L DRIED SEAFOOD,8901 VALLEY BLVD,ROSEMEAD,,
537,The Halal Guys,,629,4,$,"Halal, Middle Eastern, Mediterranean",33.990488,-117.9265231,OhodheO-M8BA-4CM61wM9Q,,THE HALAL GUYS #109,17416 COLIMA RD,ROWLAND HEIGHTS,,
538,Bert & Rocky's Cream Company,,405,4,$,"Candy Stores, Ice Cream & Frozen Yogurt",34.09605388,-117.7178257,YygmkZJ5IVbsO6mRkA2jWg,,BERT & ROCKY'S CREAM CO.,242 YALE AVE,CLAREMONT,,
539,Rincon Criollo Peruvian Grill,,85,4.5,$$,Peruvian,34.208616,-118.519168,I60KMv1XqPyQWC_K87yjqw,,EL RINCON DE GIOVANNITA PERUVIAN GRILL,7605 WHITE OAK AVE,RESEDA,,
540,Point Five Espresso Bar,,47,4.5,$$,"Coffee & Tea, Breakfast & Brunch, Juice Bars & Smoothies",34.08392905,-118.3633293,1_iOkWgj62J4UKDAv1kxMg,,POINT FIVE,7965 1/2 MELROSE AVE,LOS ANGELES,,
541,Yoshinoya,,69,2.5,$,Japanese,34.23804547,-118.5888616,BB0MMlGKfjrJsljb9g-_PA,,YOSHINOYA #1261,9157 DE SOTO AVE,CHATSWORTH,,
542,,,,,,,,,,,HAPPY LIQUOR,2321 W BEVERLY BLVD,MONTEBELLO,,
543,Pasta Sisters - Culver City,,1329,4,$$,"Italian, Wine Bars",34.030029,-118.383983,AGyxcozRYuFPpRD-nBRu0Q,,PASTA SISTERS,3280 HELMS AVE,CULVER CITY,,
544,La Patrona,,33,3.5,$,Mexican,34.04516,-117.92622,sVQmOwdNtGKA5IYD5aMJ5A,,LA PATRONA TAQUERIA,1447 VALINDA AVE,LA PUENTE,,
545,,,,,,,,,,,SUPER UNO MEAT MRK & 99 CENTS,4375 S VAN NESS AVE,LOS ANGELES,,
546,,,,,,,,,,,GODWINS COFFEE/SNACK SHOP,12720 NORWALK BLVD,NORWALK,,
547,Raffi's Market and Grocery,,114,4,$$,Grocery,34.181729,-118.303764,9u17iaseSdvdY07uK3zAng,,RAFFIS MARKET AND GROCERY,324 S GLENOAKS BLVD,BURBANK,,
548,BB's American Grill,,19,4,$$,American (Traditional),34.169306,-118.396121,2T3WN3ZKC2cr8HircXxpTQ,,BB'S SMOKIN HOT AMERICAN GRILL,5424 LAUREL CANYON BLVD # B,NORTH HOLLYWOOD,,
549,Cafe' Byblos Lebanese Grill,,5,5,,"Lebanese, Mediterranean",34.16995689,-118.5395503,Os44ECpjs4j1l0iscXtH4w,,CAFE BYBLOS LEBANESE GRILL,18612 VENTURA BLVD,TARZANA,,
550,,,,,,,,,,,FERDOS INC,2820 E ALONDRA BLVD,COMPTON,,
551,Raw Junkies,,143,5,$$,"Vegan, Juice Bars & Smoothies, Soup",34.14498314,-118.4146592,d1sV7UqegaSp-nY8aCQ71Q,,RAW JUNKIES,12930 VENTURA BLVD # 114,STUDIO CITY,,
552,,,,,,,,,,,"CAMPUS FOOD SERVICES, INC",3600 WORKMAN MILL RD,WHITTIER,,
553,Vons,,59,3,$$,"Grocery, Pharmacy",34.3911257,-118.5722962,V5obEBESYib-Jzqhlwnftw,,ACE SUSHI - VONS,25850 THE OLD RD,VALENCIA,,
554,,,,,,,,,,,KBHC - COFFEE KIOSK,3782 MARTIN LUTHER KING BLVD,LOS ANGELES,,
555,La Colombe Coffee Roaster,,153,4,$,"Cafes, Coffee Roasteries, Coffee & Tea",34.09158442,-118.2798597,B5UgrCUNqREq5-0fidGb4A,,LA COLOMBE,3900 W SUNSET BLVD,LOS ANGELES,,
556,New Stand,,5,3.5,,"Convenience Stores, Books, Mags, Music & Video",33.944829,-118.398246,6p5G_2hzaqbyyJw4OFT9lg,,THE NEW STAND #168,100 WORLD WAY # 168,LOS ANGELES,,
557,Sanuki no Sato,,818,4,$$,"Noodles, Izakaya, Hot Pot",33.8651475,-118.3089739,rZkh4NoRLYML_VLFMzgA1g,,SANUKI NO SATO,18206 S WESTERN AVE,GARDENA,,
558,,,,,,,,,,,MOUNTAIN HIGH RESORT - ANGELES CREST CAFE,24512 STATE HIGHWAY 2,WRIGHTWOOD,,
559,Kobe Ramen & Musubi,,51,3.5,$$,Ramen,33.9872701,-117.8829089,-5DVeQsSyBxY4bNUNi_VFA,,KOBE RAMEN,19255 COLIMA RD,ROWLAND HEIGHTS,,
560,Maru Maki Express,,8,4,,"Japanese, Korean, Noodles",34.131628,-118.065719,WAfZ5GYzPXazHSCPsGx6mg,,MARU MAKI EXPRESS,1101 HUNTINGTON DR # 6,ARCADIA,,
561,Les P'Tits Bretons,,61,4.5,$$,"French, Wine Bars, Breakfast & Brunch",33.891815,-118.4137551,2vaiqb04viW_tkWoOFFZbA,,LES P'TITS BRETONS,2201 HIGHLAND AVE,MANHATTAN BEACH,,
562,Dunkin',,90,2.5,$,"Donuts, Coffee & Tea",34.42613222,-118.5389506,xpyVAgqwJWGDKfNZbgg2Yg,,DUNKIN' DONUTS,26441 BOUQUET CANYON RD,SANTA CLARITA,,
563,The Watts Senior Citizen Center,,1,5,,"Recreation Centers, Parks",33.9458847,-118.2440033,yR-RQdseL4yjWahSKDgybg,,WATTS SENIOR CITIZENS CENTER,1657 E CENTURY BLVD,LOS ANGELES,,
564,Wendy's,,211,3,$,"Fast Food, Burgers",34.19057918,-118.3277892,mkmChLg4j4opB-YJfeq2xg,,WENDY'S #88240,1575 N VICTORY PL,BURBANK,,
565,,,,,,,,,,,WING HIP FUNG HERBAL,131 S SAN GABRIEL BLVD,SAN GABRIEL,,
566,Carl's Jr,,27,3,$$,"Fast Food, Burgers",33.9421286,-118.0516456,AmL-TieZ2XjBhtlJETi_VQ,,CARLS JR #108,13157 TELEGRAPH RD,SANTA FE SPRINGS,,
567,Los Amigos Mexican Grill and Cantina,,85,3.5,$$,"Mexican, Cocktail Bars",34.09415,-118.12817,mNP5fBdiLEQr6fLTULeNOQ,,LOS AMIGOS,118 W MAIN ST,ALHAMBRA,,
568,Tacos Michoacan,,10,4.5,,Mexican,34.2285149,-118.48539,L1JyYTMAilHLniocu0o7-g,,TACOS MICHOACAN,16205 PARTHENIA ST,SEPULVEDA,,
569,Bay Garden Cafe,,108,3.5,$$,"Chinese, Breakfast & Brunch, Seafood",34.10682,-118.06203,sLnR_tscU4AxjGkJVTPe_g,,BAY GARDEN CAFE,9549 LAS TUNAS DR,TEMPLE CITY,,
570,Four Seasons Buffet,,345,3.5,$$,"Buffets, Seafood, Sushi Bars",33.859604,-118.0898626,wYu_KjZULCumhRG3aXZjQw,,FOUR SEASONS BUFFET,11471 SOUTH ST,CERRITOS,,
571,,,,,,,,,,,HARP'S LIQUOR,6917 LANKERSHIM BLVD,NORTH HOLLYWOOD,,
572,,,,,,,,,,,EL MONTOSO MINI MARKET,4050 S CENTRAL AVE,LOS ANGELES,,
573,La Catedral Restaurant,,36,4.5,$$,"Mexican, Sushi Bars, Seafood",33.90487,-118.16053,8D-prm6e4TJUF_iJGvu5Xw,,LA CATEDRAL RESTAURANT,14121 PARAMOUNT BLVD,PARAMOUNT,,
574,,,,,,,,,,,THE MARKET,14419 FIRESTONE BLVD,LA MIRADA,,
575,,,,,,,,,,,HANNA MATZIP,1600 W SLAUSON AVE # A18,LOS ANGELES,,
576,Crazy Falafel,,269,4,$,Falafel,34.25779,-118.49932,74GW6Mc-QEg4o9s3iDZxRw,,CRAZY FALAFEL,16835 DEVONSHIRE ST,GRANADA HILLS,,
577,Lasang Pinas,,44,4.5,,"Filipino, Asian Fusion",34.2323351,-118.5886809,WqtofDi0-Or5qVLfOzivBQ,,LASANG PINAS,8911 DE SOTO AVE,CANOGA PARK,,
578,Rinjani,,105,4,$$,"Indonesian, Asian Fusion",34.1466,-118.2542,sSQXlQLCg7ht7MA0BX0DwA,,RINJANI,107 E BROADWAY,GLENDALE,,
579,The Buffalo Spot,,107,3,$$,"Chicken Wings, Salad, Wraps",33.94885143,-118.1632085,PsZxmUVJx1XBuq1EvBNwmA,,THE BUFFALO SPOT,5840 FIRESTONE BLVD # 104,SOUTH GATE,,
580,Mr. Pizza,,158,4.5,$,"Pizza, Italian",34.18697,-118.45707,pyNEroQzLqVn9L15x_lGPA,,MR PIZZA,14851 VICTORY BLVD # H,VAN NUYS,,
581,Golden Liquor Store,,2,2.5,,"Beer, Wine & Spirits",33.8814751,-118.2906159,eVbI6kIcpZhk5k2yRltBWg,,SPARKLE'S LIQUOR,840 W GARDENA BLVD,GARDENA,,
582,,,,,,,,,,,KING 98 STORE & UP,11744 166TH ST,ARTESIA,,
583,Hi Tea,,126,3,$,"Coffee & Tea, Bubble Tea",34.06410804,-118.134459,8Qo4jh5Odx5Bs6QPaVnm0w,,HI TEA,141 N ATLANTIC BLVD # 107,MONTEREY PARK,,
584,Andrews Cheese Shop,,13,5,$$$,Cheese Shops,33.88546,-118.41011,CAJdT6Mimp2qeLbFRsdQYQ,,ANDREWS CHEESE SHOP,1141 HIGHLAND AVE # 1B,MANHATTAN BEACH,,
585,La Monarca Bakery & Cafe,,38,4,,"Coffee & Tea, Bakeries, Desserts",34.09052,-118.30873,8cD_Ef_f-i4HWHWJT7FKzw,,LA MONARCA BAKERY,1096 N WESTERN AVE,LOS ANGELES,,
586,Flying Rice Asian Kitchen,,249,4.5,$,"Asian Fusion, Korean, American (New)",34.1173357,-117.7764463,v5704bwMAs6Tp5tUB3ASIA,,FLYING RICE,1453 FOOTHILL BLVD,LA VERNE,,
587,,,,,,,,,,,ATHENIAN GARDENS,2516 COLORADO BLVD,EAGLE ROCK,,
588,Pieology Pizzeria,,758,4,$,"Pizza, Vegan, Fast Food",34.0273357,-117.8366639,X9EHv5g0Z39xFWuvBq-c6A,,PIEOLOGY,505 N GRAND AVE # 3 E,WALNUT,,
589,7-Eleven,,8,1.5,$,"Convenience Stores, Coffee & Tea",34.1863474,-118.4462589,B6fao8O-_l_exmPdYMy38A,,7-ELEVEN STORE 35625B,14350 VICTORY BLVD STE 7,VAN NUYS,,
590,Sool O Bang,,7,4.5,$,Pubs,34.076444,-118.299869,WUObScMWilgD04vSiwbSkQ,,SOOL O BANG,4161 BEVERLY BLVD,LOS ANGELES,,
591,A Sweet Design,,449,4,$$,"Bakeries, Cupcakes",34.2652187,-118.521758,rBkF6JcGL5QysKsUc_pl6A,,A SWEET DESIGN,17801 CHATSWORTH ST,GRANADA HILLS,,
592,,,,,,,,,,,LIL SHORTY MEAT MARKET,5411 S CENTRAL AVE,LOS ANGELES,,
593,,,,,,,,,,,RODRIGUEZ MARKET,6014 S CENTRAL AVE,LOS ANGELES,,
594,Loaves & Fishes,,3,3.5,,Community Service/Non-Profit,34.21017822,-118.4523915,BvkCI9QLSVzgnCdAO43KOw,,LOAVES AND FISHES II,7309 VAN NUYS BLVD,VAN NUYS,,
595,Seoul Kitchen,,41,4,$,"Korean, Fast Food",33.97537,-117.83818,BjeiAZfYoEhUn1zJprX_WA,,SEOUL KITCHEN,2769 S DIAMOND BAR BLVD,DIAMOND BAR,,
596,Mason's Dumpling Shop,,501,4.5,$$,Dim Sum,34.11052711,-118.1918852,irqGVmV0FBkRQl5VlhTC5Q,,MASON'S DUMPLING SHOP,5801 N FIGUEROA ST,LOS ANGELES,,
597,Flavor of India,,147,4.5,$$,Indian,34.09752,-118.36359,NC5jKdkiE_B0KghBiVxiuQ,,FLAVOR OF INDIA,7950 SUNSET BLVD # 105,LOS ANGELES,,
598,Zero Degrees,,193,3.5,$$,"Bubble Tea, Coffee & Tea",33.9204532,-118.0728149,evcRFMeiyoRxo8gNYlhnJg,,ZERO DEGREES,12209 NORWALK BLVD,NORWALK,,
599,Brian's Shave Ice,,851,4.5,$,Shaved Ice,34.038782,-118.441937,IzehIGZdpgGSQ3MTQqVORQ,,BRIAN'S SHAVE ICE,11301 W OLYMPIC BLVD # 103,LOS ANGELES,,
600,Zury's Raspados,,87,3.5,$$,"Juice Bars & Smoothies, Shaved Ice, Ice Cream & Frozen Yogurt",33.917341,-118.089478,gZ7_22AiN55RRWdcItnbmQ,,ZURY'S RASPADOS,11405 E FIRESTONE BLVD,NORWALK,,
601,Hollywood Pizza Cafe,,105,4,$,"Pizza, Salad, Sandwiches",34.101921,-118.3326262,ppzYzTgmNq8gFkoSnkKCFg,,HOLLYWOOD PIZZA CAFE,6541 HOLLYWOOD BLVD STE 101,LOS ANGELES,,
602,,,,,,,,,,,K POT,17500 CASTLETON ST,INDUSTRY,,
603,La Monarca Bakery & Cafe,,50,4.5,$$,"Coffee & Tea, Bakeries, Caterers",34.04813838,-118.2104227,2udr2JK2NDYKQEbByuJVcw,,LA MONARCA BAKERY,2127 E CESAR E. CHAVEZ AVE,LOS ANGELES,,
604,Hola Teriyaki,,8,4,,"Japanese, Asian Fusion, Chinese",33.89607,-118.1772,lmN-FoUogXU37dZ8B0fAcA,,HOLA TERIYAKI,7010 S SOMERSET BLVD STE B,PARAMOUNT,,
605,Thai Canteen,,45,5,$,Thai,33.87251,-118.12462,qWovNGMqaYZEujTM8zc4xg,,THAI CANTEEN,17620 BELLFLOWER BLVD,BELLFLOWER,,
606,Circle K,,5,3,,"Convenience Stores, Coffee & Tea, Ice Cream & Frozen Yogurt",33.9265,-118.01143,GuyvASdW9Uucw9oSpiU2qQ,,CIRCLE K,15008 LEFFINGWELL RD,LA MIRADA,,
607,Casa de Market Liquor,,5,3,$$,"Beer, Wine & Spirits",33.88099528,-118.0722996,1BUqsfNw86KaffyndM6J4Q,,CASA DE LIQUOR & DELI,16432 NORWALK BLVD,CERRITOS,,
608,,,,,,,,,,,NEKTAR,300 WORLD WAY,LOS ANGELES,,
609,Papa John's Pizza,,85,2,$,Pizza,33.806455,-118.358847,dhAuV2YRFfEdPusWZGQ7nA,,PAPA JOHN'S PIZZA,4226 PACIFIC COAST HWY,TORRANCE,,
610,PFD Cafe at Torrance,,6,3,$,"Coffee & Tea, Breakfast & Brunch",33.83856,-118.34075,eo4veLGXLcGQo_LFwV7kwg,,PFD CAFE @ TORRANCE,825 MAPLE AVE,TORRANCE,,
611,,,,,,,,,,,HOME MART,9611 E GARVEY AVE STE 117,SOUTH EL MONTE,,
612,,,,,,,,,,,D. D. S. PLUS,24259 MAIN ST,NEWHALL,,
613,Red Iron,,36,2.5,$$,"Mongolian, Barbeque",34.13478343,-118.0513062,wZuvU6_of2dM9TaGU9xL-A,,RED IRON MONGOLIAN BBQ,400 S BALDWIN AVE # 801-L,ARCADIA,,
614,The Poke Haus,,110,4,$$,Poke,34.14827369,-118.4341214,H4fM_7dN3-8kiA1jJdOsmQ,,THE POKE HAUS,13826 VENTURA BLVD,SHERMAN OAKS,,
615,Maksen Cake House,,84,5,$$,"Desserts, Custom Cakes, Bakeries",34.14077758,-118.2575784,IIM4IwS-I6DRcMy3xBMsOg,,MAKSEN CAKE HOUSE,418 S CENTRAL AVE,GLENDALE,,
616,Dirty South Soulfood,,185,4,$$,"Southern, Soul Food, Buffets",33.9649,-118.22554,wFBv3M7WiaVhV7jyQw2_VQ,,DIRTY SOUL FOOD BUFFET,8101 LONG BEACH BLVD STE B,SOUTH GATE,,
617,Dunkin',,94,2.5,$,"Donuts, Coffee & Tea",34.2602634,-118.4671651,UlYpn1DkrLUt_451G6Mugw,,DUNKIN DONUTS,10432 SEPULVEDA BLVD,MISSION HILLS,,
618,Maru Coffee,,137,4.5,$$,Coffee & Tea,34.03095,-118.23035,itfQnbflpIktTAEqg3MdTA,,MARU COFFEE,1019 S SANTA FE AVE,LOS ANGELES,,
619,,,,,,,,,,,WESTERN LIQUOR,22300 NORWALK BLVD,HAWAIIAN GARDENS,,
620,Seiwa Market Japanese Grocery,,64,4,$$,International Grocery,33.82997987,-118.353016,H7MAnB6AH836mVfJvRce1w,,SEIWA MARKET---SUSHI,21815 HAWTHORNE BLVD,TORRANCE,,
621,Tres Ocegueda,,11,4.5,$,Mexican,33.7813912,-118.262722,zSxyFFuVYdblIl7GmD9eDg,,TRES OCEGUEDAS MEXICAN RESTAURANT,907 N AVALON BLVD,WILMINGTON,,
622,Rita's Italian Ice of Glendora,,126,4.5,$,"Desserts, Shaved Ice, Ice Cream & Frozen Yogurt",34.1289249,-117.8810099,krmqgQ2bB0ztJtt1cwsAcg,,RITAS ITALIAN ICE OF GLENDORA,865 W ROUTE 66 STE B,GLENDORA,,
623,,,,,,,,,,,DOWNEY GIRLS PONY TAIL LEAGU,12334 BELLFLOWER BLVD,DOWNEY,,
624,,,,,,,,,,,WENDY'S #98450,17648 W SHERMAN WAY,VAN NUYS,,
625,Sidebar Grill,,206,4,$,"Burgers, Mexican, Sports Bars",34.09306,-118.13206,yesK8QeGLP_VMjeAp3eINg,,SIDEBAR GRILL,433 W MAIN ST,ALHAMBRA,,
626,Starbucks,,108,3,$$,Coffee & Tea,33.89104,-118.300321,KnXatJUSDK0ZRwKzKCJQ0A,,STARBUCKS COFFEE 05644,1400 W REDONDO BEACH BLVD # 100,GARDENA,,
627,Haruchan,,149,4.5,$$,"Ramen, Cocktail Bars, Izakaya",33.998093,-118.478849,S1mxFEdyuLWylzAUn7_OYw,,HARUCHAN,3116 2ND ST,SANTA MONICA,,
628,,,,,,,,,,,LOUIS BURGER #4,1311 W CARSON ST,TORRANCE,,
629,Chill Rollz,,251,4.5,$$,Ice Cream & Frozen Yogurt,34.1660839,-118.3755299,rf0OMzfsr_bnvNQcJICfrg,,CHILL ROLLZ,5245 LANKERSHIM BLVD,NORTH HOLLYWOOD,,
630,,,,,,,,,,,LES PRODUCE MARKET,1529 E FLORENCE AVE,LOS ANGELES,,
631,SF Supermarket,,56,2.5,$,"Grocery, Seafood Markets",33.98911586,-117.9021135,#NAME?,,"GW SUPERMARKET OF ROWLAND HEIGHTS, INC.",18475 COLIMA RD,ROWLAND HEIGHTS,,
632,Pinkfish Poke,,192,4,$$,"Sushi Bars, Poke, Hawaiian",34.60029463,-118.1430299,s2MxziFJAOwTeDfrh9XDog,,PINKFISH POKE,39438 TRADE CENTER DR STE B,PALMDALE,,
633,Lancaster Deli & Liquor,,1,5,,"Delis, Beer, Wine & Spirits, Convenience Stores",34.64988708,-118.1470871,DRCbd_kq6F9dIYp23OYESg,,LANCASTER DELI & LIQUOR,42212 10TH ST W # 10B,LANCASTER,,
634,Wendy's,,59,3,$,"Burgers, Fast Food",34.219175,-118.588006,RDKlxlzmZD0-poznaQVw_w,,WENDY'S #88220,8232 DE SOTO AVE,CANOGA PARK,,
635,Pizza Express,,8,4,,Pizza,33.8859733,-118.2058182,ZnfgrcPftc0bGFO-Ll96Mg,,PIZZA EXPRESS,1110 S LONG BEACH BLVD # 3,COMPTON,,
636,Pacific Kosher Restaurant,,85,4,$$,"Pizza, Breakfast & Brunch, Kosher",34.172365,-118.4060115,E4scgBCzoXBTplO5_wKtRA,,RAPHY'S GLATT KOSHER RESTAURANT,12519 BURBANK BLVD,VALLEY VILLAGE,,
637,,,,,,,,,,,VILLAS RESTAURANT,2635 E 4TH ST,LOS ANGELES,,
638,WKNDR,,141,4,$$,"Coffee & Tea, Breakfast & Brunch, Bubble Tea",34.1042113,-118.2916451,uhpP1GbX3ukkc1A0ktvkfg,,WKNDR,1820 N VERMONT AVE,LOS ANGELES,,
639,Guacamaya Oasis,,605,4,$$,"Mexican, Juice Bars & Smoothies, Breakfast & Brunch",33.917002,-118.1389847,7MBrleDcA4dPzVJ-xWcORw,,GUACAMAYA OASIS,8826 IMPERIAL HWY,DOWNEY,,
640,,,,,,,,,,,FUDU CHINESE GRILL CUISINE,4436 S LONG BEACH AVE,LOS ANGELES,,
641,Vegan House Thai Bistro,,143,4,$$,"Thai, Burgers, Chicken Wings",34.097201,-118.338896,rCKofKs75NQSYfuDip2urA,,VEGAN HOUSE THAI BISTRO,1435 N HIGHLAND AVE,LOS ANGELES,,
642,Fishery LA,,28,4,$$,"Seafood Markets, Seafood, Sandwiches",34.0775,-118.36177,JudXXKsczzvz5cBIb4RXrw,,FAIRFAX FISHERY AKA FISHERY LA,345 N FAIRFAX AVE,LOS ANGELES,,
643,Tosai Sushi,,34,3.5,,Sushi Bars,34.0599599,-118.41982,q-rG4pz5Dtn2X_VuUriZIA,,TOSAI,10250 SANTA MONICA BLVD # FC2,LOS ANGELES,,
644,Movita Juice Bar,,152,4.5,$,Juice Bars & Smoothies,34.18808,-118.55486,0regQjQgxeIpIg1H_s23Wg,,MOVITA JUICE BAR,19343 VICTORY BLVD,TARZANA,,
645,Cafe Diamond,,4,3.5,,"Cafes, Juice Bars & Smoothies",34.06964,-118.08245,GI0WvL-E0N9DXtM7fMtrKQ,,CAFE DIAMOND,3365 WALNUT GROVE AVE # B,ROSEMEAD,,
646,Smart & Final Extra,,38,3,$$,Grocery,33.8718461,-118.3256477,lmY2j2YYkh5hTg3aQz_Riw,,SMART & FINAL #817 - MEAT DEPT,17500 CRENSHAW BLVD,TORRANCE,,
647,Sabor Nicaragüense Restaurant,,87,5,$$,"Latin American, Nicaraguan",34.039158,-118.309584,tXWWGFaKQBggwOKMdOuCdA,,SABOR NICARAGUENSE RESTAURANT,1927 W WESTERN AVE STE 1,LOS ANGELES,,
648,Roxy & Jo's Seafood Grill & Oyster Bar,,19,3.5,,Seafood,34.072006,-118.360245,jTNKuMW0gMnaeE_uQaMx1w,,ROXY & JO'S SEAFOOD GRILL AND OYSTER BAR,6333 W 3RD ST # 436,LOS ANGELES,,
649,El Super,,37,2,$,Grocery,33.9889963,-118.2933083,_WONpreso-eYSOKyHPySBQ,,EL SUPER,1100 W SLAUSON AVE,LOS ANGELES,,
650,Uni Luv,,74,3.5,,"Japanese, Korean",34.05514,-118.308628,raQ67tc1XuGnBngutBRQVA,,UNI LUV,928 S WESTERN AVE STE 132,LOS ANGELES,,
651,,,,,,,,,,,SUPER ESTRELLA MEAT MARKET,10236 LONG BEACH BLVD,LYNWOOD,,
652,,,,,,,,,,,PARAMOUNT 76,14949 GARFIELD AVE,PARAMOUNT,,
653,Quality of Bombay,,156,4.5,$$,"Indian, Seafood",33.8920504,-118.3528749,WPAnSTOPPxfvXWmay4TtLQ,,QUALITY OF BOMBAY INDIAN CUISINE,15333 HAWTHORNE BLVD,LAWNDALE,,
654,Continental Kitchen BH,,125,4,$$,"American (New), Mediterranean, Burgers",34.063904,-118.3720502,3mlxdWpqSkwDRGWfACRfMA,,CONTINENTAL KITCHEN BH,8300 WILSHIRE BLVD,BEVERLY HILLS,,
655,La Michoacana Premier,,56,2.5,$$,"Juice Bars & Smoothies, Ice Cream & Frozen Yogurt",34.03040489,-118.3092929,fKDMZYWno0j0JBXICnhWHA,,LA MICHOACANA,2715 S WESTERN AVE # D,LOS ANGELES,,
656,,,,,,,,,,,ROUNDING,3609 W PICO BLVD,LOS ANGELES,,
657,Kaban Persian Restaurant,,155,4.5,$$,"Persian/Iranian, Mediterranean, Middle Eastern",34.12988346,-118.3487304,En6b8WvIkaOZq0-NkiiWTA,,KABAN PERSIAN RESTAURANT,3250 CAHUENGA BLVD W,LOS ANGELES,,
658,Blaze Pizza,,172,3.5,$$,"Salad, Fast Food, Pizza",34.11456,-117.82954,AWdmqDOPFfaLwcN6fW6Tvw,,BLAZE PIZZA #1278,1331 S LONE HILL AVE STE 100,GLENDORA,,
659,New Century Lobster,,99,4.5,$$,Seafood,34.07938,-118.083399,JjMHCPKbKBzDaQIQo-68KQ,,NEW CENTURY LOBSTER,8518 E VALLEY BLVD #101 -102,ROSEMEAD,,
660,Ebaes on Wilshire,,212,4,$$,"Asian Fusion, Sushi Bars, Ramen",34.052791,-118.263669,_wZoR5op0wysdkUi2r6o9g,,EBAES ON WILSHIRE,1111 WILSHIRE BLVD UNIT 104,LOS ANGELES,,
661,Taquisa,,150,3.5,$,Mexican,34.036356,-117.9241734,FZugJuo8pzMBkyW3x-RVvQ,,TAQUISA MEXICAN FOOD,1041 E AMAR RD,WEST COVINA,,
662,,,,,,,,,,,MELROSE CHEVRON,4590 MELROSE AVE,LOS ANGELES,,
663,,,,,,,,,,,BUBBA'S MARKET,4700 S VERMONT AVE,LOS ANGELES,,
664,Mary's Market,,232,4.5,$,"Sandwiches, Breakfast & Brunch, American (New)",34.17108536,-118.0437851,NA8Z0YhvDWwqU4_7pHh2OA,,MARY'S MARKET,561 WOODLAND DR,SIERRA MADRE,,
665,La Michoacana Craft Ice Cream,,25,2,$,Ice Cream & Frozen Yogurt,34.21709988,-118.3890756,CENfkPddKIBFUlnWMV5RPA,,LA AUTHENTICA MICHOACANA,8065 WEBB AVE # C,NORTH HOLLYWOOD,,
666,Dagwoods,,483,4,$,"Pizza, Italian",34.02245,-118.493699,1faHP7NVxelREM1QH2J-7Q,,DAGWOODS,820 WILSHIRE BLVD,SANTA MONICA,,
667,SU Fusion Chinese,,36,3.5,$$,"Chinese, Korean",34.131686,-118.065749,xf1QPuy1I6GGJfAdZh_eXQ,,FUSION CHINESE SU,1101 HUNTINGTON DR # 4,ARCADIA,,
668,Little Asia,,242,4,$,Chinese,33.93064,-118.35757,RO_WguZl9xDdWTPaGjiNAQ,,LITTLE ASIA,4624 W IMPERIAL HWY,INGLEWOOD,,
669,Subway,,26,2,$,Sandwiches,34.040241,-118.162067,j0EnUZl5yiicH4YBggtmTg,,SUBWAY #39254,4770 E CESAR CHAVEZ AVE,LOS ANGELES,,
670,Melrose Bistro Café,,48,4,$$,"Breakfast & Brunch, Italian, Salad",34.0836363,-118.3093236,NOZfeYZx2Ko55QouJj8fvw,,MELROSE BISTRO CAFE,5003 MELROSE AVE,LOS ANGELES,,
671,,,,,,,,,2fXnw_pVuBTx_m74GwME5g,,MICHOACANA DELIGHTS,9043 WOODMAN AVE UNIT # 8,ARLETA,,
672,Cordray's Bakery & Lunch,,36,4.5,$,"Bakeries, Donuts",34.09097,-118.33661,vbKmsPtYUEV71cLT815T7Q,,CORDRAY'S BAKERY,6705 SANTA MONICA BLVD,LOS ANGELES,,
673,Jersey Mike's Subs,,148,3,$$,"Fast Food, Delis, Sandwiches",34.259402,-118.46637,O8Un7KIKNK0HtIcXxJkaLA,,JERSEY MIKES SUBS 20218,10388 SEPULVEDA BLVD,MISSION HILLS,,
674,Jersey Mike's Subs,,46,3.5,$$,"Fast Food, Delis, Sandwiches",34.412563,-118.56101,#NAME?,,JERSEY MIKE'S SUBS,24453 MAGIC MOUNTAIN PKWY,SANTA CLARITA,,
675,Proflex Nutrition,,3,1,,Vitamins & Supplements,33.98422208,-118.098366,Ry8iGKjy8DjlvebA11Echw,,PROFLEX FITNESS,8935 E WASHINGTON BLVD,PICO RIVERA,,
676,The Vitamin Shoppe,,17,3.5,$$,"Cosmetics & Beauty Supply, Vitamins & Supplements, Herbal Shops",34.259419,-118.4666,8fhF0myf92_xQDUBj9tASg,,THE VITAMIN SHOPPE,10402 SEPULVEDA BLVD,MISSION HILLS,,
677,,,,,,,,,,,MIRACU,18535 S WESTERN AVE,GARDENA,,
678,Nespresso Boutique,,99,3,$$,"Coffee Roasteries, Coffee & Tea, Cafes",34.14469,-118.25676,gaf5CP1yVq8CWMyKvlDrbQ,,NESPRESSO,821 AMERICANA WAY # E5,GLENDALE,,
679,,,,,,,,,,,RALPHS MARKET #284 - STARBUCKS,10772 W JEFFERSON BLVD,CULVER CITY,,
680,Louisiana Fried Chicken,,11,3,$,Cajun/Creole,34.01066,-118.33478,EtRjnsVrvqPqvqqqof1z6A,,LOUISIANA FRIED CHICKEN #4050,4050 CRENSHAW BLVD,LOS ANGELES,,
681,Raku Roll & Teriyaki,,147,4.5,$,Japanese,33.9983004,-118.0555703,V7nZe3kogamRuskVPsYemA,,RAKU TERIYAKI HOUSE,5416 NORWALK BLVD # B1,WHITTIER,,
682,,,,,,,,,,,FRIENDLY LIQUOR & MARKET,1261 E FLORENCE AVE,LOS ANGELES,,
683,Orchard Supply Hardware,,20,4,$$,"Hardware Stores, Building Supplies, Nurseries & Gardening",34.1020899,-118.29637,2hlZMkzpjx2fO-hPybHb_g,,ORCHARD SUPPLY HARDWARE #311,1000 HOLLYWOOD BLVD,LOS ANGELES,,
684,Pound Penny Liquor & Market,,7,3.5,,"Beer, Wine & Spirits",33.91108,-118.34414,riWpIeWXJQL7dzVrTpbOfg,,POUND PENNY LIQUOR,13353 PRAIRIE AVE,HAWTHORNE,,
685,H Mart - Arcadia,,340,3,$$,"Grocery, Seafood Markets, Food Court",34.13160236,-118.0657359,BS7QS0JXfpfVGm5lEWzNvA,,H MART - BAKERY,1101 W HUNTINGTON DR,ARCADIA,,
686,Regency Theatres BLVD Cinemas,,26,3.5,,Cinema,34.69734,-118.14341,16WtFpmXjx-V_DWU6ItXQQ,,REGENCY THEATRES,742 W LANCASTER BLVD,LANCASTER,,
687,MJ Cafe,,29,4.5,$,"Sandwiches, Breakfast & Brunch, Wraps",33.997387,-118.147956,vsojb5XtJkCb2wvJZKpIsQ,,M J CAFE,6055 E WASHINGTON BLVD STE B11,COMMERCE,,
688,Mejico Grill & Tequila Lounge,,149,4,$$,"Dance Clubs, Mexican, Cocktail Bars",34.14314,-118.7569,bqU7w0uQtmGJssMbE7lDzw,,MEJICO GRILL AND TEQUILLA LOUNGE,29002 AGOURA RD,AGOURA HILLS,,
689,Restaurant Pollo Al Carbon,,9,4.5,$,Mexican,34.03458087,-118.2574481,WyIHBv3lKdleezaL7nXy0Q,,POLLOS AL CARBON RESTAURANT,326 E PICO BLVD,LOS ANGELES,,
690,,,,,,,,,,,WHOLE FOODS MARKET - TAQUERIA FOOD KIOSK,760 S PACIFIC COAST HWY,EL SEGUNDO,,
691,,,,,,,,,VIUWLbYE-ZyYsow-gtVn1w,,SUBS CAFE,101 W MISSION BLVD # 107,POMONA,,
692,Tortilleria Coatzingo,,2,5,,Tacos,34.00714,-118.27865,xh3vKXzAbNFyTtlQufIoIg,,TORTILLERIA COATZINGO,4205 S BROADWAY ST,LOS ANGELES,,
693,Wendy's,,87,2,$,"Fast Food, Burgers",34.221892,-118.45119,S_BPbHn892tQ2kDXnBae8w,,WENDY'S #88210,14645 ROSCOE BLVD,PANORAMA CITY,,
694,,,,,,,,,,,AVALON LIQOUR,5111 AVALON BLVD,LOS ANGELES,,
695,,,,,,,,,,,DOLLAR MAS,1978 E CESAR CHAVEZ AVE,LOS ANGELES,,
696,,,,,,,,,,,M CAFE,1800 N HIGHLAND AVE,LOS ANGELES,,
697,Bellflower Liquor,,1,1,$$,"Beer, Wine & Spirits",33.8827504,-118.1425051,950mEIyLwhG3kBeLFllt6Q,,BELLFLOWER LIQUOR,16704 LAKEWOOD BLVD,BELLFLOWER,,
698,7 Leaves Cafe,,511,4,$,"Coffee & Tea, Macarons",33.87278397,-118.0728994,mAhkHjXLddbmxftSTz_OEw,,7 LEAVES CAFE,12154 ARTESIA BLVD,ARTESIA,,
699,Carl's Jr,,77,2.5,$,"Fast Food, Burgers",34.13671,-118.36235,YmPVCDNzEBWBnmv8WuRliQ,,CARLS JR #171,3770 CAHUENGA BLVD,NORTH HOLLYWOOD,,
700,Yuris Restaurant,,21,4.5,$,Mexican,34.02088,-118.15804,jYJ84JAmEi0xJ02w7_8-vA,,YURI'S AUTHENTIC TACOS AND MEXICAN RESTAURANT,5165 E WHITTIER BLVD,LOS ANGELES,,
701,El Rinconcito,,2,4,$,Sports Bars,33.97498,-118.24437,kjAzD2Gb-2xwJEX1RQiMxQ,,RINCONCITO,1633 E FLORENCE AVE,LOS ANGELES,,
702,No.1 Charcoal BBQ,,21,3,,"Asian Fusion, Barbeque, Chinese",34.06308224,-118.1319213,_yXvWNah-xCYgo05BgC0Qg,,NO. 1 CHARCOAL BBQ,112 N CHANDLER AVE STE 101,MONTEREY PARK,,
703,Cafe Wild,,283,4.5,$$,"Breakfast & Brunch, American (New), Seafood",33.8997648,-118.4174598,G23CJGWxnn9WDpdemO81qw,,CAFE WILD,3505 HIGHLAND AVE,MANHATTAN BEACH,,
704,Gas 4 Less,,1,2,,Gas Stations,33.90242004,-118.2656631,JWJi1tlKRYiYMjRDas47dg,,GAS 4 LESS,545 E ROSECRANS AVE,GARDENA,,
705,Trading Post,,22,5,$$,"Beer, Wine & Spirits, Candy Stores",33.94902728,-118.1162493,qOJFbi7ZN-_gCvhokoaODA,,TRADING POST,9956 LAKEWOOD BLVD,DOWNEY,,
706,Hide Out Cafe,,740,4,$,"Coffee & Tea, Asian Fusion, Comfort Food",33.992678,-117.891123,bCOaVGrzvKkaW0w-kAx2Tw,,HIDE OUT CAFE,18888 LABIN CT STE C-106,ROWLAND HEIGHTS,,
707,Vincenzo's Pizza,,370,4,$$,"Pizza, Salad",34.27141833,-118.50252,AJlqdWS6jSNoLgNErRZUvg,,VINCENZO'S PIZZA GRANADA HILLS,11045 BALBOA BLVD,GRANADA HILLS,,
708,Brewery Draconum,,231,4.5,$$,Brewpubs,34.38067386,-118.529685,6nxOGQYlxgoJtIswkywNHA,,BREWERY DRACONUM,24407 MAIN ST,NEWHALL,,
709,Donuts Donuts,,30,4,$,Donuts,33.8583751,-118.0642666,G8GE6of0lFPXKHvHTEnuBg,,DONUTS DONUTS,12544 SOUTH ST,CERRITOS,,
710,Kai Ramen West Hollywood,,243,4.5,$$,"Ramen, Noodles, Japanese Curry",34.07753,-118.37679,eC7bhbablJ6jowPoYI2F0A,,KAI RAMEN,349 N LA CIENEGA BLVD,LOS ANGELES,,
711,Ben & Danny's Modern Meal Prep Kitchen,,24,4.5,$$,Food Delivery Services,34.1482106,-118.2569678,s2YSGdc0MgUXl8TecLXGNQ,,BEN & DANNY'S,211 1/2 W WILSON AVE,GLENDALE,,
712,,,,,,,,,,,MC DONALD'S,2900 W IMPERIAL HWY,INGLEWOOD,,
713,7-Eleven,,11,3,$,"Convenience Stores, Coffee & Tea",34.0982349,-118.3117516,FbxMenKTyzwp8tIw7NDeSQ,,7-ELEVEN STORE 39366B,5609 W SUNSET BLVD,LOS ANGELES,,
714,The Poke Joint,,283,4,$,"Poke, Ramen",34.09485987,-118.12689,KbhqkfcTxDaokP6dmtqLEA,,THE POKE JOINT,6 W MAIN ST,ALHAMBRA,,
715,,,,,,,,,,,7-ELEVEN STORE 39833A,3672 W 3RD ST,LOS ANGELES,,
716,The NoMad Restaurant,,351,4,$$$$,"American (New), Cocktail Bars, Tapas/Small Plates",34.04697,-118.25557,77OCLqNangVVY-GHXAE7ng,,NOMAD HOTEL - LOBBY RESTAURANT & BAR,649 S OLIVE ST,LOS ANGELES,,
717,Blackbird Pizza Shop,,362,4.5,$$,Pizza,34.08387,-118.35253,v5JaR9R_p0dnyDtefjtF9A,,BLACKBIRD PIZZA SHOP,7459 MELROSE AVE,LOS ANGELES,,
