,name,address,categories,review_count,rating,price,latitude_yelp,longitude_yelp,yelp_id,program_name,facility_address,facility_city,latitude,longitude,hours
0,Yiannis Greek Restaurant,,"Greek, Mediterranean",128.0,3.5,$$,34.0960139,-117.7177451,lgO3Zsijjc0sTuKpwI8NsQ,YIANNI S GREEK RESTAURANT,238 N YALE AVE,CLAREMONT,,,
1,City Spa & Health Center,,"Gyms, Day Spas",39.0,4.0,$$,34.04864,-118.35446,sD0vbVraROKbOwBXCuSdVg,CITY SPA CAFE,5325 W PICO BLVD,LOS ANGELES,,,
2,,,,,,,,,,FRESH DAY CAFE,7900 W SUNSET BLVD,LOS ANGELES,,,
3,Burrito Factory,,Mexican,116.0,3.0,$,33.7268199,-118.287665,o63QrxtynQ8Z1UeuSSnD1A,BURRITO FACTORY,1902 S PACIFIC AVE,SAN PEDRO,,,
4,R+D Kitchen,,"American (New), Burgers",1315.0,4.0,$$,34.03206,-118.49578,wRUZC0DjqLCV3hX0laZILw,R AND D KITCHEN,1323 MONTANA AVE,SANTA MONICA,,,
5,Sushi Counter At Ralphs,,"Sushi Bars, Japanese, Vegetarian",2.0,4.0,,34.0655136108398,-118.133666992188,77LCBnfeIuDZORca5NmcXQ,AFC SUSHI @ RALPHS 715,330 N ATLANTIC BLVD,MONTEREY PARK,,,
6,Wendy's Place,,"Diners, Breakfast & Brunch",353.0,4.0,$,33.919138,-118.416311,1hKIBIaGs9qT48Zo7jMWVQ,WENDY'S PLACE,107 W GRAND AVE,EL SEGUNDO,,,
7,Pizza Hut,,"Pizza, Italian, Chicken Wings",119.0,2.0,$,34.040077,-118.465040395999,jpwWuArQhUFYKS0qLDMmZQ,PIZZA HUT #026176,12217 SANTA MONICA BLVD,LOS ANGELES,,,
8,Arco,,"Gas Stations, Convenience Stores",12.0,3.0,$,34.17812,-118.13153,ANORHrktfFEggDY8XvG05w,ARCO FOOD MART,1880 N LAKE AVE,ALTADENA,,,
9,Hi Family,,"Chinese, Soup",254.0,4.0,$$,34.106272264829,-117.733183228406,eouO2pgYNaKg3zf1Amk19A,HI FAMILY,944 W FOOTHILL BLVD,CLAREMONT,,,
10,Carl's Jr,,"Fast Food, Burgers",78.0,2.0,$,33.9969921830193,-117.870891166253,7eiBGeoYwXGZU4yk6aMjnA,CARL'S JR #7398,19782 E WALNUT DR,ROWLAND HEIGHTS,,,
11,,,,,,,,,,THE ARC LOS ANGELES & ORANGE,9545 WASHBURN RD,DOWNEY,,,
12,Edible Arrangements,,"Gift Shops, Florists, Chocolatiers & Shops",89.0,3.5,$$,34.07633,-118.37503,zwFWc9PBHVJ4t3gQNxVEtg,EDIBLE ARRANGEMENTS - 250,8453 BEVERLY BLVD,LOS ANGELES,,,
13,,,,,,,,,,ROYAL LIQUOR,1508 W SUNSET BLVD,LOS ANGELES,,,
14,,,,,,,,,,SAN DIMAS SENIOR CENTER,201 E BONITA AVE,SAN DIMAS,,,
15,Yogurtland West Covina,,Ice Cream & Frozen Yogurt,187.0,4.0,$,34.067971,-117.931446,9LTr6MvisjG_j13BY4yw0A,YOGURTLAND WEST COVINA,1000 W WEST COVINA PKWY,WEST COVINA,,,
16,Menchie's,,"Ice Cream & Frozen Yogurt, Desserts",71.0,4.0,$,33.941758,-118.046477,g_5pdH7QliOmZ9QDAZzZmw,MENCHIE'S #MEN-107,10122 CARMENITA RD,WHITTIER,,,
17,Daphne's Desserts,,"Cafes, Coffee & Tea, Bakeries",205.0,5.0,$,34.17183,-118.43066,JFk4gr1qbjWVOwu23m5dig,DAPHNE'S DESSERTS,13646 BURBANK BLVD,SHERMAN OAKS,,,
18,Restaurante El Mirador,,Salvadoran,11.0,3.0,$,34.04755,-118.29455,sbOfpkpCNN_U_wv3YayapA,EL MIRADOR RESTAURANT,1250 S CATALINA ST,LOS ANGELES,,,
19,Good Grill Express,,"Mexican, Seafood, American (Traditional)",38.0,3.0,$$,34.03897,-118.25569,rbcOzsLyUv4D8H1VyfKhcQ,GOOD GRILL RESTAURANT,210 E OLYMPIC BLVD STE 127,LOS ANGELES,,,
20,Sweet Lady Jane Bakery,,"Bakeries, Desserts, Custom Cakes",424.0,4.0,$$,34.15787,-118.49091,75JIxDKh3aLm3bGgYi1TyQ,SWEET LADY JANE,16403 VENTURA BLVD #C,ENCINO,,,
21,Shanghai Express,,Chinese,8.0,3.0,$,34.1393951,-117.9835599,NQL0VDItCKa7IwaeQaZZXA,HONGKONG EXPRESS HUNTINGTON,1018 E HUNTINGTON DR,DUARTE,,,
22,Phillips Bar B Que,,Barbeque,205.0,3.5,$$,33.9767641,-118.3655114,1WkYibAohA05AjfX7mfXGw,PHILLIPS BAR-B-QUE II,1517 CENTINELA AVE,INGLEWOOD,,,
23,Royce Chevron,,Gas Stations,9.0,3.5,,33.812625,-118.297834,_QU_OIb_ssj7NR67fpxBzw,ROYCE CHEVRON,1250 W SEPULVEDA BLVD,HARBOR CITY,,,
24,Ralphs Grocery,,Grocery,107.0,2.0,$$,33.7535403,-118.3087933,aHxtFD-fajZn6gmA_a6Fxg,RALPHS MARKET #87 - MAIN MARKET,1050 N WESTERN AVE,SAN PEDRO,,,
25,Simpang Asia,,"Indonesian, Malaysian, Halal",1615.0,4.0,$$,34.029081,-118.411699,qDmJaJjLtjcB4Evd-VCbNA,SIMPANG ASIA,10433 NATIONAL BLVD STE #2,LOS ANGELES,,,
26,Taco Boy,,Tacos,174.0,4.0,$,33.970169,-118.104148,DcHS_fC9nE0n4ujx7gEm6A,TACO BOY,9024 E SLAUSON AVE,PICO RIVERA,,,
27,Edible Arrangments,,"Gift Shops, Chocolatiers & Shops",83.0,2.5,$$$,34.24371,-118.53713,aIrj9Sh6EKaVds8GSi1w1g,EDIBLE ARRANGEMENTS,9545 RESEDA BLVD STE #6,NORTHRIDGE,,,
28,Bay City Seafood Supermarket,,"Grocery, Seafood Markets",18.0,4.0,$,33.8575023029218,-118.086592110777,crznf_LwO4zFOLdXx6wlPA,BAY CITY SUPERMARKET,11618 SOUTH ST,ARTESIA,,,
29,,,,,,,,,,HANSON JR MARKET,2304 W 18TH ST,LOS ANGELES,,,
30,Olympia Banquet Hall,,Venues & Event Spaces,79.0,4.5,,34.20069,-118.50207,6Cw2wACOUVkDjbFtJloW3Q,OLYMPIA BANQUET HALL. INC.,16922 SHERMAN WAY,VAN NUYS,,,
31,Vegas Seafood Buffet,,"Buffets, Seafood, Chinese",766.0,3.0,$$,33.8315468034,-118.347207881,qdKN8M0u7Y0r1ThYzo8bgw,VEGAS SEAFOOD BUFFET,3525 CARSON ST #170,TORRANCE,,,
32,Starfish Sushi,,"Sushi Bars, Japanese",346.0,3.5,$$,34.0621261691223,-118.350891033066,WAJZ4TeFa6fKvHBhx1SJ4w,STARFISH SUSHI,5600 WILSHIRE BLVD STE #C,LOS ANGELES,,,
33,Tacos La Flama,,Mexican,77.0,3.5,$,34.0314576,-118.4453996,1qM739eEHW-LJuiyfH1-fg,LA FLAMA,2404 S BARRINGTON AVE,LOS ANGELES,,,
34,Rascals Teriyaki Grill,,Japanese,760.0,4.0,$,33.8726726012934,-118.303832964191,wTiCD9icSitERnu9ZjAaWw,RASCALS TERIYAKI GRILL,1540 W ARTESIA BLVD,GARDENA,,,
35,Camilo's California Bistro,,"French, Wine Bars",411.0,4.0,$$,34.1389431014843,-118.212978162715,oUy2FL3-WHyShogBiRx8Pg,CAMILO'S RESTAURANT,2128 COLORADO BLVD,LOS ANGELES,,,
36,,,,,,,,,,RALPHS MARKET #39 -  KOSHER MEAT (UPSTAIRS),260 S LA BREA AVE,LOS ANGELES,,,
37,Mariscos La Bucana,,Mexican,129.0,4.0,$$,34.06351,-118.0351,ngDSX-W5Qi4pAyjhde7bdA,MARISCOS LA BUCANA,11016 CONCERT ST,EL MONTE,,,
38,,,,,,,,,,AVALON,1101 W MCKINLEY AVE,POMONA,,,
39,,,,,,,,,,SCU CAFE,16200 E AMBER VALLEY DR,WHITTIER,,,
40,Yoshino Sushi,,"Sushi Bars, Japanese Curry, Desserts",983.0,3.5,$$,34.0805320739746,-118.092956542969,tD6NoOzVpVuhzRVdCU7POQ,YOSHINO SUSHI,529 E VALLEY BLVD STE 158,SAN GABRIEL,,,
41,Papa John's Pizza,,Pizza,55.0,2.0,$,33.936423,-118.326751,_tfQYvhaGpBQqlkzFKiHNQ,PAPA JOHN'S PIZZA # 2459,10901 S CRENSHAW BLVD,INGLEWOOD,,,
42,Rock N Roll Sushi,,"Japanese, Sushi Bars",497.0,3.5,$$,34.09746,-118.36513,1Hw9juCafGINWqc70nl_WA,ROCK N ROLL SUSHI,8000 W SUNSET BLVD A-202,LOS ANGELES,,,
43,,,,,,,,,,ALBERTSON'S #1335 - MEAT DEPT,26521 AGOURA RD,CALABASAS,,,
44,El Tarasco,,Mexican,10.0,2.0,$$,34.03731,-118.1937,vg5SrLqAwAiDJW5KzwZlsQ,EL TARASCO,3425 E 1ST ST 3RD FL,LOS ANGELES,,,
45,Jolly Donuts,,"Donuts, Coffee & Tea",73.0,4.0,$,34.20245,-118.60628,AWMK9lH0INgiviMDrGruIw,JOLLY DONUTS,7249 TOPANGA CANYON BLVD,CANOGA PARK,,,
46,Stefano's - Two Guys From Italy,,Pizza,236.0,3.5,$,34.1016849,-118.3363552,vRVlvc_tO2YM_3OYwGmJXw,TWO GUYS FRUM ITALY,6705 HOLLYWOOD BLVD,LOS ANGELES,,,
47,Paleteria La Reyna De Michoacan,,"Juice Bars & Smoothies, Ice Cream & Frozen Yogurt",75.0,3.5,$,34.0746899,-118.04079,sXZarCNghrmUa8XHCB0gQw,PALETERIA LA REYNA DE MICHOACAN,3560 SANTA ANITA AVE STE P,EL MONTE,,,
48,Sasoon Restaurant,,"Middle Eastern, Armenian",89.0,4.5,$$,34.1723501,-118.5470375,eqsXfJbC_Iq7E7412Wa0AA,SASOON ARMENIAN & MIDDLE EAS,18970 VENTURA BLVD,TARZANA,,,
49,The Lost Knight,,"Pubs, British, Music Venues",213.0,3.5,$$,34.07616,-118.25674,z2CUTkbH2lzpbWAKtt16eg,LOST KNIGHT (SECOND FLOOR),1538 W SUNSET BLVD,LOS ANGELES,,,
50,,,,,,,,,,DELICA,21515 S WESTERN AVE # 140,TORRANCE,,,
51,Chi Ut Trai Cay 2,,"Fruits & Veggies, Imported Food",53.0,4.0,$$,34.07975,-118.08489,2CSH5splTHbnU-ZNtVox8Q,EXOTIC FRUITS TRAI CAY,8450 VALLEY BLVD STE #104,ROSEMEAD,,,
52,Dino's Chicken and Burgers,,"Burgers, Mexican",2048.0,4.0,$,34.047441,-118.293926,iqjA5r6w_bFB2R4hseqhhQ,DINO'S CHICKEN AND BURGERS LOS ANGELES,2575 W PICO BLVD,LOS ANGELES,,,
53,China Pot King,,Chinese,42.0,3.5,$$,34.0798549999881,-118.108245710077,jd1LF3gscKJ65cE7sKcIBg,CHINA POT KING,1558 NEW AVE,SAN GABRIEL,,,
54,Malibu Mutt,,"Burgers, Barbeque, Falafel",81.0,3.5,$,34.0359,-118.685725,FgzlGUxu5XmL5yHrMg2m3Q,MALIBU MUTT,3835 CROSS CREEK RD,MALIBU,,,
55,Popeyes Louisiana Kitchen,,"Fast Food, Chicken Wings",34.0,1.5,$,33.916672,-118.265521,KbOcFoW_OtMsWX8LkZSEEA,POPEYES CHICKEN,451 E EL SEGUNDO BLVD,LOS ANGELES,,,
56,Bruddah's Bar & Grill,,"Hawaiian, Sports Bars, Breakfast & Brunch",121.0,3.5,$$,33.8901,-118.30103,xi5BlVPx5loAp1t2_mqYxQ,BRUDDAH'S BAR & GRILL,1430 W REDONDO BEACH BLVD,GARDENA,,,
57,Domino's Pizza,,Pizza,47.0,2.0,$,34.0514223,-118.0373603,99ZfrFQgzgMsh5pPK8Cevg,DOMINO'S PIZZA #8126,1937 TYLER AVE,SOUTH EL MONTE,,,
58,Paciugo Gelato - Hermosa Beach,,"Ice Cream & Frozen Yogurt, Coffee & Tea, Gelato",552.0,4.5,$$,33.8612805,-118.3995393,2ud_tQCoRD2nHDQ7klqGsg,PACIUGO,1034 HERMOSA AVE,HERMOSA BEACH,,,
59,,,,,,,,,,FIGUEROA MINI MARKET,5845 S FIGUEROA ST,LOS ANGELES,,,
60,Costco Wholesale,,Wholesale Stores,231.0,3.0,$$,34.03291,-118.09746,0STC4p3oMf6oLbb1RMP0-g,COSTCO WHOLESALE #459 SNACK,1345 N MONTEBELLO BLVD,MONTEBELLO,,,
61,Subway,,Sandwiches,29.0,2.5,$,34.066716,-118.270831,_EZCzoaoEsUpjn5SjRi7tQ,SUBWAY #44461,2112 BEVERLY BLVD,LOS ANGELES,,,
62,Rocket Fizz,,"Candy Stores, Party Supplies, Gift Shops",138.0,4.0,$,34.06117,-118.44636,ss0NVHu-8dugveMpvGJOfg,ROCKET FIZZ,1067 BROXTON AVE,LOS ANGELES,,,
63,Beach Bowls Acai Cafe,,"Cafes, Juice Bars & Smoothies",728.0,3.5,$,33.823246,-118.327988,vpdEZqn0g02Sbrp3rhv0oQ,BEACH BOWLS,2370 CRENSHAW BLVD STE #F,TORRANCE,,,
64,,,,,,,,,,NORTHROP CAFETERIA S-3,3520 E AVENUE M,PALMDALE,,,
65,Flame Broiler,,Fast Food,66.0,2.5,$,33.941638369203,-117.99494566147,Jy8di0CINn7BJV524DRuFg,THE FLAME BROILER #8,15638 WHITTWOOD LN,WHITTIER,,,
66,,,,,,,,,,MARROQUIN PRODUCE MEAT MARKE,2612 N BROADWAY,LOS ANGELES,,,
67,Papa John's Pizza,,Pizza,53.0,2.5,$,33.8730349,-118.3744067,x9GkOyhCOxUMRUcfhVpqrg,PAPA JOHN'S PIZZA,2105 ARTESIA BLVD,REDONDO BEACH,,,
68,Qing Dao Bread Food 青島饅頭,,Chinese,93.0,4.0,$,34.0653,-118.12328,UQJwEOvkRK3e2kUqxxmx-g,QINGDAO BREAD FOOD,301 N GARFIELD AVE STE G,MONTEREY PARK,,,
69,Panda Express,,"Chinese, Fast Food",107.0,2.0,$,33.8933759,-118.3528749,H5_OA6LDMuNqp2cOhKMwdg,PANDA EXPRESS,15207 HAWTHORNE BLVD,LAWNDALE,,,
70,Super A Foods,,Grocery,32.0,3.0,$$,34.0232172,-118.1348429,1m4TvunlxcQil1oUTVZKCQ,SUPER A FOODS DELI,2924 W BEVERLY BLVD,MONTEBELLO,,,
71,Amapola Super Deli & Market,,International Grocery,78.0,2.5,$,33.9740636160781,-118.247941906746,LHGjcC9-G1pQNP_rgvHAEw,AMAPOLA MEXICAN DELI,7223 S COMPTON AVE,LOS ANGELES,,,
72,,,,,,,,,,MATEO'S MINI MARKET,758 E 79TH ST,LOS ANGELES,,,
73,JJ Bakery,,"Bakeries, Coffee & Tea, Desserts",222.0,4.0,$,33.9858273,-117.8882591,km2cJgn2Ba5nOnEV3HTZ6g,J.J. BAKERY,1744 1/2 S NOGALES ST,ROWLAND HEIGHTS,,,
74,,,,,,,,,,LIVING HEALTH,15933 PIONEER BLVD,NORWALK,,,
75,,,,,,,,,,CALIFORNIA PIZZA KITCHEN #59,3280 N SEPULVEDA BLVD,MANHATTAN BEACH,,,
76,Subway,,"Fast Food, Sandwiches",25.0,3.0,$,34.0662177,-118.4454167,qlLtmTOWS4uMKaKOZk-U2w,SUBWAY #59215,757 WESTWOOD PLZ,LOS ANGELES,,,
77,Mercado Buenos Aires,,"Delis, Bakeries, Argentine",323.0,4.0,$$,34.25771,-118.48398,1SJ2U22sCksr-srvR8ym5Q,MERCADO BUENOS AIRES,16137 DEVONSHIRE ST,GRANADA HILLS,,,
78,Jack in the Box,,"Burgers, Fast Food, Tacos",47.0,2.5,$,34.03796,-118.43235,L4EYjRLGFWwwJB4sFaxEGQ,JACK IN THE BOX #3161,11010 W PICO BLVD,LOS ANGELES,,,
79,Big Bite,,Sandwiches,87.0,4.0,$,34.1511459350586,-118.257469177246,Zy1gs63I9rJ1SiBKG2h3Hg,BIG BITE,334 N CENTRAL AVE # 101,GLENDALE,,,
80,,,,,,,,,,POST 283 AMERICAN LEGION,15247 LA CRUZ DR,PACIFIC PALISADES,,,
81,Fry's Electronics,,"Electronics, Computers",733.0,2.0,$$,33.9013,-118.39527,koPZTse4TFKnCOKNAy6Oug,FRY'S,3600 N SEPULVEDA BLVD,MANHATTAN BEACH,,,
82,Dhaba Cuisine of India,,Indian,260.0,4.0,$$,34.006151,-118.488148,JWSCy9Eyg3DwZoPK_oetRg,DHABA INDIA FOOD,2104 MAIN ST,SANTA MONICA,,,
83,Eco Hand Car Wash & Lube Center,,"Car Wash, Auto Detailing, Oil Change Stations",301.0,3.5,,34.06535,-117.969411,znrU9TZ13eoSc1VSRSrklA,ECO CAR SPA,14047 FRANCISQUITO AVE,BALDWIN PARK,,,
84,Big Mama's & Papa's Pizzeria,,"Pizza, Salad, Sandwiches",335.0,3.5,$$,34.2013349,-118.4468862,kD5yQy0UrVNhRlX-3c7YWg,BIG MAMA'S AND PAPA'S PIZZA,14419 SHERMAN WAY,VAN NUYS,,,
85,King Taco,,Mexican,558.0,2.5,$,34.1463851718627,-118.253951442222,pmtajumQ1NKljcPuIYZQFg,KING TACO,117 E BROADWAY ST,GLENDALE,,,
86,Subway,,Sandwiches,23.0,2.5,$,34.1924606708883,-118.396030125149,dPuE5HhwKUFDIgVqJZL1rg,SUBWAY 959,6700 E LAUREL CANYON BLVD,NORTH HOLLYWOOD,,,
87,Mel's Deli,,"Delis, Sandwiches, Food",97.0,4.0,$$,34.04595,-118.25047,cpdbBmuV3ifsN35NqpbEbA,MELS DELI,548 S SPRING ST STE 114,LOS ANGELES,,,
88,Access Hollywood,,Convenience Stores,1.0,3.0,,33.9426937557505,-118.402897264782,qQIRjpoBRDUKSdqaIQSUow,ACCESS HOLLYWOOD,600 WORLD WAY # 684,LOS ANGELES,,,
89,Organic Corner Cafe,,"Juice Bars & Smoothies, Breakfast & Brunch, Sandwiches",61.0,4.0,$,34.0518112182617,-118.261383056641,TAbRleXDGUi_2kWTDegvcg,ORGANIC CORNER CAFE,1001 WILSHIRE BLVD,LOS ANGELES,,,
90,Islands Restaurant,,"Burgers, American (Traditional), Sports Bars",541.0,3.5,$$,34.1808052062988,-118.311111450195,RVtCMvMQkYYYyRsD8xs7wg,ISLANDS FINE BURGERS& DRINKS,101 E ORANGE GROVE AVE,BURBANK,,,
91,Starbucks,,Coffee & Tea,131.0,3.5,$,34.062656,-118.353948,9rxP6VDpS4D8S-Vun-VZGw,STARBUCKS,5757 WILSHIRE BLVD STE #106,LOS ANGELES,,,
92,,,,,,,,,,218 N - VENDING 3RD FLR,3900 W MANCHESTER BLVD,INGLEWOOD,,,
93,El Toreo DC,,Mexican,62.0,3.5,$$,34.5587121957808,-118.087257510358,CQ1vVaRvThguUIlCrWnd9A,El Toreo D C,2321 E AVENUE S # E-8,PALMDALE,,,
94,,,,,,,,,,WHOLESOME YO-CURDS,19755 COLIMA RD #A,ROWLAND HEIGHTS,,,
95,An Lac Hanh,,"Vietnamese, Vegetarian",78.0,4.0,$,34.0632,-118.0595,ILPGSiMN2wz_HHxt6ZCwIg,AN LAC HANH,9611 E GARVEY AVE STE 126,SOUTH EL MONTE,,,
96,La Nueva Fogata,,Salvadoran,92.0,3.0,$,34.2009851,-118.5007703,R4gQFLtE2_UWXvRLGo6ukA,LA NUEVA FOGATA,16852 SHERMAN WAY,VAN NUYS,,,
97,Carl's Jr,,"Fast Food, Burgers",51.0,2.0,$,34.0753419,-118.021822551503,T2OB-ftj7AJW6PCzwsH2mg,CARLS JR #292,3832 N PECK RD,EL MONTE,,,
98,,,,,,,,,,G AND J DRIED FOODS,8901 VALLEY BLVD,ROSEMEAD,,,
99,Baskin-Robbins,,"Ice Cream & Frozen Yogurt, Desserts, Custom Cakes",25.0,3.0,$,34.0717658996582,-117.977920532227,Ng6q1zVWWqAF4iZKtTUm2w,BASKIN ROBBINS #3186,3203 BALDWIN PARK BLVD,BALDWIN PARK,,,
100,Square One Dining,,"American (New), Breakfast & Brunch",1655.0,4.0,$$,34.09526,-118.29498,mLbTDZsYKkV5Ynnz-X87iQ,SQUARE ONE DINING,4854 FOUNTAIN AVE,LOS ANGELES,,,
101,Blue Bottle Coffee,,Coffee & Tea,280.0,4.5,$$,33.9919548034668,-118.470306396484,li-KwSMmSrW2aEeHVDXj1Q,BLUE BOTTLE COFFEE,1103 ABBOT KINNEY BLVD,LOS ANGELES,,,
102,,,,,,,,,,RUBEN'S TACOS,401 E 12TH ST #25,LOS ANGELES,,,
103,Taco Village,,Tacos,50.0,4.0,$,34.02466,-118.14175,9WqKLSaLG9nb2gvD4MZhIQ,TACO VILLAGE #1,3501 W BEVERLY BLVD,MONTEBELLO,,,
104,Yoshinoya Wilshire & Alvarado,,Japanese,41.0,2.0,$,34.05799,-118.27533,3RAo878qxNMnXaowC046og,YOSHINOYA BEEF BOWL,642 S ALVARADO ST,LOS ANGELES,,,
105,Eboshi Ramen Bar,,"Noodles, Tapas Bars, Ramen",348.0,4.0,$$,33.805158,-118.324781,zlwpdkr5vsIE1sFBB4c4zg,EBOSHI NOODLE BAR,2383 LOMITA BLVD STE #116,LOMITA,,,
106,In-N-Out Burger,,"Burgers, Fast Food",389.0,4.0,$,34.145321,-118.031235,03iWvUIFZ8385t8Sr6_cow,IN-N-OUT BURGER #27,420 N SANTA ANITA AVE,ARCADIA,,,
107,Don Jose Mexican Café,,Mexican,246.0,3.5,$$,33.873363715641,-118.081492349235,TKzkiGIukY78cAw9QIbzeQ,DON JOSE,11805 ARTESIA BLVD,ARTESIA,,,
108,Denny's,,"Breakfast & Brunch, Diners, American (Traditional)",139.0,2.5,$,34.220707,-118.605721860119,ynhRE1wGZxDQaztqTGWbHg,DENNY'S,8330 TOPANGA CANYON BLVD,CANOGA PARK,,,
109,Sucre Sweets Parisian Ice Cream & Bakeshop,,"Desserts, Ice Cream & Frozen Yogurt",34.0,4.5,$$,34.0527883,-118.2637493,11F_-1IwoZsvbpjULfYGOg,SUCRE ICE CREAM & BAKE SHOP,1111 WILSHIRE BLVD # 105,LOS ANGELES,,,
110,Machos Tacos,,Mexican,358.0,3.5,$,34.101676513598,-118.291624084454,lQUqEZ-yk9VgEw5WvY5-FA,MACHOS TACOS,1670 N VERMONT AVE,LOS ANGELES,,,
111,Dragon Express,,Chinese,9.0,3.5,$,34.0346,-118.2578,5jEpU_UnJyBRktEdEfseuw,DRAGON EXPRESS FOOD SVCS,316 E PICO BLVD STE #A,LOS ANGELES,,,
112,Shake Smart,,"Juice Bars & Smoothies, Breakfast & Brunch, Wraps",75.0,4.5,$,34.239682,-118.525401,0-nxnZAts8xwaDJuXpz62Q,SHAKE SMART- CSUN,18111 NORDHOFF ST,NORTHRIDGE,,,
113,,,,,,,,,,TOPANGA ETD MARKET,7601 TOPANGA CANYON BLVD,CANOGA PARK,,,
114,Seoul Soondae,,Korean,99.0,4.0,$,33.8722146515496,-118.083218493037,nBaZfYKUrlFYAXTUs0Q9OA,SEOUL SOONDAE,11750 1/2 ARTESIA BLVD,ARTESIA,,,
115,Vanguish Organic,,"Juice Bars & Smoothies, Coffee & Tea, Sandwiches",99.0,5.0,$$,34.05907,-118.39137,VH2Dn6yV8UVGMhElKU4Lyw,VANGUISH,9158 W OLYMPIC BLVD,BEVERLY HILLS,,,
116,McDonald's,,"Fast Food, Burgers, Coffee & Tea",85.0,2.0,$,34.0705721595307,-118.268211185932,gqG1BiNRp43r5FqiFv2-Qg,MCDONALD'S #12036,405 N ALVARADO ST,LOS ANGELES,,,
117,Carl's Jr,,"Fast Food, Burgers",17.0,3.0,$,34.0510089,-118.2476037,eNbUoo2vC_AYbSwnau7Hsw,CARL'S JR,254 S BROADWAY,LOS ANGELES,,,
118,,,,,,,,,,TOYSR US #5610,6245 TOPANGA CANYON BLVD,WOODLAND HILLS,,,
119,Taco Padre,,Mexican,62.0,3.5,$,34.372224,-118.515626,ioPpECNPMgdcDOFVQylxhg,TACO PADRE,23748 NEWHALL AVE,NEWHALL,,,
120,Little Farmers Market,,Grocery,1.0,1.0,,34.024356,-118.156448,L0pPWsBZlFuVK1XCICU0hA,LITTLE FARMERS MARKET,619 S ATLANTIC BLVD,LOS ANGELES,,,
121,,,,,,,,,,TACOS MEXICO,111 STONEWOOD CTR,DOWNEY,,,
122,JJ's Sandwich Shop,,"Sandwiches, Bagels, Coffee & Tea",212.0,4.5,$,34.0450287835494,-118.249517065537,XvRlza3pMntYRiCYxIXueQ,JJ'S SANDWICH BAR,119 E 6TH ST,LOS ANGELES,,,
123,Manhattan Bagel,,Bagels,142.0,3.0,$,34.1433111733398,-118.394064256373,7-bCKMI19AYJOUyNPwSlJQ,MANHATTAN BAGEL,12046 VENTURA BLVD,STUDIO CITY,,,
124,Rite Aid,,"Drugstores, Convenience Stores",52.0,2.5,$$,34.310832,-118.433744,HnzcinMQwSBUFgPB1ru_GQ,RITE AID #5552,13803 FOOTHILL BLVD,SYLMAR,,,
125,Sushi Iki,,"Japanese, Sushi Bars",199.0,4.5,$$$$,34.170807,-118.540156,qv-JcXgpikbam33ScLaSzA,SUSHI IKI,18663 VENTURA BLVD STE 106,TARZANA,,,
126,,,,,,,,,,T&J MARKET,9025 S MAIN ST,LOS ANGELES,,,
127,La Bahia Salvadorian Cuisine & Seafood,,"Seafood, Salvadoran",97.0,3.5,$,34.2225541973967,-118.605442622615,VZW72MlIKkppdXQYThUT-A,LA BAHIA SALVADOREAN MEXICAN FOOD,8414 TOPANGA CANYON BLVD,CANOGA PARK,,,
128,,,,,,,,,,HELP THE CHILDREN,25030 AVENUE TIBBITS STE L,SANTA CLARITA,,,
129,Komatsu,,Japanese,90.0,4.0,$$,33.831628,-118.329307,sOy9fOKZYePWdog-MVG_7w,RESTAURANT KOMATSU,2515 W CARSON ST,TORRANCE,,,
130,,,,,,,,,,OUTTA KES QUICK CUISINE,15383 U S S NEW JERSEY,SAN PEDRO,,,
131,,,,,,,,,,OUMI SUSHI @ SPROUTS 272,6607 FALLBROOK AVE,WEST HILLS,,,
132,Carmen Restaurant salvadorean cuisine,,Salvadoran,31.0,3.0,$,33.9646628,-118.1079406,BzuDi8VNL7KNPDgJ5xLQGA,CARMEN RESTAURANT,8318 S ROSEMEAD BLVD,PICO RIVERA,,,
133,,,,,,,,,,JOE'S LIQUOR MART,509 W ANAHEIM ST,WILMINGTON,,,
134,Osi Foodmart,,Grocery,11.0,4.5,$,34.0819199,-118.28717,pPBJCd_pAeBfozXBjVrwag,OSI FOODMART,601 N VIRGIL AVE,LOS ANGELES,,,
135,Bourgeois Pig,,"Coffee & Tea, Desserts, Sandwiches",898.0,3.5,$,34.1053749,-118.3188399,Trd_Aixg5bTE09mkoSTmEA,BOURGEOISE PIG CAFE,5931 FRANKLIN AVE,LOS ANGELES,,,
136,,,,,,,,,,LIEDER`S,8721 W PICO BLVD,LOS ANGELES,,,
137,La Barca Jalisco Restaurant,,"Mexican, Specialty Food",308.0,3.0,$$,33.9877116,-118.10473463143187,is93HP9s_JhMX4TzTs4TZQ,LA BARCA JALISCO RESTAURANT,8407 WASHINGTON BLVD,PICO RIVERA,,,
138,California Mexican Grill,,Mexican,54.0,3.5,$,34.039735,-118.438015,l_tOQKbfnDDARZ7eq0ss3Q,CALIFORNIA MEXICAN GRILL,11106 W OLYMPIC BLVD,LOS ANGELES,,,
139,"Yasai Ramen, Roll, Teriyaki",,Japanese,144.0,3.0,$,33.91366,-118.07209,YcCm4AclgUjtSjA0kxxN4w,YASAI #2,12200 CIVIC CENTER DR STE #E,NORWALK,,,
140,Pizza N Such,,"Pizza, Italian",365.0,3.5,$$,34.0957825,-117.7177451,O5AgO14O17ycrjtaZMUGTA,PIZZA N SUCH,202 N YALE AVE,CLAREMONT,,,
141,Wood Spoon,,Brazilian,1408.0,4.0,$$,34.0419174907936,-118.255135191069,ta7GyGyMGnn_LeJkUeLqdQ,WOOD SPOON,107 W 9TH ST,LOS ANGELES,,,
142,Wingstop,,Chicken Wings,90.0,3.0,$,33.9023849,-118.0833597,99ZshU9A2mHOOUpr3Cyu4A,WINGSTOP,11739 ROSECRANS AVE,NORWALK,,,
143,,,,,,,,,,ZULEYICA'S JUICE BAR,11659 ATLANTIC AVE,LYNWOOD,,,
144,Villa Fresh Italian Kitchen,,Italian,55.0,2.0,$,33.8495924,-118.1407043,Dt5d-cos1r-1GJ8llpl1zA,VILLA FRESH ITALIAN KITCHEN,500 LAKEWOOD BLVD # #8,LAKEWOOD,,,
145,Kopan Sushi & Ramen - Rowland Heights,,"Ramen, Sushi Bars, Noodles",3102.0,4.0,$$,33.9863373,-117.872687,mXUZK-Ik6v5RThqzbcMQGg,KOPAN RAMEN 3,19705 E COLIMA RD STE 9,ROWLAND HEIGHTS,,,
146,Nice China Cafe,,Chinese,132.0,3.5,$,33.790317,-118.330072,UDLL_ng2IJ4h76isNVJSMw,NICE CAFE,2543 PACIFIC COAST HWY STE B,TORRANCE,,,
147,Carnitas Michoacanas,,Mexican,65.0,3.5,$,34.1866949,-118.53638,ILwNsHs7II2_CnvKAL3VTA,CARNITAS MICHOACANAS,18507 VICTORY BLVD,RESEDA,,,
148,,,,,,,,,emAV2KRVv2eySRii3466pg,ATLANTIC TIME SQUARE AMC,450 N ATLANTIC BLVD,MONTEREY PARK,,,
149,Fritzi Coop,,"Chicken Wings, American (Traditional)",285.0,3.5,$$,34.07224,-118.359878,3BcADDsA0RfJT78Af6nzYg,FRITZI COOP,6333 W 3RD ST STE #742,LOS ANGELES,,,
150,Pho Vietnam Kitchen,,Vietnamese,169.0,4.0,$,34.0333123313871,-117.914564944804,oaccLDn4PgfKtoI_ai7Wog,PHO VIETNAM KITCHEN,2351 S AZUSA AVE,WEST COVINA,,,
151,Encore Teppan,,"Teppanyaki, Sushi Bars, Steakhouses",747.0,4.0,$$,34.02331,-117.80983,f98gpdKmvKtHh0-gIEoR0w,ENCORE TEPPAN,23525 E PALOMINO DR,DIAMOND BAR,,,
152,Chul Ga Bang,,"Chinese, Korean",111.0,3.5,$,33.816457,-118.305829,z9YcDpbwBEffAd8zKbcyAg,CHUL GA BANG CHINESE RESTAUR,1585 W SEPULVEDA BLVD STE #D,TORRANCE,,,
153,Mr. Pizza - Little Tokyo,,"Pizza, Desserts, Salad",209.0,3.5,$$,34.0494854003191,-118.239710703492,IqMCl-_fIw5aYdwYUluuDQ,MR PIZZA,350 E 1ST ST,LOS ANGELES,,,
154,,,,,,,,,,MC DONALD'S,101 W COMPTON BLVD,COMPTON,,,
155,Awoolim Kimbap Factory,,Korean,37.0,4.0,$,33.8869728,-118.0826449,dd66eVt-IRZpULy4-hfX6Q,"AWOOLIM, INC.",15933 PIONEER BLVD,NORWALK,,,
156,,,,,,,,,,DENNYS #6826,5142 TRIGGS ST,LOS ANGELES,,,
157,Pronto Pizza,,Pizza,117.0,4.0,$,33.921016,-118.146705,QO7kfs7TeS1YE5oOuph9eA,PRONTO PIZZA,8304 E IMPERIAL HWY,DOWNEY,,,
158,Church's Chicken,,Fast Food,26.0,2.5,$,33.98132,-118.35812,81J85piULXjt8nuo_P8I5A,CHURCH'S FRIED CHICKEN #1004,1500 N LA BREA AVE,INGLEWOOD,,,
159,Country Ranch Market,,Grocery,6.0,3.0,$,34.070213,-118.279273,BCghwTNY5OiaicVdsGnZbA,COUNTRY RANCH MARKET,2800 BEVERLY BLVD,LOS ANGELES,,,
160,Rockies Frozen Yogurt,,"Ice Cream & Frozen Yogurt, Juice Bars & Smoothies, Acai Bowls",209.0,4.5,$,33.9503236,-118.0103195,bD0BxRQG2UexadUZ_3AO2w,ROCKIES FROZEN YOGURT,14748 E WHITTIER BLVD STE #F,WHITTIER,,,
161,Pasta Primavera,,Italian,32.0,3.0,$$,34.04777,-118.25684,ev7IvfF_GsPbNqsT-F9taw,LA PASTA PRIMAVERA,611 W 7TH ST,LOS ANGELES,,,
162,Salathai Thai Cuisine,,Thai,285.0,4.0,$,34.1287207,-118.0729651,t8hUV4G6gITnBtIF8_QYFA,SALATHAI THAI CUISINE,7258 N ROSEMEAD BLVD,SAN GABRIEL,,,
163,La Creme Cafe,,"Modern European, Coffee & Tea, Creperies",188.0,4.0,$,34.0834483520215,-118.350747525692,AHEvVyKMXY0Qdt6xF2yIGg,LA CREME CAFE,7376 MELROSE AVE,LOS ANGELES,,,
164,Farm Boy,,"Farmers Market, Fruits & Veggies",23.0,3.0,$,34.0722,-118.36037,ZO7z1YuJEkozFtxDgalpqg,FARM BOY,6333 W 3RD ST STE 518,LOS ANGELES,,,
165,Jamba Juice,,Juice Bars & Smoothies,52.0,3.0,$,33.8181965,-118.3856367,ZvVGiRE0mnY3jt4IM32RkA,JAMBA JUICE #170,1755 S ELENA AVE,REDONDO BEACH,,,
166,Osaka Seafood Buffet,,"Japanese, Buffets, Dim Sum",351.0,2.5,$$,34.14833,-118.22746,3rWzRz2swLCXZsIpxOfLFA,OSAKA,300 HARVEY DR,GLENDALE,,,
167,El Tarasco,,Mexican,114.0,3.0,$$,33.8814316,-118.3955688,LKAust8DlGHfX6-GPK1pyQ,EL TARASCO #9,350 N SEPULVEDA BLVD STE 2,MANHATTAN BEACH,,,
168,El Fino Mexican food,,"Sports Bars, Mexican, Breakfast & Brunch",36.0,4.0,$,34.09481,-117.86345,b8YIDN_tfJ7MB3w5NQeBBQ,EL FINO RESTAURANT,818 N GLENDORA AVE,COVINA,,,
169,Cocina Los Volcanes,,Mexican,17.0,4.5,,34.06233,-117.7659,mQmcwGwBVIjqUspMRTBaFg,COCINA LOS VOLCANES,937 W HOLT AVE # B,POMONA,,,
170,Renaissance,,American (New),30.0,4.0,$$,34.10461,-118.31898,_NcaStIsQPpn09Daq9U9EQ,RENAISSANCE RESTAURANT,5930 FRANKLIN AVE,LOS ANGELES,,,
171,,,,,,,,,,FRESH DONUT SHOP,134 N GAFFEY ST E E,SAN PEDRO,,,
172,Cafe At The Getty Center,,Cafes,71.0,3.0,$$,34.0778130264411,-118.475676509679,zm3vq1SwB2UNKCu28-SRTA,THE CAFE @ THE GETTY,1200 GETTY CENTER DR,LOS ANGELES,,,
173,Subway,,Sandwiches,47.0,2.0,$,33.8377444,-118.3483363,E1GkbL5iyQ0AN7Tg11Fv8g,SUBWAY #10779,3535 TORRANCE BLVD STE #1,TORRANCE,,,
174,,,,,,,,,Sql438uW-5gE-0YNkrLsSw,FOGATA MEXICANA,2123 N SAN GABRIEL BLVD,ROSEMEAD,,,
175,El Pollo Dorado,,Chicken Shop,35.0,4.0,$,33.9549843,-118.2159267,5g5mMgU3CC5dlf8KtC_DHg,EL POLLO DORADO,3070 FIRESTONE BLVD,SOUTH GATE,,,
176,Yogurtland Los Angeles,,Ice Cream & Frozen Yogurt,187.0,4.0,$,34.073681,-118.376141,2YJ7Ijge4mOA6y2QrWDCXA,YOGURTLAND,8495 W 3RD ST STE B,LOS ANGELES,,,
177,,,,,,,,,vcscZxj_ga5f6A5qBjc41Q,LAVA PIZZA & WINGS,26583 GOLDEN VALLEY RD,SANTA CLARITA,,,
178,Old Time Noodle House,,"Korean, Soup, Chinese",230.0,4.0,$$,33.89249,-118.30947,_EM9p255UUwa-eeaUwZXYA,OLD TIME NOODLE HOUSE,15325 S WESTERN AVE,GARDENA,,,
179,Picosito Mexican Grill,,Mexican,96.0,3.5,$,33.8895049,-118.120118,OFrM_C4Pe-ZboGIupzmuDA,PICOSITO MEXICAN GRILL,10055 E ALONDRA BLVD,BELLFLOWER,,,
180,In-N-Out Burger,,"Fast Food, Burgers",1656.0,4.0,$,34.098217,-118.341707,zo2AEDj10wcFZ3550vEB2A,IN-N-OUT BURGER #102,7009 W SUNSET BLVD,LOS ANGELES,,,
181,Jim's Burgers & Mexican Food,,Mexican,9.0,5.0,$,33.9935493469238,-118.114196777344,9RLh-KlFb0hdbQmSiz19mA,JIM'S BURGERS,524 W WASHINGTON BLVD,MONTEBELLO,,,
182,DC 3 GIFTS & GRILL,,"Breakfast & Brunch, Tacos, American (Traditional)",52.0,4.0,$$,33.4027444,-118.4148578,yidqr-vnoN1Vnz_iLXMatA,DC3 GIFTS & GRILL,1 AIRPORT RD,AVALON,,,
183,,,,,,,,,,MI RANCHITO BAKERY,7335 VAN NUYS BLVD STE 110,VAN NUYS,,,
184,7-Eleven,,"Convenience Stores, Coffee & Tea",6.0,3.0,$,34.0593276065851,-118.26353030654,KymiqYxk10-pvYEfrkJF2g,7- ELEVEN,1463 W 3RD ST,LOS ANGELES,,,
185,Subway,,Sandwiches,48.0,3.0,$,33.85964,-118.048376,jgrqbU7xnmTZFqfABaAs0A,SUBWAY #27131,13311 SOUTH ST,CERRITOS,,,
186,Daikokuya Little Tokyo,,"Ramen, Noodles",8618.0,4.0,$$,34.05008090944,-118.2401804513,iSZpZgVnASwEmlq0DORY2A,DAIKOKUYA,327 E 1ST ST,LOS ANGELES,,,
187,Taco Bell,,"Fast Food, Mexican",49.0,2.0,$,33.989232,-118.226443,gBfaaFFWowEzJWEyFi3_ew,TACO BELL,2543 E SLAUSON AVE,HUNTINGTON PARK,,,
188,Tip Top Mart,,Grocery,38.0,4.0,$,34.10208,-118.10987,dkBh5OHb0fJu3Z3l053PTw,TIP TOP MART,704 W LAS TUNAS DR STE #6,SAN GABRIEL,,,
189,Jamba,,Juice Bars & Smoothies,130.0,3.5,$,34.1018849,-118.3087933,jnFW9DIFLHnLRY9t8V4TXQ,JAMBA JUICE #425,5453 HOLLYWOOD BLVD STE C,LOS ANGELES,,,
190,La Nueva Fuente Restaurant,,Mexican,5.0,2.0,$,34.03731,-118.1937,rZQqaKJWhWNWLt6wXL2J8Q,LA NUEVA FUENTE SEAFOOD,3425 E 1ST ST STE 110,LOS ANGELES,,,
191,Subway,,Sandwiches,17.0,3.5,$,34.2814278694641,-118.45406,6Wnbp9jMHDqyjwYnPbdvaQ,SUBWAY # 41557,14713 RINALDI ST,SAN FERNANDO,,,
192,,,,,,,,,,SUBWAY 46383,1347 W FLORENCE AVE STE #C,LOS ANGELES,,,
193,,,,,,,,,,"HAWARA,REDA DBA",13302 MOORPARK ST,SHERMAN OAKS,,,
194,Panda Express,,"Chinese, Fast Food",122.0,2.5,$,34.2079772228825,-118.50952431136,saXxNw5KJYRzl-0sP3CmYA,PANDA EXPRESS,17276 SATICOY ST,VAN NUYS,,,
195,Jersey Mike's Subs,,"Sandwiches, Fast Food, Delis",180.0,3.5,$,34.061698,-118.444084,e9CQC0ILYwpmdFqhD6XfhA,JERSEY MIKE'S SUBS # 20024B,1020 GLENDON AVE,LOS ANGELES,,,
196,,,,,,,,,,ALBERTSON'S #387 - MEAT DEPT,2035 HILLHURST AVE,LOS ANGELES,,,
197,El Super,,Grocery,51.0,2.5,$,34.0415296,-118.1918935,MKs1nxO-VZwhZ_smPKbpmg,EL SUPER MEAT DEPT,3405 E CESAR E CHAVEZ AVE,LOS ANGELES,,,
198,,,,,,,,,,JUGOS Y BIONICOS TROPICAL,4433 S ALAMEDA ST # AA10,VERNON,,,
199,Irv's Burgers,,"Burgers, Sandwiches",300.0,4.5,$,34.090461,-118.364651,3mZU4RIAXNBwUEVF63bEHQ,IRV'S BURGERS,7998 SANTA MONICA BLVD # C,WEST HOLLYWOOD,,,
200,Bristol Farms - Rolling Hills,,"Grocery, Specialty Food, Beer, Wine & Spirits",95.0,3.0,$$$,33.7695450516354,-118.367757208583,bOhuN781yACD4PnQ8r9Mpg,BRISTOL FARMS MEAT MARKET,837 SILVER SPUR RD # B,ROLLING HILLS ESTATES,,,
201,,,,,,,,,,MAIN BAR,3883 W CENTURY BLVD,INGLEWOOD,,,
202,,,,,,,,,,DOLLAR TREE,13936 IMPERIAL HWY,LA MIRADA,,,
203,Taco Bell,,"Tex-Mex, Fast Food, Mexican",24.0,1.5,$,33.92996,-118.3529,TznY3regJI2ejjAJEx-maw,KFC / TACO BELL,11523 HAWTHORNE BLVD,HAWTHORNE,,,
204,Sweet Lady Jane Bakery,,"Desserts, Breakfast & Brunch, Custom Cakes",1578.0,3.5,$$,34.08336,-118.37237,EdEA0bbfp_TJFqNoZR1mHw,SWEET LADY JANE BAKERY,8360 MELROSE AVE,LOS ANGELES,,,
205,La Michoacana Meat Market,,Meat Shops,2.0,3.0,,33.99481,-118.19172,BD6qtY73imt4SQM0i9egHg,LA MICHOACANA MARKET,4045 E 52ND ST,MAYWOOD,,,
206,Karla's Bar,,Restaurants,2.0,3.0,,34.043927192688,-118.210083693266,CHeDgBa5Ibo_M0mBpDEHEQ,KARLA'S BAR,2327 E 1ST ST,LOS ANGELES,,,
207,Pepperdine University,,Colleges & Universities,84.0,4.0,,34.041404,-118.709581,LuwPPlrXwltV6HhZS2kUIg,PEPPERDINE SCHOOL OF LAW,24255 PACIFIC COAST HWY,MALIBU,,,
208,Helen Grace Chocolates,,"Candy Stores, Desserts",16.0,3.5,$$,33.9313163757324,-118.212211608887,1TVurOwgwjEENkSe5aqK9Q,HELEN GRACE CHOCOLATES,11123 LONG BEACH BLVD # #8,LYNWOOD,,,
209,,,,,,,,,,ELKS CLUB,12507 E CARSON ST,HAWAIIAN GARDENS,,,
210,,,,,,,,,,RAHA DISCOUNT INC,3321 HYDE PARK BLVD,LOS ANGELES,,,
211,Royal Dragon Chinese Restaurant,,Chinese,15.0,3.0,$,34.2012049,-118.5929593,eszwoyiEGhnT-cryYntpig,ROYAL DRAGON,21101 SHERMAN WAY,CANOGA PARK,,,
212,My Thai,,"Thai, Seafood, Barbeque",239.0,3.5,$$,34.257024,-118.602353,RsGcW7NRWhVUA_rXIWT_0g,MY THAI,21714 DEVONSHIRE ST,CHATSWORTH,,,
213,Ralph's,,Grocery,113.0,3.5,$$,34.2223332,-118.2367438,4AUgHUd8GDrjtyRDs-OFbw,RALPH'S MEAT DEPT,2675 FOOTHILL BLVD,LA CRESCENTA,,,
214,dd's DISCOUNTS,,"Discount Store, Women's Clothing, Home Decor",24.0,2.5,$,34.051929,-117.953243,csn_YK6kBCb00SWj-RITrQ,DD'S DISCOUNTS #5047,1200 W FRANCISQUITO AVE A,WEST COVINA,,,
215,26 Beach Restaurant,,"American (New), Burgers, Breakfast & Brunch",3152.0,4.0,$$,33.989641,-118.449897,Lo6xNbL1SDd8JIqTNLGtlQ,26 BEACH RESTAURANT,3100 WASHINGTON BLVD,VENICE,,,
216,Brownstone LA,,Caribbean,264.0,4.0,$$,34.04815,-118.34752,FtpU4pOhC80Y6egjoMDUiA,BROWNSTONE BISTRO,5047 W PICO BLVD,LOS ANGELES,,,
217,Arco Highland Smog Pros,,Smog Check Stations,283.0,4.5,,34.15734,-118.27754,dvfLACL4_nb7Ri_DLn21Lg,HIGHLAND ARCO SMOG,5800 SAN FERNANDO RD,GLENDALE,,,
218,Literati Cafe,,"Coffee & Tea, American (Traditional), Cafes",1225.0,3.5,$$,34.04448,-118.46749,KlELKhkxoL2ZZqsolXuEhg,LITERATI CAFE,12081 WILSHIRE BLVD,LOS ANGELES,,,
219,,,,,,,,,,GUCKENHEIMER@JUSTFAB,800 APOLLO ST,EL SEGUNDO,,,
