,name,address,categories,review_count,rating,price,latitude_yelp,longitude_yelp,yelp_id,program_name,facility_address,facility_city,latitude,longitude,hours
0,7-Eleven,,Convenience Stores,3.0,5.0,,34.03306,-118.2999,s0azl-UfmdBRvVu4AQ_67g,7-ELEVEN STORE - 39807A,1691 W ADAMS BLVD,LOS ANGELES,,,
1,,,,,,,,,,DISTRIC MARKET,317 S BROADWAY ST # 25,LOS ANGELES,,,
2,Azteca Mexican,,Mexican,1.0,4.0,,34.6007846543817,-118.140118941665,ZxZV0frPOcL9I535iRycRQ,AZTECA MEXICAN RESTAURANT,550 W RANCHO VISTA BLVD,PALMDALE,,,
3,Oceana Seafood,,Seafood,49.0,4.0,$$,34.0257771,-118.2841401,WcYCPSe3WaIggnsz5NnRgw,OCEANA SEAFOOD,3201 S HOOVER ST # 1845,LOS ANGELES,,,
4,,,,,,,,,,SHAWNS LIQUOR MARKET,6101 AVALON BLVD,LOS ANGELES,,,
5,"Fatto a Mano, The Pasta Shop",,"Pasta Shops, Pizza, Italian",511.0,4.5,$$,33.83734983,-118.381385,pdkhgRUIjcBGJUyemWJCsw,FATTO A MANO THE PASTA SHOP,610 TORRANCE BLVD,REDONDO BEACH,,,
6,Vallarta Supermarkets,,Grocery,80.0,3.5,,34.218177,-118.606982,oFuIZtdiRFyBAJgcr6U4Cg,VALLARTA SUPERMARKET #112 - ISLA,8201 TOPANGA CANYON BLVD,CANOGA PARK,,,
7,The Cake House,,"Custom Cakes, Bakeries, Desserts",27.0,4.5,,34.16791333,-118.60006667,GPAqp_0mPWXeEff_p2R0OQ,THE CAKE HOUSE,21606 VENTURA BLVD,WOODLAND HILLS,,,
8,,,,,,,,,,GNCK VITAMIN,1315 S GRAND AVE UNIT 100,GLENDORA,,,
9,SuKarne - Premium Meats,,Meat Shops,3.0,5.0,,34.0184679,-118.1474558,vKBAv-8pT4DGezqFSAC3zg,SUKARNE,5729 WHITTIER BLVD,LOS ANGELES,,,
10,Potato Hut,,"Fast Food, Chicken Wings",15.0,4.0,,34.41398,-118.55664,n2vCXTjIHRkaMn6ZH0uDHA,POTATO HUT,24201 VALENCIA BLVD # 9010,VALENCIA,,,
11,Fruta Mania,,"Juice Bars & Smoothies, Sandwiches",13.0,4.0,$,34.0118141382985,-117.924515477139,2lBc9SQCP3Wy3khThUdUoQ,FRUTA MANIA,591 S AZUSA,LA PUENTE,,,
12,,,,,,,,,,BON APPETTIT DELI & CAFE,1801 CENTURY PARK STE 660,LOS ANGELES,,,
13,,,,,,,,,,YIMOYA CATERING INC.,3510 S BROADWAY STRA,LOS ANGELES,,,
14,Korean Red Ginseng,,Herbs & Spices,3.0,4.5,,34.0529,-118.29548,XKheJrJ5PbTzcwPFSV8-pw,"JUNG KWAN JANG / PREMIUM GINSENG SOLUTIONS, INC.",2837 W OLYMPIC BLVD # B,LOS ANGELES,,,
15,Frostbites Crepes & Frozen Delights,,"Desserts, Ice Cream & Frozen Yogurt, Creperies",299.0,4.5,$,33.8327005,-118.352557,mZG0xAQYy3lFKESgxsv9Fg,FROSTBITES CREPES & FROZEN DELIGHTS,21540 HAWTHORNE BLVD # 520B,TORRANCE,,,
16,,,,,,,,,,WESTERN REFINING RETAIL,3820 SIERRA HWY,ACTON,,,
17,,,,,,,,,,FUEGO SECOND STREET PROMENADE,205 E SECOND ST,POMONA,,,
18,,,,,,,,,,CJ'S URBAN CAFE,1015 S CROCKER ST,LOS ANGELES,,,
19,Hilton Garden Inn Arcadia/Pasadena Area,,Hotels,96.0,3.0,$$,34.1418499059704,-118.02581979895,HKm5a6BzeO7OjDOHO3ix8Q,HILTON GARDEN INN,199 N 2ND AVE,ARCADIA,,,
20,Earthen Restaurant,,"Chinese, Taiwanese, Korean",903.0,4.0,$$,33.9923787372682,-117.93333604815,TXsw3t4AzSoUsMHI4XmOLQ,EARTHEN CHINESE RESTAURANT,1639 S AZUSA AVE,HACIENDA HEIGHTS,,,
21,,,,,,,,,,HONEYBEE BURGER,1820 N VERMONT AVE,LOS ANGELES,,,
22,Lupita's Mexican Restaurant,,Mexican,136.0,3.5,$,34.07644,-118.15275,R693BuBNgTxUZk2pVEbr6A,LUPITA MEXICAN FOOD,2620 W VALLEY BLVD,ALHAMBRA,,,
23,Shiso Sushi Bar,,Sushi Bars,71.0,4.5,$$,34.20871117,-118.388177,xkcVzl5WFp4GkKefEAI27g,SHISO SUSHI BAR,11713 SATICOY ST,NORTH HOLLYWOOD,,,
24,Brewin’ Coffee,,"Coffee & Tea, Bakeries, Donuts",20.0,4.5,,34.059917,-118.444829,hUnt9K7Ir1V7X5go5SKBiA,BREWIN' COFFEE,1145 WESTWOOD BLVD,LOS ANGELES,,,
25,Mizlala,,"Falafel, Middle Eastern",320.0,4.5,$$,34.03221,-118.36072,DYmSjWNUbU5tyo_gQ7PO5g,MIZLALA,5400 W ADAMS BLVD,LOS ANGELES,,,
26,Waffa's Kitchen,,Mediterranean,418.0,4.5,$$,34.1361449,-117.8675673,6OczaGrXa9z15wtmd5DU8A,WAFFAS MEDITERREAN KITCHEN,221 W FOOTHILL BLVD,GLENDORA,,,
27,Town Hof and Thanks Chicken,,"Chicken Shop, Korean, Beer Bar",20.0,5.0,$$,34.04933,-118.30859,9T2siQj4ET92dQ_XGae71g,TOWN HOF RESTAURANT,1144 S WESTERN AVE STE 107,LOS ANGELES,,,
28,Thai By Trio,,Thai,153.0,4.0,$$,34.02688,-118.27618,4lf6VPVwHR92favXJfpvlQ,THAI BY TRIO,2700 S FIGUEROA ST,LOS ANGELES,,,
29,Farm District Marketplace,,"Health Markets, Sushi Bars, Pizza",73.0,4.5,,34.1510325407697,-118.25617980212,wOgEqebC6w_jGqYzrIcs6Q,FARM DISTRICT MARTKETPLACE,328 N ORANGE ST,GLENDALE,,,
30,,,,,,,,,,ESTRELLA #1,7825 STATE ST,HUNTINGTON PARK,,,
31,,,,,,,,,,GOOD FORTUNE SUPERMARKET,13321 ARTESIA BLVD,CERRITOS,,,
32,Angry Chickz,,"Southern, Comfort Food, Chicken Shop",927.0,4.5,$$,34.102039,-118.299858,mcHP3IfI1b7bXJZKD6PLHA,ANGRY BIRDZ CHICKEN,5065 HOLLYWOOD BLVD # 102,LOS ANGELES,,,
33,,,,,,,,,,SHELL-WESTERN REFINING RETAIL LLC #68624,911 W CARSON PKWY,TORRANCE,,,
34,Boba Ave 8090,,"Coffee & Tea, Bubble Tea, Juice Bars & Smoothies",898.0,3.5,$,34.07763,-118.10085,-BmmTYy7fuk5YcpqZMPVHg,BOBA AVE 8090,140 W VALLEY BLVD # 118B,SAN GABRIEL,,,
35,KIIN Thai Eatery,,"Thai, Asian Fusion",352.0,4.0,$$,34.1741144,-118.3290761,Y_wDxXYPBfzjmVgFrnxN6Q,SIAM SMILE THAI RESTAURANT,1907 1/2 W MAGNOLIA BLVD,BURBANK,,,
36,,,,,,,,,,DISTRIBUIDORA INDEPENDIENTE YOUNGEVITY,7212 PACIFIC BLVD STE A,WALNUT PARK,,,
37,,,,,,,,,,LITTLE WEST SHOP,342 S LA BREA AVE,LOS ANGELES,,,
38,Kreation Organic Juicery,,Juice Bars & Smoothies,37.0,3.0,$$,34.09272,-118.3383,D3O9dMsEAutTZ_-MTAkQWQ,KREATION 719,1200 N HIGHLAND AVE,LOS ANGELES,,,
39,Homestyle Donuts,,"Coffee & Tea, Donuts, Bagels",32.0,4.0,$,33.9490192,-118.0895904,W8DsqoMV_sZg5byBnS7i6Q,HOMESTYLE DONUTS,11425 TELEGRAPH RD,SANTA FE SPRINGS,,,
40,,,,,,,,,,BIBI'S BAKERY AND CAFE,5450 W PICO BLVD # 204,LOS ANGELES,,,
41,The Poke Co & Wings,,"Poke, Hawaiian, Bubble Tea",168.0,4.5,$$,34.11327,-117.82827,RCHOrzIrBmrvJ0rfUIgSrQ,THE POKE CO & WINGS,1046 W GLADSTONE ST,SAN DIMAS,,,
42,The Walk in Closet,,"Used, Vintage & Consignment, Thrift Stores",14.0,4.5,$,33.9372061329819,-118.3266141988,76FqSjtWiEd0HLFpGI6rqA,THE WALK IN CLOSET,13430 CRENSHAW BLVD,GARDENA,,,
43,PokeCeviche,,"Poke, Seafood, Asian Fusion",30.0,4.5,,34.00075167,-118.48215567,WNP4OspDeyQ7AxW9sLoiwA,POKE CEVICHE,2715 MAIN ST,SANTA MONICA,,,
44,Compagnon Wine Bistro,,"French, Wine Bars",203.0,4.5,$$,33.737706,-118.284469,8VSgnSrawlzC7uO4CQgz_A,COMPAGNON WINE BISTRO,335 W 7TH ST,SAN PEDRO,,,
45,La Michoacana USA,,Ice Cream & Frozen Yogurt,9.0,3.0,,33.9041473307871,-118.084529808158,QwmKZlSWhCbApVfzLkwFYw,LA ORIGINAL MICHOACANA USA,11689 THE PLAZA,NORWALK,,,
46,Temple City Shell,,"Gas Stations, Convenience Stores",5.0,3.5,$$,34.0990295410156,-118.075531005859,-eq_FIa9xnYAWa-i4I5Qhg,TEMPLE CITY SHELL #415,9010 BROADWAY,TEMPLE CITY,,,
47,Dot & Dough,,"Donuts, Bakeries, Desserts",417.0,4.0,$,34.06402,-118.134654,8_PRFw9NM0vP6hC7WSpEpQ,DOT & DOUGH,141 N ATLANTIC BLVD STE 102,MONTEREY PARK,,,
48,,,,,,,,,,MAYFAIR HOTEL - SPEAK EASY BAR (2ND FLOOR),1256 W 7TH ST,LOS ANGELES,,,
49,Santa Monica Shell,,"Gas Stations, Convenience Stores",66.0,2.5,$$,34.0445324587418,-118.453383520246,1KGuVgsj313gumJbYism1w,SANTA MONICA DISCOUNT STORE,11550 SANTA MONICA BLVD,LOS ANGELES,,,
50,Sunshine Cafe & Grill,,"Sandwiches, Burgers, Pizza",77.0,3.0,$$,34.0293810715005,-118.479553419574,Xw5PU2tRo3_llQX-OJRNvw,SUNSHINE CAFE & GRILL,2021 SANTA MONICA BLVD # 1036,SANTA MONICA,,,
51,Wingstop,,Chicken Wings,261.0,3.0,$$,33.87204,-118.32684,h5TxrOPPe4MRJ1OnTE-zUg,WINGSTOP,17419 CRENSHAW BLVD,TORRANCE,,,
52,King Palace Buffet,,Buffets,341.0,2.0,$$,33.9015957219522,-118.11022632982,zqLicKLLXP6EIAvuhtqoJw,KYUSHU BUFFET,10460 ROSECRANS AVE,BELLFLOWER,,,
53,Daniel's Tacos,,Mexican,29.0,2.5,,34.273599,-118.39507,s2fW0uy0dVclBw4Faa3AUQ,DANIEL'S TACOS,11840 FOOTHILL BLVD # C,SYLMAR,,,
54,Rocco's WeHo,,Pizza,220.0,3.5,$$,34.0844,-118.38415,CzTP4j7V4MaFQkuf2wsrkw,ROCCO'S,8900 SANTA MONICA BLVD,WEST HOLLYWOOD,,,
55,Baskin-Robbins,,"Ice Cream & Frozen Yogurt, Desserts, Custom Cakes",43.0,4.0,$,34.169276637961,-118.605481265366,Q4UC9lg9tJnjDI39WT9WEg,BASKIN ROBBINS # 32167,5424 TOPANGA BLVD,WOODLAND HILLS,,,
56,,,,,,,,,,TEA20,14540 RAMONA BLVD # 111,BALDWIN PARK,,,
57,,,,,,,,,,TAG'S MART,3820 CRENSHAW BLVD,LOS ANGELES,,,
58,Tutti Frutti Frozen Yogurt,,Ice Cream & Frozen Yogurt,42.0,3.5,$,34.4168930346553,-118.475870154798,WodaEOSZv0kl0Quli0HKPw,TUTTI FRUTTI,19401 SOLEDAD CANYON RD,CANYON COUNTRY,,,
59,Fatburger,,"Burgers, Fast Food, American (Traditional)",137.0,3.5,$$,34.1370582397355,-118.363675738701,QhL3wpz0dlC1LWfa5vrVGA,FATBURGER,10600 VENTURA BLVD,STUDIO CITY,,,
60,El Cafecito,,"Desserts, Coffee & Tea, Custom Cakes",14.0,4.5,,33.98792,-118.19585,ulY53hZjCq0zstiRTp7E1Q,EL CAFECITO BY CAKES B&G,3820 SLAUSON AVE STE E,MAYWOOD,,,
61,Brownstone LA,,Caribbean,264.0,4.0,$$,34.04815,-118.34752,FtpU4pOhC80Y6egjoMDUiA,BROWNSTONE LA,5047 W PICO BLVD,LOS ANGELES,,,
62,,,,,,,,,,WESTERN REFINING RETAIL LLC STORE #63010 (6383),1700 W WHITTIER BLVD,MONTEBELLO,,,
63,Boba Bistro,,"Bubble Tea, Juice Bars & Smoothies, Ice Cream & Frozen Yogurt",136.0,4.0,$,34.4158407,-118.4534043,tQkjmvcuDLZar34KXJ768Q,RYAN'S BISTRO & BOBA HOUSE,18344 SOLEDAD CANYON RD,CANYON COUNTRY,,,
64,Josefinas delicious kitchen,,Mexican,2.0,2.5,,34.09009,-117.93374,_yzXNIogWytb5pFM4ZGwig,JOSEFINAS DELICIOUS KITCHEN,15955 E SAN BERNARDINO RD,COVINA,,,
65,,,,,,,,,,SAN JUDITAS,2950 TWEEDY BLVD,SOUTH GATE,,,
66,La Catrina Cafe,,"Cafes, Mexican, Sandwiches",6.0,5.0,,34.03441,-118.21656,uZiQv3WJkwEUU5pGlcef0Q,LA CATRINA CAFE,2310 WHITTIER BLVD,LOS ANGELES,,,
67,Boba Ave,,Bubble Tea,648.0,4.0,$,34.040253,-118.143423,7SzKYGpwdzVpaDj53qCXug,BOBA AVE EXPRESS,2089 S ATLANTIC BLVD # A,MONTEREY PARK,,,
68,AC Hotel Beverly Hills,,Hotels,47.0,3.0,$$$,34.06412,-118.368,ghBiGj6YyVNhQ8TCF9v3Sw,MARRIOTT AC HOTEL - 11TH FLOOR LOUNGE,6399 WILSHIRE BLVD,LOS ANGELES,,,
69,,,,,,,,,,CLUCK TO GO,1220 S DIAMOND BAR BLVD # C,DIAMOND BAR,,,
70,Heektea,,"Juice Bars & Smoothies, Tea Rooms",61.0,4.0,$,33.8895074,-118.3056207,BEoONOf7-93eRK9JBlitCA,HEEKTEA,1610 W REDONDO BEACH BLVD STE 12B,GARDENA,,,
71,Target,,"Department Stores, Furniture Stores, Electronics",98.0,3.0,$$,34.04353,-118.456571,OXAuEet0qXlPF7pv5m1ybA,TARGET - STARBUCKS,11800 W SANTA MONICA BLVD,LOS ANGELES,,,
72,Dunkin',,"Coffee & Tea, Donuts",133.0,3.5,$,34.16817,-118.60665,zRWo2peeBXlQ-hioe7A7Ng,DUNKIN',22020 VENTURA BLVD,WOODLAND HILLS,,,
73,Kai Ramen - Sherman Oaks,,"Ramen, Soup",884.0,4.5,$$,34.152674,-118.461213,1yKPHQU_vqGJIzDuCXdGVg,KAI RAMEN,15030 VENTURA BLVD # 23,SHERMAN OAKS,,,
74,Go Cakes,,"Bakeries, Custom Cakes, Coffee & Tea",62.0,4.5,,34.12217583,-118.10417667,EFn-dAq-mD74DgJCdXwIxw,GO CAKES,2322 HUNTINGTON DR,SAN MARINO,,,
75,Fatburger,,"Fast Food, Burgers",146.0,3.0,$,33.98602,-118.43984,sMy4FA9VMieAVdGIwniNFw,FATBURGER,4325 GLENCOE AVE,MARINA DEL REY,,,
76,Do Eat Express,,Chinese,2.0,3.0,,34.09092,-118.013418,y-X0sg0bDiUv6_wSdkfYAg,DO EAT EXPRESS,11629 LOWER AZUSA RD STE B,EL MONTE,,,
77,Office Max,,"Office Equipment, Printing Services, IT Services & Computer Repair",67.0,3.5,$$,33.8484802246094,-118.143562316895,wdTmDZ4KMkUXEgozMmO5MQ,OFFICE MAX,4949 LAKEWOOD BLVD,LAKEWOOD,,,
78,Veronica's Kitchen,,African,197.0,4.0,$$,33.9612,-118.34977,o9v7QpQcBwdvFIPdUJxkOA,VERONICA'S KITCHEN,401 E HILLCREST BLVD,INGLEWOOD,,,
79,ST. ANNE'S,,"American (New), Cocktail Bars, Tapas/Small Plates",627.0,4.5,$$,34.16464,-118.37261,A_POQGBp5WYOaDTI-lNbkA,ST. ANNE'S RESTAURANT & BAR,11102 MAGNOLIA BLVD,NORTH HOLLYWOOD,,,
80,7-Eleven,,"Convenience Stores, Coffee & Tea",6.0,1.5,$,34.5731,-118.07677,abXCEzC35zzcgE5JoyKcDg,7-ELEVEN #15127-6-2171,2873 E AVENUE R,PALMDALE,,,
81,Tiki Shack,,"Shaved Ice, Hot Dogs",7.0,4.5,,34.03353,-118.18647,L2BYlJq64sg04LGqAQEH2w,TIKI SHACK,3787 E 3RD ST,LOS ANGELES,,,
82,Honey & Bacon Coffee House,,"Coffee & Tea, Breakfast & Brunch",46.0,5.0,$,34.0833851,-118.309775,MLfK8j3rBYwY96pwFkQZvA,HONEY & BACON,5016 MELROSE AVE,LOS ANGELES,,,
83,,,,,,,,,,UNITED PACIFIC #0224,4680 LINCOLN BLVD,MARINA DEL REY,,,
84,Isa Japanese Ramen,,"Japanese Curry, Ramen, Sushi Bars",550.0,3.5,$$,34.058366,-118.345352,qFrf07hCiae6vUoaocyQJQ,ISA JAPANESE RESTAURANT RAMEN,916 S LA BREA AVE,LOS ANGELES,,,
85,La Carniceria - Bellflower,,Meat Shops,140.0,4.5,,33.88963,-118.13658,XEEDhLqRpFxLD5IOu8heiA,LA CARNICERIA,9251 ALONDRA BLVD # E,BELLFLOWER,,,
86,,,,,,,,,,DAN'S MINI MART,11100 S VERMONT AVE BLDG 1,LOS ANGELES,,,
87,,,,,,,,,,FLYING J TRAVEL CENTER - PJ FRESH,42810 FRAZIER MOUNTAIN RD,LEBEC,,,
88,Cafe Buna,,"Coffee & Tea, Breakfast & Brunch, Juice Bars & Smoothies",1019.0,4.0,$$,33.98316567,-118.45963483,Y9wMzacINQ1Rm44vKpC-4Q,CAFE BUNA,552 WASHINGTON BLVD,MARINA DEL REY,,,
89,The Garlic Crab,,"Seafood, Cajun/Creole, Sports Bars",598.0,3.0,$$,34.070314,-117.922581,TjpKHX0QlO6QOa0yer3U_A,THE GARLIC CRAB & PHO FILET,1230 LAKES DR # 107,WEST COVINA,,,
90,7-Eleven,,"Coffee & Tea, Convenience Stores",3.0,3.0,,34.03893,-118.26865,iWUXv6HfDOwonvHS3Nm_Bw,7- ELEVEN  STORE 38456H,1360 S FIGUEROA ST # C,LOS ANGELES,,,
91,Chop Stop,,"Salad, Wraps, Vegan",45.0,4.0,,34.2235668,-118.5024951,sjp5IvLpEVPEjeGqVWsdzA,CHOP STOP,8440 BALBOA BLVD # 104,NORTHRIDGE,,,
92,Jazmin's Mexican Food,,Mexican,68.0,4.0,,34.45998267,-118.51086583,uodEqyY3Lh1xPkL5NPM_mA,JAZMIN'S MEXICAN FOOD,28440 HASKELL CANYON RD,SANTA CLARITA,,,
93,Rio’s Pizza,,"Pizza, Salad, Sandwiches",105.0,4.0,$$,34.04593,-118.031038,NLPktPK4JI54L_kI4YcA9w,RIO'S PIZZA,1949 DURFEE AVE,SOUTH EL MONTE,,,
94,HomeGoods,,"Furniture Stores, Home Decor",22.0,4.0,,33.86895,-118.05786,iRinzDzGGkzvDshoXvFmdg,HOMEGOODS #0813,12865 TOWNE CENTER DR,CERRITOS,,,
95,,,,,,,,,,LATAPACHULTECA - MEAT DEPT,8640 VAN NUYS BLVD,PANORAMA CITY,,,
96,Subway,,Sandwiches,64.0,3.0,$,34.286245443541546,-118.500730676207,Qmnwq9-KhRydlurT8zmPRQ,SUBWAY,11878 BALBOA BLVD,GRANADA HILLS,,,
97,,,,,,,,,,SMART CHOICE SUPERMARKET - TASTE OF BENGAL,15933 PIONEER BLVD,NORWALK,,,
98,Beaming Organic Superfood Café,,"Juice Bars & Smoothies, Acai Bowls, Waffles",80.0,4.0,$$,34.059935,-118.419068,js8C037RkvYP2wSkAFfhLw,BEAMING,10250 SANTA MONICA BLVD STE 1705,LOS ANGELES,,,
99,Yummy Cuisine,,"Cantonese, Chicken Wings",29.0,3.5,,34.067283,-118.134855,MK-RV8iSteM7W9kDt4lZ6A,YUMMY CUISINE,421 N ATLANTIC BLVD STE 108,MONTEREY PARK,,,
100,Ceviche Project,,"Latin American, Seafood, Bars",68.0,4.5,,34.10507,-118.27285483,sYXSgqcBUHtcACUkh3JuQA,CEVICHE PROJECT,2524 1/2 HYPERION AVE,LOS ANGELES,,,
101,Mikawaya,,"Desserts, Ice Cream & Frozen Yogurt, Gelato",1523.0,4.0,$,34.0491112321615,-118.239705339074,3vUCCWRzk6WzkmCNvAECWg,MIKAWAYA MOCHI ICE CREAM,118 JAPANESE VILLAGE PLAZA MALL,LOS ANGELES,,,
102,XL Restaurants,,"Venues & Event Spaces, Steakhouses, American (Traditional)",40.0,4.0,$$$,34.14288,-118.75708,S0of6RIfAc0-fLyeWVmp0A,XL RESTAURANT,29020 AGOURA RD UNIT A-14,AGOURA HILLS,,,
103,ahipoki bowl,,"Seafood, Poke",146.0,4.0,$$,34.1160891702714,-117.834504355717,STzXH4UwBi6ZPgWqQB5B_A,AHIPOKI,1377 E GLADSTONE ST # 102,GLENDORA,,,
104,Supercool Creamery,,"Ice Cream & Frozen Yogurt, Desserts",77.0,5.0,$$,34.0982826150215,-118.28691791743,HcfSWGmIrOf_Qf2U5xyv5g,SUPERCOOL CREAMERY,4469 SUNSET DR,LOS ANGELES,,,
105,Wetzel's Pretzels,,Pretzels,30.0,2.5,$,33.8532,-118.1424,2HeOo7vZx3-t3YLAPLXpWg,WETZEL'S PRETZELS,500 LAKEWOOD CENTER MALL SPC AC16C,LAKEWOOD,,,
106,Kung Fu Tea,,"Bubble Tea, Juice Bars & Smoothies, Coffee & Tea",90.0,4.0,$,33.77986,-118.30894,SrepG9G_yBjonPexyNVeDA,KUNGFU TEA,26640 WESTERN AVE N,HARBOR CITY,,,
107,California Roll Factory,,"Sushi Bars, Japanese",671.0,4.0,$$,34.044514,-118.454965,B_gAphcftlAoLKNk3Epmaw,CALIFORNIA ROLL FACTORYAC,11629 SANTA MONICA BLVD,LOS ANGELES,,,
108,LA Pizza Shop,,Pizza,8.0,3.0,,34.07884,-117.9889,zMtBJJ3i4g7Lk1RPcc342A,L.A. PIZZA SHOP 2,13020 FRANCISQUITO AVE STE 18,BALDWIN PARK,,,
109,Jeje Chicken - North Hollywood,,"Mediterranean, Halal, Kebab",100.0,4.5,,34.165764,-118.37476,ufbhtbGcHt4rraT0OmTBNw,JEJE CHICKEN,5230 LANKERSHIM BLVD,NORTH HOLLYWOOD,,,
110,Humble Chef,,"Chinese, Halal, Indian",14.0,5.0,,34.20156,-118.54437,FS0eUBnlJsQdtX7sZ5XnGw,HUMBLE CHEF,18845 SHERMAN WAY # D,RESEDA,,,
111,Crave Cafe,,"Cafes, Salad, Breakfast & Brunch",402.0,3.0,$$,34.1935651,-118.6273949,73Wdfs2wOBmzxfOxHgnDsw,CRAVE CAFE WEST HILLS,22950 VANOWEN ST # E,WEST HILLS,,,
112,Subway,,Sandwiches,68.0,2.5,$,33.9174173647838,-118.070355653028,od0Us_A2FfNXUMQR1SXuGw,SUBWAY #2639,12301 IMPERIAL HWY,NORWALK,,,
113,,,,,,,,,,LIFE CAFE,6401 CANOGA AVE,WOODLAND HILLS,,,
114,TronicsXchange Arcadia,,"Electronics, Electronics Repair, Mobile Phone Repair",14.0,4.5,$$,34.1353874206543,-118.052421569824,rtFWPJkUV_8AnZDZhaUqfw,SNOW FOX ARCADIA 2,400 S BALDWIN AVE # FC7,ARCADIA,,,
115,ampm,,Gas Stations,19.0,2.5,,34.026488,-118.408994,nW1ycvpy4TtwCrFe_HRNEg,ARCO AMPM 42148,3479 E MOTOR AVE,LOS ANGELES,,,
116,Burlington Coat Factory,,"Shoe Stores, Accessories, Women's Clothing",34.0,3.0,$,33.9932198775423,-117.926862535057,sNlandUjDQAjwRxbOIzOKg,BURLINGTON COAT FACTORY,1600 AZUSA DR SPAC 250,INDUSTRY,,,
117,AHI Hawaiian BBQ,,"Hawaiian, Barbeque, Juice Bars & Smoothies",84.0,4.5,,34.0748525,-117.89158267,lyN1RDAffXpjfW7tLHfGAQ,AHI HAWAIIAN BBQ,2532 E WORKMAN AVE,WEST COVINA,,,
118,Super King Markets,,"Butcher, Grocery, Beer, Wine & Spirits",49.0,2.5,,34.1670438710772,-118.291573561728,cx6wgfF9OtZIB56r7Y2NjA,SUPER KING MARKET,6501 SAN FERNANDO RD,GLENDALE,,,
119,,,,,,,,,,RC MEAT MARKET,3124 E GAGE AVE,HUNTINGTON PARK,,,
120,Gengis Khan,,Mongolian,28.0,4.0,,34.146154,-118.25818,cNS2RHnzhK6aCH9MXG6I4g,GENGIS KHAN,3213 GLENDALE GALLERIA SPC LU01,GLENDALE,,,
121,Ono Hawaiian BBQ,,"Hawaiian, Barbeque, Seafood",66.0,3.0,$$,34.1823501,-118.4663049,lwvTRgQIsC5u73C45QkAEA,ONO HAWAIIAN BBQ,6171 SEPULVEDA BLVD # A-4,VAN NUYS,,,
122,,,,,,,,,,SONGHAK,356 S WESTERN AVE #201 &202,LOS ANGELES,,,
123,Chick-fil-A,,Fast Food,102.0,3.0,$,34.00145,-118.08327,AYIVoKkr6hagHUBKHkJHug,CHICK-FIL-A AT WHITTIER,9001 WHITTIER BLVD,PICO RIVERA,,,
124,Vallarta Supermarkets,,Grocery,80.0,3.5,,34.218177,-118.606982,oFuIZtdiRFyBAJgcr6U4Cg,VALLARTA SUPERMARKET #112 - MEAT/SEAFOOD,8201 TOPANGA CANYON BLVD,CANOGA PARK,,,
125,Jews For Jesus,,Community Service/Non-Profit,4.0,4.0,,34.0634,-118.4475,3ZSAY6KKvsNqVE8zAtcy5w,JEWS FOR JESUS,10962 LE CONTE AVE,LOS ANGELES,,,
126,Baskin-Robbins,,"Ice Cream & Frozen Yogurt, Desserts, Custom Cakes",27.0,4.0,$,34.3794153,-118.5436704,brkJWU4whvr_8Gls-JueeA,BASKIN ROBBINS,23432 LYONS AVE,NEWHALL,,,
127,Frankielucy Bakeshop,,"Coffee & Tea, Bakeries, Desserts",440.0,4.5,$,34.084792,-118.274807,ESDQZ5DiXAE9Cexq39tOpQ,FRANKIELUCY BAKESHOP,3116 1/2 SUNSET BLVD,LOS ANGELES,,,
128,Paradise Crawfish,,Cajun/Creole,48.0,4.5,$$,33.8732836500729,-118.114668130875,cv05gcQrrok3lS6ZG0QRKQ,PARADISE CRAWFISH,10301 ARTESIA BLVD # 104,BELLFLOWER,,,
129,Dim Sum House,,Dim Sum,98.0,3.0,$$,34.04921,-118.43591,Kl1vjsn01mAqIyvKH-Omxg,DIM SUM HOUSE,1822 WESTWOOD BLVD,LOS ANGELES,,,
130,Civitas Coffee,,"Coffee & Tea, Bakeries, Kombucha",170.0,5.0,$,33.9023351,-118.0282428,is4heq_6pmiwr1XuV9Zdkg,CIVITAS COFFEE CO,14218 1/2 ROSECRANS AVE,LA MIRADA,,,
131,Galletas Delight,,Ice Cream & Frozen Yogurt,33.0,4.5,,34.146426,-118.254411,2lh69SjGcEepHuKXDRaAgg,GALLETAS DELIGHT,109 E BROADWAY,GLENDALE,,,
132,,,,,,,,,,UNITED PACIFIC # 0211,5356 CANOGA AVE,WOODLAND HILLS,,,
133,,,,,,,,,,TAYTU MINI MART,4379 W PICO BLVD UNIT 1,LOS ANGELES,,,
134,,,,,,,,,,ROSITA'S MINI MARKET,1320 E 41ST ST,LOS ANGELES,,,
135,Target,,"Department Stores, Electronics, Furniture Stores",360.0,3.0,$$,34.141668,-118.224336,QXG6t2VPjSqTVvT6OUYEVA,TARGET-STARBUCKS (2ND LEVEL),2626 COLORADO BLVD,LOS ANGELES,,,
136,Asaka Sushi & Grill,,"Japanese, Sushi Bars",415.0,4.0,$$,33.8162803649902,-118.386611938477,JmtZXa6GjpUaqdUb_oKLBg,ASAKA SUSHI,1870 S ELENA AVE UNIT 103,REDONDO BEACH,,,
137,Bangla Bazar & Restaurant,,"Bangladeshi, Halal, Indian",61.0,3.5,$,34.0689426708466,-118.305842243135,svZZxiVPaOLLjjt0aPdggQ,LA BANGLA BAZAR,4209 W 3RD ST,LOS ANGELES,,,
138,,,,,,,,,,UNITED PACIFIC# 0248,5116 CHESEBRO RD,AGOURA HILLS,,,
139,BurgerIM,,"American (Traditional), Burgers, Chicken Wings",80.0,3.5,$$,34.1559701577,-118.346220989,5v2O-b6OXFjIw1ZuJQhNRQ,BURGERIM,353 N PASS AVE # D,BURBANK,,,
140,,,,,,,,,,5 STAR TOMBO LOCO RESTAURANT,4103 BEVERLY BLVD,LOS ANGELES,,,
141,Circle K,,Convenience Stores,6.0,2.5,$,34.0918388,-117.9743118,HG6Jql2o9B0Gle4M-8nJgw,NG2701 CIRCLE K-BALDWIN PARK,13752 LOS ANGELES ST,BALDWIN PARK,,,
142,FujiSan Sushi,,Sushi Bars,3.0,5.0,,34.217925553,-118.6070006,9H1CeNd-Go01OCAY_ai29A,FUJISAN INSIDE VALLARTA #112,8201 TOPANGA CANYON BLVD,CANOGA PARK,,,
143,RollStop Sushi,,"Japanese, Sushi Bars",130.0,4.5,$$,33.75225833,-118.3074955,EQXNiyZpUbwP0QfbeQ9tnQ,ROLLSTOP SUSHI,1385 W PARK WESTERN DR,SAN PEDRO,,,
144,,,,,,,,,,"WESTERN REFINING RETAIL, LLC STORE #62547(6345)",38755 N TIERRA SUBIDA AVE,PALMDALE,,,
145,Cariaco,,Venezuelan,131.0,5.0,$$,34.14821,-118.25695,4IwFNu3Qn8U_LFdZvdBpbA,CARIACO,211 W WILSON AVE,GLENDALE,,,
146,7-Eleven,,"Convenience Stores, Coffee & Tea",3.0,5.0,$,34.0647834,-117.9684096,3bErzRBQT21i_hqgzYE_uw,7-ELEVEN STORE 38238A,14101 FRANSICQUITO AVE # 200,BALDWIN PARK,,,
147,San Pedro Gas N More,,"Convenience Stores, Gas Stations",15.0,3.5,$,33.7455376808504,-118.292513455277,MKqFfd7691018292E668sQ,SAN PEDRO GAS N MORE,311 N GAFFEY ST,SAN PEDRO,,,
148,,,,,,,,,,JR MARKET DISCOUNT,8322 AVALON BLVD,LOS ANGELES,,,
149,Sip & Sonder,,"Coffee & Tea, Makerspaces, Venues & Event Spaces",134.0,4.5,,33.96274,-118.3518551,uGHIm2xcyKMwVB2c9qmk7g,SIP & SONDER,108 S MARKET ST,INGLEWOOD,,,
150,Yum Yum Donuts,,"Donuts, Coffee & Tea, Sandwiches",29.0,2.5,$,33.8875068,-118.0822152,JjcBs0sUW8J8xzgfZuMPkg,YUM YUM DONUTS 9399C,15900 PIONEER BLVD,NORWALK,,,
151,Moa Bar,,"Bars, Korean, Tapas Bars",23.0,4.5,,34.05608,-118.29196,aCuR8i99JFBOt5mRTnjk4A,MOA BAR,865 S VERMONT AVE,LOS ANGELES,,,
152,Zavala Restaurant Y Taqueria,,Mexican,111.0,4.0,$,33.9139539,-118.1692102,h8usmqGiVOMQPu53tuUJlw,ZAVALA RESTAURANT Y TAQUERIA,13621 GARFIELD AVE,SOUTH GATE,,,
153,Tacos Y Mariscos Metro Basilica,,"Mexican, Seafood",237.0,4.5,$,33.99698833,-117.96814,Qul7gGuneAFVQS6iD6gKmg,TACOS Y MARISCOS METRO BASILICA,2015 S HACIENDA BLVD,HACIENDA HEIGHTS,,,
154,,,,,,,,,,GOOD FORTUNE SUPERMARKET - MEAT DEPARTMENT,13321 ARTESIA BLVD,CERRITOS,,,
155,BrewZ Sports Cafe & Grill,,"Sports Bars, Cafes, American (Traditional)",133.0,4.5,,34.21464,-118.59841,iEy_UJONGpLYP3JjkkgghQ,BREWZ,7921 CANOGA AVE STE B,CANOGA PARK,,,
156,La Chulada Market,,Grocery,1.0,1.0,$,33.8961381,-118.2139768,fnpbpktvOcdVlRJ7ysXiJQ,JULIE MEAT MARKET #2,851 E COMPTON BLVD,COMPTON,,,
157,International Grill House,,"Mediterranean, Fast Food, Mexican",28.0,4.5,,34.20151,-118.38369,sfotI6TPsGOI5T8rb6DMWQ,INTERNATIONAL GRILL HOUSE,11535 SHERMAN WAY,NORTH HOLLYWOOD,,,
158,Zenbu Shabu Shabu,,Japanese,489.0,4.0,$$,33.857005,-118.092483,5JODWUUwaC3WUueSUkXUkA,ZENBU SHABU SHABU,11328 SOUTH ST,CERRITOS,,,
159,El Buen Sabor Pupusas,,"Salvadoran, Soup",50.0,3.5,$,33.936502,-118.207436,_RGeKWhFeasnjojFTBnxLA,BUEN SABOR,3537 MARTIN LUTHER KING JR BLVD,LYNWOOD,,,
160,Fatburger,,"Fast Food, Burgers, American (Traditional)",84.0,3.5,$$,34.0187621577202,-118.114955462515,gutLSDNPEzRV8FYJKmMJ4Q,FATBURGER MONTEBELLO,1507 W BEVERLY BLVD,MONTEBELLO,,,
161,,,,,,,,,,FRANCOS,8000 W SUNSET BLVD STE A120,LOS ANGELES,,,
162,Got Boba,,"Juice Bars & Smoothies, Bubble Tea",103.0,3.5,$,34.06735,-118.13483,xvJjB-t0c7LQyd-yN3h9JQ,DUO MI BOBA,421 N ATLANTIC BLVD # 104,MONTEREY PARK,,,
163,Curry Time,,Indian,294.0,4.5,$,34.0676571,-118.0247053,CYe7IP0tqjhskGlcODK-lQ,CURRY TIME,11635 VALLEY BLVD # C,EL MONTE,,,
164,Georgios Sports Bar & Pizzeria,,"Pizza, Sports Bars, Burgers",121.0,3.5,$,34.224207,-118.3654448,1GZxXn2s2xpA3oxv1Cmthw,GEORGIO'S SPORTS BAR & PIZZERIA,8414 SUNLAND,SUN VALLEY,,,
165,,,,,,,,,,SKID ROW PEOPLE'S MARKET,453 S SAN PEDRO ST,LOS ANGELES,,,
166,Catch 818 Mariscos,,"Seafood, Mexican",130.0,4.0,$$,34.21402,-118.48335,3ai8Mcln0u0s31ypNnUY4w,CATCH 818 MARISCOS,7900 WOODLEY AVE,VAN NUYS,,,
167,Vallarta Supermarkets,,Grocery,80.0,3.5,,34.218177,-118.606982,oFuIZtdiRFyBAJgcr6U4Cg,VALLARTA SUPERMARKET #112  - LA COCINA,8201 TOPANGA CANYON BLVD,CANOGA PARK,,,
168,Baguette Bakery Cafe,,"Bakeries, Sandwiches, Bubble Tea",5.0,4.0,,34.1079289530073,-117.703434402713,jw9rkM5zgYymd3P0btDxxA,BBC BAGUETTE BAKERY & CAFE,697 E FOOTHILL BLVD UNIT A,CLAREMONT,,,
169,,,,,,,,,,JOY SIX 10 MARKET,4378 S VERMONT AVE,LOS ANGELES,,,
170,Secoya Market,,Grocery,37.0,2.5,$,34.0147775,-117.9750469,T_XiajsgxD8rewbwjHeVzg,SECOYA MARKET,15233 GALE AVE,INDUSTRY,,,
171,Chocolate Pub,,"Candy Stores, Coffee & Tea",26.0,4.5,$,34.41617667,-118.461735,J9RLqCebm5JWYexcWtrM4Q,CHOCOLATE PUB,18715 SOLEDAD CANYON RD,SANTA CLARITA,,,
172,Lucky Luke Brewpub,,"Breweries, Burgers, Gastropubs",121.0,4.5,$$,34.6979251744085,-118.143302723765,JASn_1WwWI1GuYg4D3IxFA,LUCKY LUKE BREWING COMPANY,735 W LANCASTER BLVD,LANCASTER,,,
173,,,,,,,,,,UNITED PACIFIC #0217,22222 WILMINGTON AVE,CARSON,,,
174,,,,,,,,,,MIKE & SONS MARKET,1110 S PACIFIC AVE,SAN PEDRO,,,
175,Adams Meat Market,,Meat Shops,1.0,4.0,$,34.032543,-118.299754,_8VYjZfKGZBXHdNkjOLnMQ,MAVI MEAT MARKET,1674 1/2 W ADAMS BLVD,LOS ANGELES,,,
176,Smart Choice Supermarket,,Grocery,9.0,4.5,,33.88643667,-118.08342667,4IRmKYbOAc7ssPeLtQjhzA,SMART CHOICE SUPERMARKET - DELI,15933 PIONEER BLVD,NORWALK,,,
177,Athans Ice House,,Ice Delivery,16.0,5.0,,33.917267,-118.047473,5BbojVg06imCpGCu7x0j7w,ATHANS ICE HOUSE,13343 IMPERIAL HWY,WHITTIER,,,
178,Sitar Indian Kitchen,,Indian,31.0,4.5,,34.45060633,-118.49734767,1GGuPGQvfSd-NB-lArGA8g,SITAR INDIAN KITCHEN,28112 BOUQUET CANYON RD,SANTA CLARITA,,,
179,,,,,,,,,IfshsQtsE2X0lqmUwRzQvw,WATER ZONE #2,9460 WHITTIER BLVD,PICO RIVERA,,,
180,Barba Kush,,Mexican,22.0,4.0,,34.033,-118.21191,iCCkbrFi_0_4HVgAkxzGvA,BARBAKUSH,2635 WHITTIER BLVD,LOS ANGELES,,,
181,Sugar Free Shack,,"Cupcakes, Bakeries, Specialty Food",264.0,4.5,$$,33.873893,-118.35168417,QYRqbQrpzi9k1Ba9PAf63w,SUGAR FREE SHACK,17234 HAWTHORNE BLVD,TORRANCE,,,
182,Pacific Fish Grill,,"Tacos, Seafood",116.0,2.5,,34.11624,-117.83595,TItbSLSlAEB6iFCWpXlPsA,PACIFIC FISH GRILL,1365 E GLADSTONE ST STE #C300,GLENDORA,,,
183,Union 76,,Gas Stations,8.0,2.5,,34.16868,-118.5365,AJALxUivmdAvCTsigtFriA,TARZANA 76,18524 VENTURA BLVD,TARZANA,,,
184,Cafe Patisserie M,,Patisserie/Cake Shop,6.0,4.5,,34.0777486,-118.3092949,UDK71UnogkvaKo1B82BJBg,MANGOTENTEN & PATISSERIE M,375 N WESTERN AVE,LOS ANGELES,,,
185,La Paloma Grill,,"Mexican, Seafood",81.0,4.5,$$,34.0094115,-118.10440033,AFw7Xwhzo1Z_FoeJxyy8Zg,LA PALOMA GRILL,410 W WHITTIER BLVD,MONTEBELLO,,,
186,,,,,,,,,,ANGEL SNACKS AND GIFTS,865 S FIGUEROA ST # 100,LOS ANGELES,,,
187,Star Buffet,,"Buffets, Chinese, Sushi Bars",17.0,2.0,,33.92761833,-118.21135167,H82up7EJy0_osRIletTmVg,STAR BUFFET,11383 LONG BEACH BLVD,LYNWOOD,,,
188,Robeks Fresh Juices & Smoothies,,Juice Bars & Smoothies,44.0,4.0,$,33.863292,-118.095443,eoSFcCxrh31gzwZQw8n8_Q,RS SMOOTHIES,141 LOS CERRITOS CENTER # A,CERRITOS,,,
189,Trejo's Tacos - Farmers Market,,Tacos,138.0,3.0,$$,34.0722795,-118.3602751,5k6qIvAmgC_YSqNMqtjmfQ,TREJO'S TACOS FARMERS MARKET LLC,6333 W 3RD ST STE 322,LOS ANGELES,,,
190,Shinju Sushi,,"Sushi Bars, Japanese",159.0,4.5,$$,34.104255,-118.090359,3tNfrq9-_EUzSPCr5wZGDA,SHINJU SUSHI,120 N SAN GABRIEL BLVD # I,SAN GABRIEL,,,
191,Punjab Indian Market and Cuisine,,"Indian, International Grocery",150.0,4.5,$,34.1021957,-118.1090884,-Zvw7Gzw8PFZpKPCyCr_Ww,PUNJAB INDIAN CUISINE,618 W LAS TUNAS DR,SAN GABRIEL,,,
192,Leaf Cafe,,"Sandwiches, Salad, Desserts",108.0,5.0,,34.18342,-118.32234,Cx2m32EBxK8O2OaENUXtvw,LEMON LEAF CAFE,916 W BURBANK BLVD STE H,BURBANK,,,
193,,,,,,,,,,LATAPACHULTECA - HOT FOOD,8640 VAN NUYS BLVD,PANORAMA CITY,,,
194,Cinque Terre WEST Osteria,,"Italian, Breakfast & Brunch, Seafood",75.0,4.5,$$,34.046448,-118.523774,8ul3-qQKsldqnNydV_mshA,CINQUETERRE WEST OSTERIA,970 N MONUMENT ST # 110,PACIFIC PALISADES,,,
195,Conrad's Mexican Grill,,"Mexican, Latin American, Breakfast & Brunch",156.0,4.5,$$,33.738893,-118.285108,Ivie_-zSY73O6u9tl1f6dQ,CONRAD'S MEXICAN GRILL,376 W 6TH ST,SAN PEDRO,,,
196,Hana Teppanyaki,,Teppanyaki,44.0,4.5,,33.9825900837863,-118.224955448869,XPKe6zJi3_oRVDQfVOmNyQ,HANA TEPPANYAKI JAPANESE GRILL,6330 PACIFIC BLVD,HUNTINGTON PARK,,,
197,Arco,,Gas Stations,16.0,2.5,,34.0840771178023,-118.260304733639,4zbbt5NH2YvGmwiNy6qtNQ,ARCO#83142,1605 GLENDALE BLVD,LOS ANGELES,,,
198,Counterpart Vegan Restaurant,,"Vegan, Breakfast & Brunch, Cafes",177.0,4.5,$$,34.0813699307965,-118.254696540534,Wr29KJSMjWVw6vj-dCmeCA,COUNTERPART DELI,1559 ECHO PARK AVE,LOS ANGELES,,,
199,The Wing,,Shared Office Spaces,1.0,1.0,,34.08828,-118.37784,WdCoT-6USbXoYMSXNitXGg,THE WING,8550 SANTA MONICA BLVD FL 3RD,WEST HOLLYWOOD,,,
200,Tacos El Escondido,,Mexican,7.0,4.0,,33.966347,-118.256726,NnKJ62KwYrFlnUXDUYz9Rw,TACOS EL ESCONDIDO,8001 S CENTRAL AVE,LOS ANGELES,,,
201,Golden Guest,,"Convenience Stores, Burmese, Imported Food",16.0,4.0,$,34.084784,-118.1348213,uiKG-66DMSe1-c5Nglh2Og,GOLDEN GUEST,1107 W MISSION RD,ALHAMBRA,,,
202,Wings N Stuff,,Chicken Wings,71.0,4.5,,34.05239,-118.3049,V5VTdQ4WDLB5fF7Cj4ykEQ,WINGS N STUFF,3160 W OLYMPIC BLVD,LOS ANGELES,,,
203,La Corona,,"Mexican, Juice Bars & Smoothies",25.0,3.5,$,33.978353188013,-118.037294117302,I67YPq9gTIrWWvQR-zbkIA,LA CHIVA LOCA JR,7022 GREENLEAF AVE,WHITTIER,,,
204,Sorra,,"Japanese, Mexican",30.0,4.0,,34.099696,-118.3234477,Y-wpt3eWrAU72XUOMLUVRg,HINOKI HOLLYWOOD - SORRA ROOF TOP,1550 N EL CENTRO AVE,LOS ANGELES,,,
205,Crispy School,,"Burgers, American (New)",344.0,5.0,$$,34.06410333,-118.283964,SqWYLEwZxJY7Et8w24lzjw,CRISPY SCHOOL,526 S OCCIDENTAL BLVD,LOS ANGELES,,,
206,Northern Cafe RH,,"Chinese, Noodles",146.0,3.5,,33.9890236722777,-117.901489648956,o9R-dp86kkpXxBnh9wdktg,NORTHERN CAFE RESTAURANT,18495 COLIMA RD UNIT #3&4,ROWLAND HEIGHTS,,,
207,The Cove,,Seafood,176.0,3.5,$$,33.9204786650116,-118.072734188157,3YldYMUlm4E7dGNerstlzA,THE COVE SEAFOOD INC,12209 NORWALK BLVD,NORWALK,,,
208,Hobby Lobby,,"Art Supplies, Furniture Stores, Home Decor",63.0,3.0,$$,33.89975,-118.369299,RdiqAzW5V3SdcuGqKvwrxQ,HOBBY LOBBY STORES INC #850,14555 OCEAN GATE AVE,HAWTHORNE,,,
209,Q. Mediterranean Restaurant,,Mediterranean,2.0,3.5,,34.1940161880492,-118.50922656601,WBC7SYNerta04ntEtvznHQ,Q MEDITERRANEAN  RESTAURANT,17259 VANOWEN ST,VAN NUYS,,,
210,Cafe Crisp,,"Coffee & Tea, Breakfast & Brunch, Bakeries",245.0,5.0,,34.18513,-118.30846,Y6EyQgdIASoq9IKH978jQQ,CAFE CRISP,312 N GLENOAKS BLVD,BURBANK,,,
211,Olivia's Dollhouse Tea Room,,"Tea Rooms, Party & Event Planning, Venues & Event Spaces",26.0,4.5,$$,33.7764589,-118.3152378,n6PaPcVrXO6CBfk5NWaItg,OLIVIA'S DOLL HOUSE TEA ROOM,2051 N PALOS VERDES DR,LOMITA,,,
212,La Chiquita Bakery,,"Bakeries, Breakfast & Brunch, Mexican",16.0,4.5,$,34.0110351,-118.26911,-UCFGKXVMpYfGDqNkCfw8Q,LA CHIQUITA BAKERY LLC,270 E MARTIN LUTHER KING JR,LOS ANGELES,,,
213,Wazakuraken Ramen,,"Ramen, Bubble Tea, Poke",77.0,4.0,$$,34.13921133,-117.98139133,YaUbEa3RtyMAea5nik660A,WAZAKURAKEN RAMEN,1114 HUNTINGTON DR,DUARTE,,,
214,,,,,,,,,,CARNICERIA EL BUEN GUSTO OAXAQUENO,2555 W PICO BLVD # C,LOS ANGELES,,,
215,,,,,,,,,,CLUB VENICE,20 WASHINGTON BLVD,MARINA DEL REY,,,
216,Mat Son,,Korean,2.0,3.0,,34.20806,-118.52665,qok9IK7C-8Ov6FLB6mofig,MAT SON,18052 SATICOY ST,RESEDA,,,
217,Arco,,Gas Stations,21.0,2.0,,34.11341,-118.00382,Scp4z1crrMLrgSirHSS4MA,ARCO #42166,110 E LONGDEN AVE STE A,IRWINDALE,,,
218,Angry Dak,,"Chicken Wings, Korean",26.0,5.0,,34.0833851,-118.309905,36_vPzDxzh7Ze35gSHGcgQ,ANGRY DAK,5022 MELROSE AVE,LOS ANGELES,,,
219,Jokbal 1030,,"Korean, Barbeque",115.0,4.5,$$,34.0638387855043,-118.296827854173,fF8g2rPfFHsX-AMtU7JMjQ,JOKBAL1030,3465 W 6TH ST STE 65,LOS ANGELES,,,
220,Beji Sushi,,"Vegan, Sushi Bars, Juice Bars & Smoothies",50.0,4.5,,34.14432883,-118.7550745,pPB2B_JYUMesQt8mKmQ65A,BEJI SUSHI,28914 ROADSIDE DR # 105,AGOURA HILLS,,,
221,Coco Queen,,"French, Salad, American (Traditional)",142.0,4.5,$$,34.08718,-118.37993,IAryjalo8n_mQGl7HlGoEQ,COCO QUEEN,8700 SANTA MONICA BLVD,WEST HOLLYWOOD,,,
222,Moxie Lounge & Karaoke,,"Karaoke, Lounges, Japanese",90.0,4.5,$$,34.1253401549978,-118.056165128946,iYkaSNSBki8V2jKmVMYj1w,MOXIE LOUNGE AND KARAOKE,1205 S BALDWIN AVE # A,ARCADIA,,,
223,,,,,,,,,,SIMPSON'S LIQUOR,5860 IMPERIAL HWY,SOUTH GATE,,,
224,Bun Bo Hue,,Vietnamese,17.0,4.0,,34.2015836092203,-118.53957998706,e8EFxXI4r4KWyvcwWjL6aw,BUN BO HUE,18625 SHERMAN WAY # 110,RESEDA,,,
225,O Sumo Sushi,,Sushi Bars,396.0,4.0,$$,34.16636,-118.44826,iUjPxiNxe9Os-mQ9YBrTmw,O SOMO SUSHI,5254 VAN NUYS BLVD,SHERMAN OAKS,,,
226,,,,,,,,,,LIMITED THREE ENTERPRISES INC.,12626 GLENOAKS BLVD,SYLMAR,,,
227,Aunties Cafe,,"Cafes, Breakfast & Brunch, Hawaiian",170.0,4.5,$$,33.87351917,-118.30091917,9HxrLFzmGo1txkQNO95-fg,AUNTIES CAFE,1425 W ARTESIA BLVD # 17,GARDENA,,,
228,Maury's,,Bagels,158.0,4.5,$$,34.076918,-118.2757196,G_9bJGizhgFzElrHSrOwXw,MAURY'S,2829 BELLEVUE AVE,LOS ANGELES,,,
229,Honeymee,,Desserts,31.0,4.0,,34.19116,-118.60398,6KROkla0RmTQhyhxGE7lWA,HONEYMEE,6600 TOPANGA CANYON BLVD # 1096,CANOGA PARK,,,
230,Bopomofo Cafe,,"Taiwanese, Coffee & Tea, Cafes",1086.0,4.5,$,34.10233,-118.111865,57ty0DgdSar6AiLbJGyiJw,BOPOMOFO CAFE,841 W LAS TUNAS DR,SAN GABRIEL,,,
231,,,,,,,,,,DALONG YI,250 W VALLEY BLVD # L,SAN GABRIEL,,,
232,Tong Tak House 同德明珠,,"Dim Sum, Seafood, Cantonese",83.0,3.0,$$,34.12490667,-118.05562,oKxAW5KFRaYiKFLkJmxMBg,TONG TAK HOUSE SEAFOOD RESTAURANT,1271 S BALDWIN AVE,ARCADIA,,,
233,Kusina Filipina Los Angeles,,"Filipino, Seafood, Breakfast & Brunch",321.0,4.0,$$,34.122148,-118.225827331283,_JKZ9v9w_UjGfI9Ukb5IYg,KUSINA FILIPINA,4157 EAGLE ROCK BLVD UNIT 1&2,LOS ANGELES,,,
234,LA Brisket,,"Barbeque, Sandwiches",135.0,4.5,$$,34.06129,-118.238157,6RDro8iSto0thExOPC3SIw,LA BRISKET,736 N BROADWAY # 104,LOS ANGELES,,,
235,,,,,,,,,,MARKET GAVILAN,2729 TWEEDY BLVD,SOUTH GATE,,,
236,,,,,,,,,,MIAOMIAOXIAN,220 W GARVEY AVE # Q,MONTEREY PARK,,,
237,Wongs Wok Silver Lake,,Chinese,89.0,4.0,,34.103897,-118.258585,w1vKvsHrbaMZ52W9_REs2A,WONGS WOK SILVERLAKE,2554 GLENDALE BLVD,LOS ANGELES,,,
238,H&H Brazilian Steakhouse,,"Brazilian, Steakhouses",490.0,4.5,,34.04665,-118.25616,KAG0aFy962JY38UeWI8pWQ,H&H BRAZILIAN STEAK HOUSE,518 W 7TH ST,LOS ANGELES,,,
239,Hibiscus Tree 芙蓉樹下,,"Szechuan, Hot Pot",56.0,4.5,$$,34.07966,-118.09324,EbT0A65AKxmKoysls37qNA,HIBISCUS TREE,534 E VALLEY BLVD # 4-5,SAN GABRIEL,,,
240,The Burrito Exchange,,Mexican,273.0,4.0,,33.96228,-118.10904,Ke8y-N4pazrotP6Fn1kgVA,THE BURRITO EXCHANGE,8500 ROSEMEAD BLVD,PICO RIVERA,,,
241,Zappver at NoHo,,"Thai, Salad, Noodles",93.0,3.5,$$,34.200992,-118.4151601,Vdl2tp--PugVR__oS-skaw,PA ORD ZAPPVER,12936 SHERMAN WAY,NORTH HOLLYWOOD,,,
242,Buddy's,,"Diners, Burgers, American (Traditional)",96.0,4.0,,34.04969,-118.24945,im2NNO0bUxLC0iQST0F-zA,BUDDY'S,363 S BROADWAY ST,LOS ANGELES,,,
243,Mother's Market & Kitchen,,"Grocery, Health Markets, Juice Bars & Smoothies",97.0,4.0,$$,33.9014543424115,-118.382137383844,dZcX-zYmZ9QirWtCbBLUOQ,MOTHER'S MARKET & KITCHEN,1700 ROSECRANS AVE STE C,MANHATTAN BEACH,,,
244,Myungdong Tofu Plus,,"Korean, Asian Fusion",109.0,4.5,$$,33.859281,-118.07273383,nWi54CT5KE9T5JTQUACMLQ,MYUNG DONG TOFU PLUS,18921 NORWALK BLVD,ARTESIA,,,
245,Jersey Mike's Subs,,"Sandwiches, Fast Food, Delis",101.0,3.5,$$,34.112209,-117.763495,XRAXW9QpNruJbJAli-39zQ,JERSEY MIKE'S SUBS #20077,2212 FOOTHILL BLVD,LA VERNE,,,
246,,,,,,,,,,MOMMY'S & KID'S NUTRITIONAL CENTER,601 N AZUSA AVE,AZUSA,,,
247,Starbucks,,Coffee & Tea,71.0,2.5,$$,33.84623467,-118.08438333,GQwVYWweGv-fwMsBK72s6A,STARBUCKS COFFEE #8708,11695 DEL AMO BLVD,LAKEWOOD,,,
248,,,,,,,,,,XIN MA HEALTHY FOOD,2 E VALLEY BLVD STE 1E,ALHAMBRA,,,
249,Robeks Fresh Juices & Smoothies,,Juice Bars & Smoothies,45.0,4.0,$,34.0392586,-118.2648057,S4KD6WcRtBzUFWK-Gy2hcw,ROBEKS JUICE#426-DTLA,419 PICO BLVD,LOS ANGELES,,,
250,Vons,,"Grocery, Pharmacy",104.0,2.5,$$,33.722977,-118.3108107,qAGMNdfhwHBGHGjJBgEDug,VONS MARKET #2162 BAKERY,1440 W 25TH ST,SAN PEDRO,,,
251,Super King Markets,,"Butcher, Grocery, Beer, Wine & Spirits",49.0,2.5,,34.1670438710772,-118.291573561728,cx6wgfF9OtZIB56r7Y2NjA,SUPER KING MARKET - FRENCH BAKERY DEPT.,6501 SAN FERNANDO RD,GLENDALE,,,
252,Asian Barbecue Halal,,Barbeque,11.0,3.5,,33.8318,-118.30772,UC0qaTcYp4Dt8QEhqkRadQ,IN-N-OUT ASIAN BARBEQUE,1635 W CARSON ST,TORRANCE,,,
253,Jersey Mike's Subs,,"Fast Food, Delis, Sandwiches",120.0,3.0,$,34.129063,-117.881149,1_ufq5AQdbpr-MGj6qaT0w,JERSEY MIKE'S SUBS #20070,865 W ROUTE 66 STE A,GLENDORA,,,
254,7th Street Café,,"Breakfast & Brunch, American (New)",6.0,5.0,$,34.05599,-118.275,B85AS4JEbZFmc0ceyvAhLg,7TH STREET CAFE,1919 W 7TH ST # R,LOS ANGELES,,,
255,Daily Grill,,American (New),113.0,3.5,,34.142801,-118.394547,zxt0ETD4VAWg4f-_1WJsLg,THE DAILY GRILL,12050 VENTURA BLVD # C202,STUDIO CITY,,,
256,Bollywood Grill,,"Indian, Buffets",98.0,4.5,$$,34.1012,-118.33784,eOE6OQX0P87jALUycKvR_w,BOLLYWOOD GRILL,6756 HOLLYWOOD BLVD,LOS ANGELES,,,
257,Starbucks,,Coffee & Tea,46.0,3.0,,34.2358234457529,-118.554033,zf47YvAKcRsJhJzun_9xXQ,STARBUCKS #29497,19301 NORDHOFF ST,NORTHRIDGE,,,
258,Ameci Pizza & Pasta  - Canyon Country,,"Italian, Pizza, Pasta Shops",199.0,4.0,$,34.4159087,-118.4559018,LE2eW0WTj1C0p0k1W1cFIQ,AMECI PIZZA CC,27554 SIERRA HWY,CANYON COUNTRY,,,
259,Tacos Mexico,,Mexican,44.0,3.0,$,34.0308103,-118.1543666,CUZ0VmW9zrki2U9g5hL1PA,ANDRES TACOS MEXICO #4,355 S ATLANTIC BLVD,LOS ANGELES,,,
260,Toluca Bakery and Cafe,,"Bakeries, Cafes",37.0,5.0,,34.157164,-118.378131,Ea07-RRAhv5s85VelMF00w,TOLUCA BAKERY & CAFE,11365 RIVERSIDE DR,NORTH HOLLYWOOD,,,
261,Ding Tea La Mirada,,Bubble Tea,143.0,4.0,$,33.914952,-118.011518,KqxUdQauHQu7VIAUvoGaHA,DING TEA LA MIRADA,12824 LA MIRADA BLVD,LA MIRADA,,,
262,,,,,,,,,,UNITED PACIFIC #0241 - DELI,20905 VENTURA BLVD,WOODLAND HILLS,,,
263,,,,,,,,,,HONEYMEE,24201 W VALENCIA BLVD # 1210,VALENCIA,,,
264,D Day Karaoke,,Karaoke,8.0,3.0,$$,34.0789099037647,-118.309208750725,Cot3D5QxcvpyfbseJ_GY_Q,D DAY,429 N WESTERN AVE STE 6,LOS ANGELES,,,
265,PROVAMI Pizzeria,,"Pizza, Italian",138.0,4.0,$$,34.083727,-118.351449,ubVKKfEfKfS_Hy7ljKg5jA,PROVAMI PIZZERIA,7407 1/2 MELROSE AVE,LOS ANGELES,,,
266,Cocina San Antonio,,Mexican,3.0,5.0,,33.9031151,-118.228743,E0ZpUTabEB_AKFTKEVOTEw,COCINA SAN ANTONIO,328 W ROSECRANS AVE,COMPTON,,,
267,Darna Mediterranean Cuisine,,"Kosher, Mediterranean",361.0,4.5,$$,34.1725419617189,-118.563603579199,cNBnA_FjmNI3beAtYvE1Gg,A DARNA IN THE KINERET,19737 VENTURA BLVD,WOODLAND HILLS,,,
268,Firehouse Hotel,,Hotels,55.0,4.5,,34.03414,-118.22965,ZUG7iExYnjpioARJpdo8kg,FIREHOUSE HOTEL,710 S SANTA FE AVE,LOS ANGELES,,,
269,Burgerim,,"Burgers, American (Traditional), Sandwiches",66.0,4.0,,34.1080175,-117.826696,euz_ya4sD7yKAxz6f32PLQ,BURGERIM,969 W ARROW HWY,SAN DIMAS,,,
270,,,,,,,,,,HILTON - POOL BAR,555 UNIVERSAL HOLLYWOOD DR,UNIVERSAL CITY,,,
271,Chois Teriyaki,,Korean,81.0,4.5,$,33.914879,-118.0116156,bAFxMHKegS5fyacFbjTt0g,CHOIS TERIYAKI,12828 LA MIRADA BLVD,LA MIRADA,,,
272,Dollar Tree,,Discount Store,6.0,5.0,,33.918757,-117.995339,iobGIQf5oz368qRuo8ZLSw,DOLLAR TREE #07783,15723 IMPERIAL HWY,LA MIRADA,,,
273,Quezada’s Tacos,,Tacos,129.0,4.0,$,33.890719,-118.000967,ylZVhacAcNkR19zgYHOQgQ,QUEZADA'S TACOS,15544 LA MIRADA BLVD,LA MIRADA,,,
274,Baroo,,"American (New), Asian Fusion, Korean",30.0,4.5,$$,34.09053,-118.29057,w7FWudh-io3lNjmS1NNOEQ,BAROO LLC,4632 SANTA MONICA BLVD # 16,LOS ANGELES,,,
275,Indian by Nature,,"Indian, Vegetarian, Comfort Food",95.0,4.5,$$,34.220263,-118.5540652,B8XEmH8MFcl7DvT8ANkkvQ,INDIAN BY NATURE,8241 TAMPA AVE,RESEDA,,,
276,,,,,,,,,,BIG 'O' LIQUOR,4626 S VERMONT AVE,LOS ANGELES,,,
277,California Bowl Sushi & Teriyaki,,"Japanese, Sushi Bars",229.0,3.5,$$,34.234303,-118.502072,Gvz4W3iLgjaLSDl4iXirBw,CALIFORNIA BOWL SUSHI & TERIYAKI,9002 BALBOA BLVD,NORTHRIDGE,,,
278,Haque’s,,Coffee & Tea,8.0,5.0,,34.00722,-118.48434,mWrXKwyCnl0GfL1Z4_szqQ,HAQUES,2225 4TH ST,SANTA MONICA,,,
279,Mangos frozen yogurt,,"Acai Bowls, Ice Cream & Frozen Yogurt",5.0,4.0,,33.936453,-118.121216,hbVd6Tk7oZeOdZIEVHrwdQ,MANGO'S FROZEN YOGURT,130 STONEWOOD ST,DOWNEY,,,
280,AC Hotel Beverly Hills,,Hotels,47.0,3.0,$$$,34.06412,-118.368,ghBiGj6YyVNhQ8TCF9v3Sw,MARRIOTT AC HOTEL -  DOWNSTAIRS RESTAURANT AND LOUNGE,6399 WILSHIRE BLVD,LOS ANGELES,,,
281,T4 Cafe,,"Bubble Tea, Coffee & Tea, Juice Bars & Smoothies",183.0,4.0,$,34.2235668,-118.5024951,T1sk7BDnUHFBn9oITVHalw,T4 CAFE,8440 BALBOA BLVD 103,NORTHRIDGE,,,
282,,,,,,,,,,"WESTERN REFINING RETAIL, LLC STORE #68583 (6206)",1127 W RANCHO VISTA BLVD,PALMDALE,,,
283,Round Table Pizza,,Pizza,53.0,3.0,,33.816567,-118.378353,6Pz_oDEHYNxbzNBu6Cd-gA,ROUND TABLE PIZZA,1876 S PACIFIC COAST HWY,REDONDO BEACH,,,
284,24 Hour Fitness - Torrance Del Amo,,"Gyms, Trainers",119.0,3.0,,33.833405,-118.353831,OinlS4DkBASU55ZaFwF0aA,24 HOUR FITNESS,21501 HAWTHORNE BLVD,TORRANCE,,,
285,the sweet swirl,,"Ice Cream & Frozen Yogurt, Desserts, Bubble Tea",132.0,4.5,$,34.0800511,-117.7221248,YiMRr_7O3hDh1a_60AiSVQ,THE SWEET SWIRL,450 AUTO CENTER DR,CLAREMONT,,,
286,,,,,,,,,JcmhRajcQwIGmkIaOtouBQ,BURGERLORDS,110 N AVENUE 56,LOS ANGELES,,,
287,Nadima’s Sushi & Mongolian Express,,"Sushi Bars, Mongolian, Soup",46.0,4.5,,33.81577,-118.35153,peaTT35p5xFR6GEoZTOLOA,NADIMA'S SUSHI AND COFFEE SHOP,23211 HAWTHORNE BLVD,TORRANCE,,,
288,Nestle Toll House Cafe by Chip,,"Cafes, Desserts, Bakeries",70.0,3.5,$,34.41769,-118.56077,cDP9HsGL18Vog7GWAr45Ag,NESTLE TOLLHOUSE CAFE 2028,24305 TOWN CENTER DR # 100,VALENCIA,,,
289,,,,,,,,,,CALLALOO EXPRESS,1600 W SLAUSON AVE # F27,LOS ANGELES,,,
290,,,,,,,,,,99 CENTS BUENA VISTA,1931 W 6TH ST,LOS ANGELES,,,
291,Skewers Halal,,"Halal, Middle Eastern, Italian",272.0,4.5,$$,34.2490323,-118.6058351,rPufWjgun7CSJi2xoNSTFw,SKEWERS KABAB,9820 TOPANGA CANYON BLVD,CHATSWORTH,,,
292,,,,,,,,,,WONDER MART,400 S LOS ANGELES ST,LOS ANGELES,,,
293,,,,,,,,,,RANCHO WORKS CAFE AND GIFT SHOP,7601 IMPERIAL HWY,DOWNEY,,,
294,,,,,,,,,,ARONNO,2632 E CESAR E CHAVEZ AVE,LOS ANGELES,,,
295,,,,,,,,,,EXPRESS MARKET,506 S SAN PEDRO ST,LOS ANGELES,,,
296,Total Nutrition,,"Vitamins & Supplements, Health Markets",12.0,4.5,,34.1052861,-117.8182836,fchfQc4tI6swClWyoujUww,TOTAL NUTRITION,645 W ARROW HWY,SAN DIMAS,,,
297,El Taco Perso,,"Mexican, Latin American",66.0,4.0,$,33.9118549,-118.3532452,TEAdcUbxmbKR6EQCzLIxNw,EL TACO PERSO KABOB,4417 W 133RD ST,HAWTHORNE,,,
298,,,,,,,,,,DA JUICE BOX,7869 VAN NUYS BLVD,PANORAMA CITY,,,
299,FatBurger,,"Burgers, Fast Food",46.0,3.5,$$,34.140685,-118.019661,ihvzIeRia5y2BuUNF095Ug,FATBURGER AND BUFFALO'S EXPRESS,939 W HUNTINGTON DR,MONROVIA,,,
300,GBY Party Supplies and Rentals,,Party Supplies,6.0,4.5,,34.0401449,-118.2931434,MpkFip8yYWWQ1KVRU9mArg,GBY PARTY SUPPLIES AND RENTALS,1633 W WASHINGTON BLVD,LOS ANGELES,,,
301,Taco King,,Mexican,44.0,4.0,,34.1261227194006,-117.907342600169,UWyJepqyAyB2d0KnFfYAJg,TACO KING,246 N AZUSA AVE,AZUSA,,,
302,Paleteria y Neveria La Flor Michoacana,,"Ice Cream & Frozen Yogurt, Juice Bars & Smoothies",55.0,4.5,$,34.2182,-118.44919,HvzTJdWRQHO_BTCMCDlBAQ,FLOR MICHOACANA,8111 VAN NUYS BLVD # 104,VAN NUYS,,,
303,ALDI,,"Grocery, Fruits & Veggies, Organic Stores",27.0,3.0,$,33.8799038,-118.2205808,4l-7tSMpfQouFe-VHZnFDw,ALDI,203 TOWNE CENTER DR,COMPTON,,,
304,Cafe Bravo,,"Middle Eastern, Mediterranean, Armenian",911.0,4.0,$$,34.1649318,-118.2807983,OI8pxsQ7ktNQkomjn74X4A,CAFE BRAVO,1135 W GLENOAKS BLVD,GLENDALE,,,
305,Upstage Burger,,Burgers,31.0,3.0,$$,34.0560244257386,-118.248693333333,kVXG4WG8uTnfufHsw8d3nQ,UPSTAGE BURGER,135 N GRAND AVE FL 2,LOS ANGELES,,,
306,Chronic Tacos,,"Mexican, Tapas/Small Plates",112.0,3.0,$,33.8348201,-118.1164051,yBH1IzkAvarUgMWez5EaLw,CHRONIC TACOS,4212 WOODRUFF AVE,LAKEWOOD,,,
307,Hola Pho,,Vietnamese,72.0,4.0,,33.90284917,-118.08628267,9hRwg5H4opS-MJb2o__8qQ,HOLA PHO,11575 ROSECRANS AVE,NORWALK,,,
308,Ding Tea Valencia,,"Coffee & Tea, Bubble Tea",196.0,4.5,$,34.3920866,-118.5737491,_JEjdKv-8No7TONuuXgR2A,DING TEA VALENCIA,25914 THE OLD RD,VALENCIA,,,
309,Black Heart Ave Shabushabu,,Hot Pot,7.0,3.0,,33.974713,-117.8373612,Xm2Gt_DzbIDmjhaqbbmynw,BLACK HEART AVENUE,2803 S DIAMOND BAR BLVD,DIAMOND BAR,,,
310,Panera Bread,,"Salad, Soup, Sandwiches",75.0,2.5,$$,33.9482784,-118.165037,5u75jW9d4ntwUqbqi_HWhA,PANERA BREAD #6087,5802 FIRESTONE BLVD STE 100,SOUTH GATE,,,
311,,,,,,,,,,MEXICAN GUISADOS,1516 FIRESTONE BLVD,LOS ANGELES,,,
312,,,,,,,,,,NINA'S CAFE,316 PICO BLVD UNIT A - C,LOS ANGELES,,,
313,,,,,,,,,sPPPqBPuTUJcSvlD74ilcg,STARBUCKS - STORE #55230,3241 N FIGUEROA ST,LOS ANGELES,,,
314,,,,,,,,,,ALEJANDRINA'S MEXICAN FOOD RESTAURANT,13901 AMAR RD SP 1,LA PUENTE,,,
315,,,,,,,,,,FAST LIQUOR MART,10558 WHITTIER BLVD,WHITTIER,,,
316,WangJia Restaurant,,Shanghainese,34.0,4.5,,34.10212,-118.111204,hqlNjTIzXyunECmHJnNwyQ,WANGJIA RESTAURANT,800 W LAS TUNAS DR # 300,SAN GABRIEL,,,
317,,,,,,,,,,99 CENT PLUS,1111 PACIFIC COAST HWY # 12,HARBOR CITY,,,
318,,,,,,,,,,"WESTERN REFINING RETAIL, LLC STORE #68592 (6209)",37204 47TH ST E,PALMDALE,,,
319,Randy's Donuts & Chinese Food,,"Donuts, Chinese",118.0,4.0,$,33.9646303156702,-118.350973923943,YMPTHgqoAF3LH0SejZPIog,RANDY'S DONUTS & CHINESE FOOD,210 N MARKET ST,INGLEWOOD,,,
320,Tierra Mia Coffee,,Coffee & Tea,162.0,4.0,,34.07383,-118.0225475,zLlUOw3rcUleb43WzqzrmA,TIERRA MIA COFFEE COMPANY,3748 PECK RD,EL MONTE,,,
321,Tsuki Ramen,,Ramen,199.0,4.0,$$,34.15164,-118.80179,LFtC2C9efavU9Gr4CUNc6A,TSUKI RAMEN,30990 RUSSELL RANCH RD # C,WESTLAKE VILLAGE,,,
322,Sasabune Express,,Sushi Bars,110.0,4.0,$$,34.0465,-118.52376,--NTsN2rGsl9DtHMXfr_Bw,SASABUNE EXPRESS,970 MONUMENT ST STE 118,PACIFIC PALISADES,,,
323,Deja Brew Coffee,,Coffee & Tea,6.0,5.0,,34.14946283,-118.6609135,1FltBzT1Dir_eiW-5_XGWw,DE JA BREW COFFEE LLC,24500 CALABASAS RD,CALABASAS,,,
324,El Rincon Usuluteco Restaurant,,Salvadoran,10.0,3.5,$,34.03238,-118.30558,0lSLsdgkqFH7fuNk_FqUng,EL RINCON USULUTECO#1,1880 W ADAMS BLVD,LOS ANGELES,,,
325,,,,,,,,,,GENESIS PARTY SUPPLY,1911 E GAGE AVE # E70,HUNTINGTON PARK,,,
326,,,,,,,,,,MT WILD GINSENG,2717 W OLYMPIC BLVD # 103,LOS ANGELES,,,
327,The Foodie Spot,,"Breakfast & Brunch, Waffles, Juice Bars & Smoothies",3.0,3.5,,33.993598,-118.264823,1igRMUptKUchI8keQfr6WA,THE FOODIE SPOT,5326 AVALON BLVD STE E,LOS ANGELES,,,
328,Chun La Hao Chong Qing Hot Pot,,Hot Pot,111.0,4.0,,34.10382833,-118.07387133,BksPDbIiTp6yvm1htbmtzg,CHUN LA HAO XHONGQING HOT POT,5701 ROSEMEAD BLVD,TEMPLE CITY,,,
329,Served 2 Enjoy,,Mexican,36.0,5.0,,34.0008009,-118.265021,078jd5_RRYZx7rsaSOyA_g,SERVED 2 ENJOY,4624 AVALON BLVD,LOS ANGELES,,,
330,,,,,,,,,,LAMICHOACANA1,1200 MAPLE AVE # B,LOS ANGELES,,,
331,Tianfu Cuisine,,Chinese,11.0,4.5,,33.98801,-117.90205,fLIUnR0a2q8jwYo7Q5PquQ,TIANFU CUISINE,18438 COLIMA RD #105,ROWLAND HEIGHTS,,,
332,,,,,,,,,,LATAPACHULTECA - MAIN MARKET,8640 VAN NUYS BLVD,PANORAMA CITY,,,
333,Burgerim,,"Burgers, American (Traditional), Chicken Wings",91.0,3.5,$$,34.1878451434611,-118.599481247105,dMvQQdhp15pyYk1nqJdPbg,BURGERIM,21512 VICTORY BLVD,WOODLAND HILLS,,,
334,Burger King,,"Burgers, Fast Food",28.0,2.5,$,33.9435719,-118.2012095,d3PJLA-3Okls9kLcn2IGdw,BURGER KING,4040 TWEEDY BLVD,SOUTH GATE,,,
335,Magnolia Wine Bar,,"Wine Bars, American (New)",126.0,4.5,$$,34.10755,-117.70401,Wit5qRx7nFg6cD0rsMPYmA,MAGNOLIA EATERY CO.,665 E FOOTHILL BLVD STE C,CLAREMONT,,,
336,The Kickin’ Crab,,"Cajun/Creole, Seafood, Soup",101.0,4.0,$$,34.0978346161365,-118.3233207,khApvUwH1Xhe3MtaXmaZsg,THE KICKIN' CRAB,6122 SUNSET BLVD,LOS ANGELES,,,
337,,,,,,,,,,HOLIDAY INN MINI MARKET,19800 S VERMONT AVE,TORRANCE,,,
338,,,,,,,,,,HELLS KITCHEN,8666 FOOTHILL BLVD,SUNLAND,,,
339,7-Eleven,,"Convenience Stores, Coffee & Tea",25.0,3.0,$,34.257614356353,-118.605805522357,UgepZb_yOoadmMCTN6cMEA,7-ELEVEN STORE 24596-B,21925 DEVONSHIRE ST,CHATSWORTH,,,
340,The Ramp,,"Italian, American (Traditional), Bars",62.0,4.0,$$,34.21144,-118.34825,W3_s1f04w6ix5-yyLOn35g,THE RAMP,7730 N HOLLYWOOD WAY,BURBANK,,,
341,Smart Choice Supermarket,,Grocery,9.0,4.5,,33.88643667,-118.08342667,4IRmKYbOAc7ssPeLtQjhzA,SMART CHOICE SUPERMARKET,15933 PIONEER BLVD,NORWALK,,,
342,Vallarta Supermarkets,,Grocery,80.0,3.5,,34.218177,-118.606982,oFuIZtdiRFyBAJgcr6U4Cg,VALLARTA SUPERMARKET #112 - TORTILLERIA,8201 TOPANGA CANYON BLVD,CANOGA PARK,,,
343,,,,,,,,,,ARCO #83615,8007 W MANCHESTER AVE,PLAYA DEL REY,,,
344,Vista Mini Mart,,Convenience Stores,8.0,4.5,$,34.090415,-118.35276,pNmIkUn48q_X_lpYcPW8VA,VISTA MINI MART,1055 N VISTA ST,WEST HOLLYWOOD,,,
345,The Getty Center,,Art Museums,3175.0,4.5,,34.077794218403,-118.473945310349,zRlDhJgcwXEphTUhMaCfyw,DISH PIT @THE GETTY CENTER,1200 GETTY CENTER DR,LOS ANGELES,,,
346,Ralphs,,"Drugstores, Grocery",126.0,3.5,$$,33.8303527832031,-118.310966491699,TPewOmKO9FXpZL2zQdwPyQ,RALPHS #132 (MARKET),1770 W CARSON ST,TORRANCE,,,
347,Paris Baguette,,"Bakeries, Patisserie/Cake Shop, Coffee & Tea",55.0,4.0,,34.052474,-118.303026,YzITnm5QR3mu-KPNW-uOaw,PARIS BAGUETTE,3060 W OLYMPIC BLVD STE 100,LOS ANGELES,,,
348,ATM Tea Bar,,"Tea Rooms, Bubble Tea, Desserts",81.0,4.0,$,33.99266833,-117.89077,XVv_7MG8nLUqmZcEBvqueA,ATM TEA BAR,18938 LABIN CT # A107,ROWLAND HEIGHTS,,,
349,Chicken Maison,,"Mediterranean, Greek",207.0,4.5,$$,33.77986,-118.30894,G3aJOqquQfI759e1fvKU2g,CHICKEN MAISON,26640 WESTERN AVE STE A,HARBOR CITY,,,
350,Spoon & Pork,,Filipino,221.0,4.5,$$,34.0853518,-118.2745658,kornX_GAu5kTX5ALefTpFw,SPOON AND PORK,3131 W SUNSET BLVD,LOS ANGELES,,,
351,Chop Shop Butcher & Grill,,"Butcher, Seafood, Steakhouses",141.0,4.5,$$,34.20797333,-118.50844333,mmOJjSsN4f0lEz2eWkVkIg,CHOP SHOP BUTCHER & GRILL,17238 SATICOY ST,VAN NUYS,,,
352,Cha Cha Matcha,,Coffee & Tea,115.0,4.0,$$,33.990728,-118.465748,k4Io9pFCaDnVr_uIrznbBQ,CHA CHA MATCHA,1401 ABBOT KINNEY BLVD,VENICE,,,
353,,,,,,,,,,LA MICHOACANA ICE WATER AND FRUIT,3100 TWEEDY BLVD,LYNWOOD,,,
354,Dreamscape,,Virtual Reality Centers,211.0,4.5,,34.059019,-118.418865837157,htp5Vx5GeEU0Sp036Jhs1g,DREAMSCAPE,10250 SANTA MONICA BLVD STE 2740,CENTURY CITY,,,
355,Charm Thai Cuisine,,"Thai, Sushi Bars, Noodles",132.0,4.0,$$,34.14816,-118.78216,KhUO7B8DxJxhZmN6R5srag,CHARM THAI,30313 CANWOOD ST STE 34-35,AGOURA HILLS,,,
356,,,,,,,,,,WESTERN REFINING RETAIL #68119 (6347),19301 SOLEDAD CANYON RD,CANYON COUNTRY,,,
357,Del Taco,,"Mexican, Fast Food",44.0,3.0,$,33.8162879943848,-118.30606842041,t06A-yFV9bn0IRjn4XreIg,DEL TACO #267,1595 SEPULVEDA BLVD,TORRANCE,,,
358,Denim The Eatery,,"Comfort Food, Barbeque, Salad",148.0,4.5,$$,34.0354583377676,-118.258565296714,ZBo-5Ty1Op5_mbRLilb02g,DENIM,227 E PICO BLVD,LOS ANGELES,,,
359,Sandwich City & Burgers,,"Sandwiches, Burgers, Salad",15.0,4.5,,33.94736767,-118.0719335,OlzhFYZnN-o3hLecDwip6A,SANDWICH CITY & BURGERS,10012 NORWALK BLVD # 100,SANTA FE SPRINGS,,,
360,,,,,,,,,,CIRCLE K,9150 PAINTER AVE # 106,WHITTIER,,,
361,The Habit Burger Grill,,"Burgers, Sandwiches, Salad",85.0,3.0,,34.020637,-117.81023,pClSbzbfPJ8gmZHe8YH4zg,THE HABIT BURGER GRILL #262,257 S DIAMOND BAR BLVD,DIAMOND BAR,,,
362,,,,,,,,,,GOOD FORTUNE SUPERMARKET - SEAFOOD DEPARTMENT,13321 ARTESIA BLVD,CERRITOS,,,
363,Cudahy Fuel Stop,,"Gas Stations, Convenience Stores",3.0,4.5,$$,33.957415649088,-118.184117,WewlB2hzfFP6KMGUT1s6xw,CUDAHY FUEL STOP,8330 S ATLANTIC BLVD,CUDAHY,,,
364,Everytable,,"Salad, Fast Food",5.0,4.0,,34.05092,-118.45996,YOa54EBNvotX7QjBrzgJ_A,EVERYTABLE,11601 WILSHIRE BLVD,LOS ANGELES,,,
365,,,,,,,,,,J & L 99 CENT DISCOUNT,8473 1/2 S CENTRAL AVE,LOS ANGELES,,,
366,Hana Kitchen,,"Asian Fusion, Bubble Tea, Tacos",60.0,4.5,$,34.08686,-118.29152,lQNqa01QtgBbk29ivqmTKg,HANA KITCHEN,854 N VERMONT AVE,LOS ANGELES,,,
367,Golden West Donuts,,"Donuts, Coffee & Tea, Sandwiches",22.0,3.0,$,33.91673,-118.09963,r05CdYpt9eEKmaelhG3pZg,GOLDEN WEST DONUTS,10948 IMPERIAL HWY,NORWALK,,,
368,CVS Pharmacy,,"Pharmacy, Drugstores, Convenience Stores",17.0,2.0,$$,33.87336,-118.37345,yl1ensHNkKTOvC2sbHrkgw,CVS/PHARMACY #10795,2115 ARTESIA BLVD,REDONDO BEACH,,,
369,Uncle Reds Pizzeria,,"Pizza, Italian",412.0,4.0,$$,33.90483,-118.1337,16PP0UlcLr5bGsX5VRg1Vg,UNCLE REDS PIZZERIA,13762 CLARK AVE,BELLFLOWER,,,
370,,,,,,,,,,MATCHA DREAM INC.,18180 COLIMA RD UNIT #A,ROWLAND HEIGHTS,,,
371,,,,,,,,,,SUPER 98 MARKET,2625 S WESTERN AVE,LOS ANGELES,,,
372,Rod’s Tacos,,Mexican,152.0,4.0,$$,34.270904,-118.500344,EBGwgmugxeccMK84gU7dCw,ROD'S TACOS MEXICAN GRILL,16908 SAN FERNANDO MISSION BLVD,GRANADA HILLS,,,
373,Chavelita's Place,,Mexican,24.0,4.5,,33.9308,-118.35347,G_L5-4_i9QfNY7THK5uzDw,CHAVELITAS PLACE,4422 W IMPERIAL HWY,INGLEWOOD,,,
374,Hot Chilli Grill And Burgers,,"Burgers, Tacos",13.0,4.0,,34.55680833,-118.08451,dtfmh-l3Wt0I5RSzqLdFZg,HOT CHILLI GRILL & BURGERS,2511 OLIVE DR,PALMDALE,,,
375,Little Dimples Playground & Cafe,,"Indoor Playcentre, Bubble Tea, Coffee & Tea",109.0,4.5,$,34.033587399921,-118.095250949264,kV1rxJN8JaDlllmpmd9v_Q,LITTLE DIMPLES,1415 N MONTEBELLO BLVD,MONTEBELLO,,,
376,Olga's Naturally: Mexican + Vegan,,Mexican,272.0,4.0,$$,34.021206,-118.3728532,2goSSpEuir3egIAmo6Rbcw,OLGA'S NATURALLY,5808 OBAMA BLVD,LOS ANGELES,,,
377,Mariscos El Paradero,,"Seafood, Mexican, Sushi Bars",75.0,4.5,$$,33.88963,-118.13658,7AV2dYq_mKWo8m6H2u2Now,EL PARADERO,9251 ALONDRA BLVD STE A,BELLFLOWER,,,
378,,,,,,,,,,CENTRO NATURISTA EL SENOR DE LOS MILAGROS INC,4501 S ALAMEDA ST # 2,VERNON,,,
379,Wienerschnitzel,,"Hot Dogs, Fast Food, Sandwiches",44.0,3.0,$,34.12905,-117.87132,fsuHBob09uwytQKczGpCjA,WIENERSCHNITZEL # 24,509 W ROUTE 66,GLENDORA,,,
380,Sharp Tea,,"Bubble Tea, Coffee & Tea, Pancakes",92.0,4.0,$,34.050079,-118.242387,nFtfLVNIAsWIgrxMPMwIqQ,SHARP TEA,123 ASTRONAUT E S ONIZUKA ST,LOS ANGELES,,,
381,,,,,,,,,,BIRIYANI FACTORY AND FRANKIE,18929 NORWALK BLVD,CERRITOS,,,
382,Fresco Italia,,"Delis, Pizza, Italian",25.0,4.5,,34.048455,-118.385301,hTCz9__JPa6HecLp5R8cdQ,FRESCO ITALIA,1708 S ROBERTSON BLVD,LOS ANGELES,,,
383,Most Xcellent,,"Coffee & Tea, Juice Bars & Smoothies",53.0,5.0,$$,34.1053657913741,-117.806861207719,Br9oxF9qH8J5eJufw0cA1w,MOST XCELLENT,222 SAN DIMAS AVE,SAN DIMAS,,,
384,,,,,,,,,,MICKEY FINE AT WATT PLAZA,1925 CENTURY CITY EAST STE E,LOS ANGELES,,,
385,Birrieria Canelo’s,,Mexican,25.0,5.0,,33.990379,-118.185377,qiKE01GKpkz8EIzOcuLtBA,BIRRIERIA CANELO'S,5549 ATLANTIC BLVD,MAYWOOD,,,
386,Flame Broiler,,Fast Food,75.0,3.0,$,33.954833,-118.1131049,97qWZOXavSt3WHi4ncpHnw,THE FLAME BROILER  #119,9206 LAKEWOOD BLVD,DOWNEY,,,
387,Brothers Korean Bbq,,"Barbeque, Korean",169.0,4.0,$$,33.8384799,-118.07144,jC1CRARwJ7sGOp083_pQSQ,BROTHER KOREAN BBQ,12218 CENTRALIA ST,LAKEWOOD,,,
388,Yum Yum Donuts,,"Donuts, Coffee & Tea, Sandwiches",75.0,2.5,$,34.16514,-118.38743,-R9iDSr0lLiwd688J0LXMw,YUM YUM DONUTS FRANCHISE 25K,11699 MAGNOLIA BLVD,NORTH HOLLYWOOD,,,
389,El Cochito Sinaloense,,"Seafood, Mexican",11.0,3.5,,33.99229,-118.1135,v7xr9Ig56ySY-vbBM9DsYQ,RESTAURANTE EL COCHITO SINALUENSE,477 WASHINGTON BLVD,MONTEBELLO,,,
390,Shanghai Chef,,"Ramen, Hot Pot, Chinese",59.0,4.0,$$,34.19354767,-118.51768317,71KaOJE5rZ2UuHiYM71QEA,SHANGHAI CHEF,17638 VANOWEN ST,VAN NUYS,,,
391,Vallarta Supermarkets,,Grocery,80.0,3.5,,34.218177,-118.606982,oFuIZtdiRFyBAJgcr6U4Cg,VALLARTA SUPERMARKET #112  - PANADERIA,8201 TOPANGA CANYON BLVD,CANOGA PARK,,,
392,,,,,,,,,,E&J MARKET AND LIQUOR,14650 ROSCOE BLVD # 9,PANORAMA CITY,,,
393,Five Leaves LA,,"American (New), Bars",138.0,4.0,,34.09562,-118.29534,b8pVwG86OzwOqO-sw-nx6A,FIVE LEAVES,4845 FOUNTAIN AVE,LOS ANGELES,,,
394,,,,,,,,,,DECANDENCE,1332 HERMOSA AVE,HERMOSA BEACH,,,
395,7-Eleven,,"Convenience Stores, Coffee & Tea",19.0,2.5,$,34.049936,-118.243113,XmqHd2UuXC6LfpLaCGcB5A,7-ELEVEN #38266A,200 S LOS ANGELES ST # A2,LOS ANGELES,,,
396,Charlie's Grill,,Peruvian,19.0,4.0,,34.200816,-118.409891,S9PrljFVa6vDZrQRr3Qw3A,CHARLIE'S GRILL,12708 SHERMAN WAY STE B,NORTH HOLLYWOOD,,,
397,Market Grill,,"Mediterranean, Greek, Barbeque",28.0,5.0,,33.857611,-118.362613,o4sApUYHC_wHo6PpStwihw,MARKET GRILL,4848 W 190TH ST,TORRANCE,,,
398,Plaza Pantry Cafe,,"Breakfast & Brunch, Juice Bars & Smoothies, Cafes",17.0,4.5,$$,34.0519132900642,-118.472110703588,2a164ASGbxi9wXXs1cyj3A,THE PLAZA PANTRY,11980 SAN VINCENTE BLVD # 107,LOS ANGELES,,,
399,Yogurtland,,Ice Cream & Frozen Yogurt,276.0,4.0,$,34.1825748,-118.3107983,qE3yF_jTaczJWFkINIrM8Q,YOGURTLAND,304 N SAN FERNANDO BLVD,BURBANK,,,
400,cilantro lime 2.0,,"New Mexican Cuisine, Tacos",91.0,4.0,,34.142883,-118.237664,8tZt7MIFcF5OwkCIXZi7pw,CILANTRO LIME 2.0,1247 E COLORADO ST,GLENDALE,,,
401,7-Eleven,,"Convenience Stores, Coffee & Tea",14.0,3.5,$,33.9522170012164,-118.344243317952,9j7lpPDyhzYpmJ64gtsGOw,7-ELEVEN STORE 26254B,913 S PRAIRIE AVE,INGLEWOOD,,,
402,Siam Cafe Thai Food,,Thai,208.0,4.0,$,34.201574,-118.482966,Eqi8VQHExczlBHWpR_d0PA,SIAM HOUSE THAI STREET FOOD,16045 SHERMAN WAY # D,VAN NUYS,,,
403,Amo Mac Liquor & Deli,,"Pizza, Mediterranean, Convenience Stores",10.0,4.5,,34.4927057009432,-118.619534634054,mDx_pL8PduWfY20GPDXzzw,AMO MAC LIQUOR & DELI MARKET,31595 CASTAIC RD,CASTAIC,,,
404,,,,,,,,,,TOYON GRILL & EVENT CENTER,708 CRESCENT AVE FL 2ND,AVALON,,,
405,Menchie's Frozen Yogurt,,"Ice Cream & Frozen Yogurt, Custom Cakes",189.0,4.0,$,34.16032,-118.34507,zd9QJzTaNrANs9jai954bQ,MENCHIE'S FROZEN YOGURT,3800 W VERDUGO AVE,BURBANK,,,
406,Tak-e sushi & rolls,,"Sushi Bars, Japanese",95.0,4.0,$$,33.8417298168169,-118.285004496574,sEu7xnh9_g8pOJmlCbA1sA,TAK-E SUSHI & ROLLS,20804 FIGUEROA ST,CARSON,,,
407,,,,,,,,,,AGA MARKETAC,44638 10TH ST W,LANCASTER,,,
408,Ralphs,,Grocery,149.0,3.0,$$,34.14418,-118.413169,bpjhA4_xvhjb2LGlKVrfBw,RALPHS MARKET #701 - MURRAYS CHEESE SHOP,12842 VENTURA BLVD,STUDIO CITY,,,
409,Five Below,,Discount Store,21.0,4.0,,34.2775229789629,-118.568122722209,LfCNQK8gyxbCz6FN-Tu3aw,"FIVE BELOW, INC (#1300)",19881 RINALDI ST,PORTER RANCH,,,
410,Valerie Confections,,"Chocolatiers & Shops, Bakeries",157.0,4.5,$$$,34.0733229,-118.2861325,4ZlpT-4IRgY72B0eUBUHrg,VALERIE CONFECTIONS,3364 W 1ST ST,LOS ANGELES,,,
411,RASPOUTINE Los Angeles,,"Dance Clubs, Bars",63.0,3.0,,34.08212,-118.38097,8dTLgRAVQZS0j9nARlVcjQ,RASPOUTINE LOS ANGELES,8623 MELROSE AVE,WEST HOLLYWOOD,,,
412,Burlington Coat Factory,,"Department Stores, Baby Gear & Furniture",96.0,3.0,$,34.12562,-118.05545,WqyLQBipSEa5tkv-hb9VjQ,BURLINGTON COAT FACTORY #195,1201 S BALDWIN AVE,ARCADIA,,,
413,Family Discount Store,,Discount Store,2.0,5.0,,34.05496,-118.27302,H4RM-T1g4vS6c9oMnQLYcg,FAMILY DISCOUNT STORE,1727 W 7TH ST,LOS ANGELES,,,
414,Farm District Marketplace,,"Health Markets, Sushi Bars, Pizza",73.0,4.5,,34.1510325407697,-118.25617980212,wOgEqebC6w_jGqYzrIcs6Q,FARM DISTRICT MARTKETPLACE - PIZZA/DELI,328 N ORANGE ST,GLENDALE,,,
415,Shell,,"Gas Stations, Convenience Stores",3.0,3.0,,34.4232937425299,-118.584473200611,d_IfmnZZHuX1Q7eQijobPQ,MAGIC SHELL,27624 THE OLD RD,SANTA CLARITA,,,
416,Discount Club 27,,Discount Store,1.0,3.0,,33.73637,-118.28755,5Sm7McIImWyZYNG5YMwldg,DISCOUNT CLUB #27,816 S PACIFIC AVE,SAN PEDRO,,,
417,Gino's Italian Restaurant,,"Italian, Pizza, Wine Bars",188.0,3.5,$$,34.6888858,-118.1127749,ggNWooIrQe0u-M1QvkDOVw,GINO'S ITALIAN RESTAURANT,44343 CHALLENGER WAY,LANCASTER,,,
418,Doc Popcorn,,Popcorn Shops,15.0,4.0,,34.0707433369819,-117.934111006442,AsO4gbf7IyLksukA118JoA,DOC POPCORN,112 PLAZA DR # 9009,WEST COVINA,,,
419,Tweedy Panda Donuts & Chinese Food,,"Donuts, Chinese",2.0,4.5,$,33.96041,-118.26319,IcP4bVL4NntsVkI0NKt4dg,TOP BEIIJNG CHINESE FOOD,649 E MANCHESTER AVE,LOS ANGELES,,,
420,Cafe Brio,,"Pizza, Delis",42.0,3.5,$,34.0500350536831,-118.460706591381,aa5Zs6R0G4VWnOonUxGwSw,CAFE BRIO,11645 WILSHIRE BLVD STE 100,LOS ANGELES,,,
421,Big Mama's & Papa's Pizzeria,,"Pizza, Salad, Sandwiches",182.0,3.5,$$,34.2210111739778,-118.53635430336,l0MR3HKvPOE8HWlFIsjnpw,BIG MAMA'S & PAPA'S PIZZERIA,8323 RESEDA BLVD # 101,NORTHRIDGE,,,
422,,,,,,,,,,MIS REINAS,1 OLVERA ST # C-29,LOS ANGELES,,,
423,Teabella,,Bubble Tea,37.0,4.0,,34.04803,-118.25124,OnbjOkIRixQ-ss9SW95btA,TEABELLA,312 W 5TH ST # 103,LOS ANGELES,,,
424,,,,,,,,,,EL CALIFA,2065 W 6TH ST STE B6,LOS ANGELES,,,
425,Jons Marketplace,,"Beer, Wine & Spirits, Convenience Stores, Delis",123.0,3.0,$,34.1998668,-118.4660651,9ar-I-VdT4D9lGA6itYm4Q,LILIT BAKERY & CAFE @ JONS,7134 SEPULVEDA BLVD,VAN NUYS,,,
426,Arco,,"Gas Stations, Convenience Stores, Car Wash",16.0,2.0,$,34.0520515,-118.0636673,eiX8aKCMobL0-pZc16vWzw,SOUTH EL MONTE ARCO AM/PM,2004 ROSEMEAD BLVD,SOUTH EL MONTE,,,
427,Lavo Noodles & Thai Curry Pizza,,"Thai, Noodles, Pizza",56.0,5.0,,34.22084,-118.41404,fjLLcwRwNA8HbmSjQPMlew,LAVO NOODLE,8236 COLDWATER CANYON BLVD,NORTH HOLLYWOOD,,,
428,Burlington Coat Factory,,Department Stores,81.0,3.0,$$,34.1865849,-118.6245142,iJeaAkxt0QCoqXCF1bgUBQ,BURLINGTON COAT FACTORY # 264,22835 VICTORY BLVD,WEST HILLS,,,
429,,,,,,,,,,ANNA WANG'S KITCHEN,812 NOGALES ST,WALNUT,,,
430,Dreams Gentlemens Club Strip & Pool Tables,,Strip Clubs,18.0,3.0,$$,33.7817184,-118.2429397,E-JrNQiTnPHF3wfvsW_CMg,DREAMS CLUB,811 CRISTOBAL AVE,WILMINGTON,,,
431,Club Saludable,,"Nutritionists, Health Markets",1.0,5.0,,34.2082665401,-118.388288687,t3dx7ZWxuEXEkjJq4INqXA,CLUB SALUDABLE,7561 LANKERSHIM BLVD # 84,NORTH HOLLYWOOD,,,
432,Sugar Fix Cafe,,"Bakeries, Coffee & Tea, Juice Bars & Smoothies",171.0,4.5,$$,34.238739,-118.5350248,rzQSoshFp_tj3QOGaKxLnw,SUGAR FIX BAKERY,9250 RESEDA BLVD STE 10,NORTHRIDGE,,,
433,Jersey Mike's Subs,,"Sandwiches, Delis, Fast Food",40.0,3.5,,33.8729104496657,-118.0642326,z3dBeExgg8211FvXHaDflg,JERSEY MIKE'S SUBS #20297,12550 ARTESIA BLVD,CERRITOS,,,
434,Mel's Bakery & Cafe,,"American (New), Southern, Breakfast & Brunch",41.0,4.0,$,34.0002365112305,-118.315864562988,2-uo042ZMl5Sy6h43biY-Q,MEL'S CAFE,1977 W 48TH ST,LOS ANGELES,,,
435,Silverlake Ramen DTLA,,Ramen,193.0,4.0,$$,34.0456900880384,-118.251432292163,qbX-jR8QBAGWZ5WHw0Js8A,SILVERLAKE RAMEN DTLA,615 S SPRING ST,LOS ANGELES,,,
436,BakersBodega,,"Bakeries, Cooking Classes",165.0,3.5,$$,33.985072,-118.096956,ndeE0DisuKJ4heJWS8Ebiw,BAKERSBODEGA,8921 WASHINGTON BLVD,PICO RIVERA,,,
437,El Munchies,,"Mexican, Ice Cream & Frozen Yogurt, Desserts",188.0,4.0,$,34.14298,-118.23556,f_Xa1nG7aHNSiVdFEVByYA,EL MUNCHIES,1353 E COLORADO ST,GLENDALE,,,
438,,,,,,,,,,HARPS LIQUOR,6917 LANKERSHIM BLVD,NORTH HOLLYWOOD,,,
439,,,,,,,,,,ANS LIQUOR GAS TEKHA,4625 HOOPER AVE,LOS ANGELES,,,
440,Tartine Bianco,,"American (New), Bakeries",179.0,3.5,$$,34.0345211026934,-118.240379575406,zKsadpqyUwu0li6h8WFqyw,TARTINE BIANCO - MLA -MARKET,757 S ALAMEDA ST # 160,LOS ANGELES,,,
441,,,,,,,,,,FRUTAS Y RASPADOS AZTECA,1611 DURFEE AVE,SOUTH EL MONTE,,,
442,,,,,,,,,,BIENESTAR,141 N MACLAY AVE,SAN FERNANDO,,,
443,Tokyoya Sushi,,"Japanese, Sushi Bars, Seafood",162.0,4.5,$$,34.1801809257036,-118.301677778363,4Rqe-bNSdsIzuP02zwjEeQ,TOKYOYA SUSHI,520 S GLENOAKS BLVD,BURBANK,,,
444,,,,,,,,,,SPIZE IT UP,13308 1/2 VALLEY BLVD,LA PUENTE,,,
445,SushiMe Roll'n,,"Sushi Bars, Japanese",927.0,4.0,$$,34.07021,-117.88829,iON7RqCYtqa9Mjm_Hz4vsA,SUSHIME ROLL'N,2686 E GARVEY AVE S,WEST COVINA,,,
446,Don Chente Bar & Grill,,"Mexican, Lounges",218.0,3.0,$$,34.002619,-118.090664,_rJKs7R2BaS9NvVXYaelRw,DON CHENTE BAR & GRILL,8538 WHITTIER BLVD,PICO RIVERA,,,
447,The Fountain,,"Cocktail Bars, Beer Bar",8.0,4.5,,34.04365,-118.25266,Rnqn2PLx7DsVtDun1d1ojw,THE FOUNTAIN,724 S SPRING ST,LOS ANGELES,,,
448,Domino’s Pizza,,Pizza,4.0,1.0,,34.103492129666,-118.235522026288,NX9grVavvp2tQQE7MFvdTw,DOMINO'S PIZZA,2933 N DIVISION ST # A,LOS ANGELES,,,
449,Silver Skate Liquor Store,,"Beer, Wine & Spirits",4.0,5.0,$,33.80804,-118.307571,rSDN4PtGrIOI_PwIRrcSXQ,SILVER SKATE LIQUOR & MART,23814 WESTERN AVE,HARBOR CITY,,,
450,Masa Tacos,,Tacos,35.0,4.0,,34.0738562812198,-118.210637580189,55g4389-EjOejTOYhpJmoA,MASA TACOS,2929 1/2 N BROADWAY,LOS ANGELES,,,
451,,,,,,,,,,WINCHELL'S #911,4516 IMPERIAL HWY,INGLEWOOD,,,
452,Mr Right Noodles,,"Noodles, Chinese, Coffee & Tea",43.0,4.5,,34.09936,-118.09048,M_3PmfAKJNBCffl7AMSeoQ,MR. RIGHT NOODLES,288 S SAN GABRIEL BLVD # 102,SAN GABRIEL,,,
453,Rudy's Baja Grill,,Sports Bars,19.0,3.5,$$,34.03307,-118.151581,RpgGUPlWbAGwewDdt3UPgg,RUDY'S LA,5226 POMONA BLVD,LOS ANGELES,,,
454,Wild Terra,,"Herbs & Spices, Organic Stores, Tea Rooms",48.0,4.5,$$,34.1102979,-118.1910572,FHj6RQ6B1g3Qgci2lMk9eQ,WILD TERRA,5858 N FIGUEROA,LOS ANGELES,,,
455,Dollis,,"Breakfast & Brunch, Burgers, Sandwiches",98.0,4.0,,34.09603,-117.88978,qM_I8gsk_M1F71bDRbyNww,DOLLIS,900 N CITRUS AVE,COVINA,,,
456,Boba Tea Cafe,,"Coffee & Tea, Bubble Tea, Juice Bars & Smoothies",36.0,4.0,$,34.095444,-117.915597,Fl4kc2RU24FHjNok6ji4Dg,BOBA AND TEA CAFE,17026 E CYPRESS ST # B,COVINA,,,
457,,,,,,,,,,SHOPBITE MARKET,700 W 7TH ST # 5310,LOS ANGELES,,,
458,Meet Fresh,,"Desserts, Shaved Ice, Bubble Tea",177.0,3.5,,33.8579996,-118.0804776,rGnf8D6D0O343dX1SAvw9Q,"MEET FRESH EXQUISITE TEA, TREATS, DESSERTS",11900 SOUTH ST # 109,CERRITOS,,,
459,,,,,,,,,,PAN DE LORETO- BAKERY,15933 PIONEER BLVD,NORWALK,,,
460,Cafe Vine,,"Mediterranean, Cafes, Sandwiches",15.0,4.5,,34.12909,-117.8716,vXdlNVkfuippuoMvZvZWZQ,CAFE VINE,519 W ROUTE 66,GLENDORA,,,
461,Dayro Market,,Grocery,24.0,4.0,$,33.8944,-118.35567,Xf-CBw-Xxk-2k0DzEIr5uA,DAYRO MEAT MARKET,4524 MARINE AVE,LAWNDALE,,,
462,,,,,,,,,,ELICEO'S,14650 PARTHENIA ST # F14,PANORAMA CITY,,,
463,,,,,,,,,KItdnok0nvsbyHky5L1xrQ,VALENCIA MARKET,22925 LYONS AVE,NEWHALL,,,
464,Tenju Tea House,,"Bubble Tea, Coffee & Tea",152.0,4.5,$,33.9896354240717,-117.904898263514,2s35bpMHO1BMPNJsQB_JuQ,TENJU TEA HOUSE,18311 COLIMA RD # B,ROWLAND HEIGHTS,,,
465,Yanagi Kitchen,,"Japanese, Sushi Bars",107.0,4.5,$$,33.89753567,-118.396442,5iXCUtaRe3WmfsJRReBh4A,YANAGI KITCHEN INC.,3001 N SEPULVEDA BLVD STE C,MANHATTAN BEACH,,,
466,Hygge Coffee,,"Coffee & Tea, Sandwiches",121.0,5.0,,33.89096,-118.00102,hzWvHhRlXhfl0PZaMAECcA,HYGGE COFFEE,15536 LA MIRADA BLVD,LA MIRADA,,,
467,California Sushi & Teriyaki,,"Sushi Bars, Japanese",122.0,3.0,$,33.919298,-118.073869,Thp0twRp3D2FVODXMwrx3A,CALIFORNIA SUSHI & TERIYAKI,12305 NORWALK BLVD,NORWALK,,,
468,,,,,,,,,,AMY'S ASSORTED GINSENG,18419 COLIMA RD,ROWLAND HEIGHTS,,,
469,King Donkatsu,,Korean,28.0,3.5,,34.065751,-118.3083861,gOARdDJj9lgS4tEuXfUPvw,KING DONKATSU,450 S WESTERN AVE #305 FC4,LOS ANGELES,,,
470,Pho 1,,"Vietnamese, Chinese",92.0,4.5,,34.13535,-117.86591033,JjEaQvto-dzOUADd5bC_iA,PHO 1,106 W FOOTHILL BLVD,GLENDORA,,,
471,,,,,,,,,,ASSO,4019 W SUNSET BLVD,LOS ANGELES,,,
472,,,,,,,,,,3775 VERMONT,3775 S VERMONT AVE,LOS ANGELES,,,
473,Ocean fish & chicken,,"Seafood, Chicken Wings",9.0,3.5,,34.00372,-118.33256,Ye_92zZ8bL92pgmREJeuQg,OCEAN FISH & CHICKEN,4371 CRENSHAW BLVD STE A,LOS ANGELES,,,
474,Gyoza Boyz DTLA,,"Japanese, Asian Fusion",27.0,3.5,,34.0437727761669,-118.252955633491,Vz-vcwRDwQLxlIgAUACu5A,GYOZA BOYZ LA,724 S SPRING ST # 112,LOS ANGELES,,,
475,Honeybee Donuts,,Donuts,3.0,2.5,$,33.9892550557852,-118.230021223426,tXzxfzj9sHayxIa7UPbtRg,HONEYBEE DONUTS,2407 E SLAUSON AVE,HUNTINGTON PARK,,,
476,Aduke African Cuisine,,"African, Halal",123.0,4.5,$$,34.052758,-118.374573,ulv7YVJHv8ocDiM7YYNAgg,ADUKE AFRICAN CUISINE,6118 W PICO BLVD,LOS ANGELES,,,
477,Over Under Public House,,"Burgers, Steakhouses, Cocktail Bars",514.0,4.0,$$,34.1825663,-118.3107862,SZD9khVMZeKqIUolEvrCPw,OVER UNDER PUBLIC HOUSE,310 N SAN FERNANDO BLVD,BURBANK,,,
478,Bottle House Liquors,,"Beer, Wine & Spirits",14.0,5.0,$$,33.9892,-118.06415,WqtpTty2DqVkebjJMVc4-Q,THE BOTTLE HOUSE LIQUOR,6018 NORWALK BLVD,WHITTIER,,,
479,SomiSomi,,"Desserts, Ice Cream & Frozen Yogurt, Korean",143.0,4.5,$,33.831583,-118.349307,Ru8MhnhPEuqlmLKcn5QIPA,SOMISOMI SOFTSERVE AND TAIYAKI,21712 HAWTHORNE BLVD # K129,TORRANCE,,,
480,Ho Kee Cafe - Arcadia,,Cantonese,247.0,4.0,$$,34.10698,-118.05108,YJDnjESS9lf02w4BsNEP7w,HO KEE CAFE,558 LAS TUNAS DR,ARCADIA,,,
481,Paradis,,Ice Cream & Frozen Yogurt,148.0,4.5,$$,33.8632190920488,-118.400462506787,dtN7yOVzSE-Kz_6iWOJk2A,PARADIS ICE CREAM,1309 hermosa AVE,HERMOSA BEACH,,,
482,Family's Market,,Convenience Stores,4.0,4.0,$,34.0588399,-118.23788,E1gxCiWIka5BYz39zQzsnA,FAMILY'S MARKET,711 N MAIN ST # 102,LOS ANGELES,,,
483,Deluca’s Deli,,Delis,10.0,4.0,,34.060997,-118.417326,wmspC9gyoOSEamU3afilmA,DELUCA'S DELI,1800 AVENUE OF THE STARS,LOS ANGELES,,,
484,The Buffalo Spot,,"Chicken Wings, Salad, Wraps",59.0,3.0,,33.91741,-118.07027,CPh7ImELnrbWst7xiMfIKQ,THE BUFFALO SPOT,12303 IMPERIAL HWY,NORWALK,,,
485,,,,,,,,,,AMELIAS,403 N AVALON,WILMINGTON,,,
486,,,,,,,,,,BEYOND FOODMART INC,350 S GRAND AVE # R2B,LOS ANGELES,,,
487,Sweetwater Cafe,,American (Traditional),67.0,3.5,$$,34.4943314,-118.3261032,BJzp82w7y4Kd0f2hzr922Q,SWEETWATER DINING LLC,33310 AGUA DULCE CANYON RD,AGUA DULCE,,,
488,Si Chuan Small Kitchen,,"Szechuan, Coffee & Tea",3.0,2.0,,33.98936333,-117.90457833,YvL-TkP2vyUDZznO07m_Dw,SI CHUAN SMALL KITCHEN,18321 COLIMA RD UNIT #C,ROWLAND HEIGHTS,,,
489,Starbucks,,Coffee & Tea,81.0,3.0,$$,34.165116,-118.525290861726,4SEIWONXxyVDW2U2eWBugA,STARBUCKS #50834,18025 VENTURA BLVD,ENCINO,,,
490,Witch's Chicken,,"Korean, Chicken Shop",92.0,4.5,,34.052209,-118.308523,ZROWIc3EfvE5kiLu-uedTw,MANYUH CHICKEN  AKA WITCH'S CHICKEN,3250 W OLYMPIC BLVD UNIT 105,LOS ANGELES,,,
491,Petiscos,,Tacos,331.0,3.5,$$,34.0947857363063,-117.716803997755,hrBC2wE2xojvke_yNV2Iow,PETISCOS,211 W 1 ST ST,CLAREMONT,,,
492,SHYO Original Ramen,,Ramen,34.0,4.5,,34.0833851,-118.3100986,sDjVjW6RcZ0YpBBNoJQ3jg,SHYO RAMEN,5028 MELROSE AVE,LOS ANGELES,,,
493,Mr T Meat Market,,Meat Shops,3.0,5.0,$$$,33.9830856323242,-118.308616638184,8YKaw0AnzLzl3HWePaswyg,MT. T MEAT,6200 S WESTERN AVE,LOS ANGELES,,,
494,Art's Famous Chili Dog Stand,,"Hot Dogs, Fast Food, Food Stands",50.0,4.0,$,33.97427,-118.3008,f2moDZ2j8FZ7k_XMz4a95g,ART'S FAMOUS CHILI DOG,1410 W FLORENCE AVE,LOS ANGELES,,,
495,Tailgate Tavern,,Sports Bars,32.0,4.5,,34.03036,-118.3805,HRFBGnsK0CgrKMILQJ_vYw,TAILGATE TAVERN,8554 WASHINGTON BLVD,CULVER CITY,,,
496,Paris Baguette,,"Bakeries, Coffee & Tea, Patisserie/Cake Shop",234.0,3.5,$$,34.062786,-118.309532,Q_XX1qp8lv4GwXKnM6_DRw,PARIS BAGUETTE,621 S WESTERN AVE STE 105,LOS ANGELES,,,
497,,,,,,,,,,AH-HAN THAI,133 E LOMITA BLVD,CARSON,,,
498,Guadalajara Meat Market,,"Meat Shops, Mexican",12.0,5.0,$,33.9293,-118.16553,DvY9l0yT6-mGfNSYxh0Vmg,GUADALAJARA MARKET - RESTAURANT,5848 IMPERIAL HWY,SOUTH GATE,,,
499,El Gallo Mkt,,Grocery,1.0,5.0,,33.838998,-118.279323,lQpycq3ncZb4BWCkjfR9dw,EL GALLO MARKET,21002 S MAIN ST,CARSON,,,
500,Target,,"Department Stores, Furniture Stores, Electronics",94.0,3.0,$$,34.673656,-118.149399,YX5-S3y1pq9NDCulaU_Ecw,TARGET STORES #245 - STARBUCKS,43525 W 10TH ST W,LANCASTER,,,
501,Semitas Katrachas,,"Salad, Coffee & Tea, Sandwiches",5.0,5.0,,34.2315,-118.43845,qmS3ySCMjED65T_oRdHuqw,SEMITAS KATRACHAS BAKERY AND COFFEE,8923 WOODMAN AVE,ARLETA,,,
502,85°C Bakery Cafe,,"Patisserie/Cake Shop, Coffee & Tea, Bakeries",13.0,4.0,,34.0881584812407,-118.379359980601,2Acy0BD6nvcJPcbjxp9t7Q,85C BAKERY CAFE,8601 SANTA MONICA BLVD,WEST HOLLYWOOD,,,
503,Burlington Coat Factory,,"Men's Clothing, Women's Clothing, Children's Clothing",54.0,2.5,$$,34.0729160709368,-117.884785048664,v-xZSCOpXrH0mUpQSxJPqg,BURLINGTON COAT FACTORY,2753 EASTLAND CENTER DR,WEST COVINA,,,
504,Hummus Republic,,Mediterranean,241.0,4.5,$$,34.182505,-118.31107667,T9wwvoRsw4wKsafkCEkmoA,HUMMUS REPUBLIC,313 N SAN FERNANDO BLVD,BURBANK,,,
505,Taco Obsession,,Mexican,18.0,4.5,,33.92474767,-118.361534,CAav7AaS1RkyTp5nn62KyA,TACO OBSESSION,11925 INGLEWOOD AVE,HAWTHORNE,,,
506,Octavio’s restaurant,,Mexican,34.0,3.5,$,34.0237751,-118.1872066,7-Uf3XaOg7cMAui8KfCdLg,OCTAVIO'S RESTAURANT,3960 WHITTIER BLVD,LOS ANGELES,,,
507,El Faro Jewelry,,Jewelry,1.0,5.0,,34.0030899,-118.2401199,enaG0-_nIXyqvAR-sUi1Bg,DULCERIA EL FARO,4433 S ALAMEDA AVE SPC D4,LOS ANGELES,,,
508,Hong Kong Chef,,Chinese,126.0,4.0,$,33.946051,-118.118675,KiTEFxgAg1ssNq93EeMGTA,HONG KONG CHEF,10311 LAKEWOOD BLVD,DOWNEY,,,
509,,,,,,,,,,HOLLYWOOD STAR FOOD,6655 HOLLYWOOD BLVD STE #3,LOS ANGELES,,,
510,Honu Coffee,,Coffee & Tea,542.0,4.5,$,34.3804750335897,-118.531335414669,qXO917HgsMcls8COiTVcoA,HONU COFFEE,23502 LYONS AVE # 204,NEWHALL,,,
511,Menchie's,,Ice Cream & Frozen Yogurt,73.0,4.0,$,34.285563,-118.44262,xXlknXzsEOPNUJhFId083w,MENCHIE'S FROZEN YOGURT,1201 TRUMAN ST # F,SAN FERNANDO,,,
512,The Rice Street,,"Asian Fusion, Thai",285.0,4.0,$,33.9670353,-118.1576338,qTSKc4nxxU7eAs67nYmVXQ,RICE STREET THAI URBAN RESTAURANT,6000 FLORENCE AVE UNIT B,BELL GARDENS,,,
513,,,,,,,,,,TOBIAS MINI MARKET,14663 PARTHENIA ST,PANORAMA CITY,,,
514,C & C Donuts,,Donuts,31.0,4.5,$,33.8321266174316,-118.29273223877,zXDxxKUUn5zXwCnf1rlQUg,C & C DONUTS,1001 W CARSON ST # C,TORRANCE,,,
515,Stumptown Coffee Roasters,,Coffee Roasteries,40.0,4.0,$$,34.04203,-118.25278,jb2cZFTKsOJmn6C7OxpKOw,STUMPTOWN COFFEE ROASTERS,120 E 8TH ST,LOS ANGELES,,,
516,,,,,,,,,,CHURCH OF JESUS CHRIST OF TH,2730 E 12TH ST,LOS ANGELES,,,
517,Adams' Pack Station,,"Campgrounds, Vacation Rentals",26.0,3.5,,34.172045,-118.030363,3BOEIK3pl7KFD0PHPpBw5Q,ADAMS' PACK STATION,1 CHANTRY FLAT RD,SIERRA MADRE,,,
518,Silver Platter,,"Dance Clubs, Pubs",9.0,5.0,$$$$,34.05923,-118.28354,OKP8CQxXKcpsA7j3N4Dxzw,SILVER PLATTER,2700 E 7TH ST,LOS ANGELES,,,
519,iDonuts,,Donuts,7.0,4.5,$$,33.91679833,-118.20888667,y6_e3TrOcyTwPY655XxEng,IDONUTS,12200 S LONG BEACH BLVD STE A,LYNWOOD,,,
520,Mei Wei Jin Hai,,"Chinese, Barbeque",9.0,4.0,,34.062339,-118.110213,LvgbE5VlkNquE67Piumpaw,MEI WEI JIN HAI,910 E GARVEY AVE,MONTEREY PARK,,,
521,Papa John's Pizza,,Pizza,52.0,2.0,$,33.92317,-118.02137,d061ssCTk2sNEnFBu8AfQQ,PAPA JOHN'S,14569 TELEGRAPH RD,LA MIRADA,,,
522,I coffee bar,,Coffee & Tea,22.0,5.0,,34.062766,-118.309523,mELqBCzS8vRD31eiLyg_7w,I COFFEEBAR,621 S WESTERN AVE # 101,LOS ANGELES,,,
523,BBQ Choice,,Barbeque,33.0,4.5,,34.19361,-118.40563,PFpSQn7UXM80GzGdKEHLBw,BBQ CHOICE,12510 VANOWEN ST,NORTH HOLLYWOOD,,,
524,1 Hotel West Hollywood,,"Venues & Event Spaces, Hotels",36.0,4.0,$$$,34.0941324,-118.3760522,gtZ-qGne-upyaRL7hbKdqg,1 HOTEL WEST HOLLYWOOD - LOBBY BAR (JUNIPER),8490 SUNSET BLVD,WEST HOLLYWOOD,,,
525,The Original Las Brisas,,"Seafood, Mexican",177.0,3.5,$,33.75416,-118.29191,rKvNLEqXJYlgQxJH_8PB1w,THE ORIGINAL LAS BRISAS MEXICAN FOOD,1110 N GAFFEY ST,SAN PEDRO,,,
526,Cha Bei Bei Teahouse,,"Coffee & Tea, Juice Bars & Smoothies, Tea Rooms",64.0,4.5,$$$,34.06257,-118.34364,aHU_HnIaTSKiryOuf-OxcQ,CHA BEI BEI INC,5217 WILSHIRE BLVD,LOS ANGELES,,,
527,Tartine Bianco,,"American (New), Bakeries",179.0,3.5,$$,34.0345211026934,-118.240379575406,zKsadpqyUwu0li6h8WFqyw,TARTINE BIANCO - COFFEE MANUFACTORY,757 S ALAMEDA ST # 160,LOS ANGELES,,,
528,Bar Azul,,"Filipino, Karaoke, Lounges",39.0,4.5,,34.030916,-117.911717,GCDEMw6rv0Th9A21Uo6Cmg,BAR AZUL KITCHEN AND LOUNGE,1559 E AMAR ROW A & B,WEST COVINA,,,
529,Sugar Babies Bake Shop,,"Bakeries, Cupcakes, Desserts",189.0,4.0,$$,34.1579637,-118.4223751,3f6V2nUv46aEJljqB1VqlQ,SUGAR BABIES BAKE SHOP,4810 FULTON AVE,SHERMAN OAKS,,,
530,Grub House,,"Burgers, Chicken Wings, American (Traditional)",182.0,4.5,$$,34.1452,-118.3631,LbfYGcl-uPR4itSM8vQFSQ,GRUB HOUSE,4143 LANKERSHIM BLVD,STUDIO CITY,,,
531,Famous Market,,"Grocery, Salad, Meat Shops",21.0,5.0,$,34.1896298755139,-118.387473192577,yELkkZudvnJQFB9E9DiEjA,FAMOUS MARKET,6530 LANKERSHIM BLVD,NORTH HOLLYWOOD,,,
532,Pico Rivera Golf Club,,Venues & Event Spaces,2.0,3.5,,34.0139999389648,-118.064262390137,ddOBUAyAvj7gjK8BQ64jFA,PICO RIVERA GOLF SHOP BAR-REST.,3260 FAIRWAY DR,PICO RIVERA,,,
533,American Beauty,,"Steakhouses, Seafood, Cocktail Bars",82.0,4.5,$$$,33.998085,-118.474558,qM3OloAChv0_RFz2aaw0ug,AMERICAN BEAUTY,425 ROSE AVE,VENICE,,,
534,Tacos El Fogón,,Mexican,155.0,3.5,$,33.88916,-118.1143,aRaHIGBjivD5jZz96TYv5A,TACOS EL FOGON,10325 ALONDRA BLVD,BELLFLOWER,,,
535,Bar Sopra,,Bars,1.0,5.0,,34.0888,-118.3769,ucrARSbQWkwYDyYcY9Aa-Q,SOPRA BAR,8512 SANTA MONICA BLVD,WEST HOLLYWOOD,,,
536,Louks Greek Baby Donuts,,"Donuts, Coffee & Tea, Ice Cream & Frozen Yogurt",246.0,4.5,$$,33.95441217,-118.11240717,lLKXiGtsi6eGr2kRLxAdXQ,LOUKS GREEK BABY DONUTS,9232 LAKEWOOD BLVD,DOWNEY,,,
537,Sausalido Cafe,,"Sandwiches, Noodles, Bubble Tea",40.0,5.0,,33.879751,-118.334348,PSZ_6ZD6EOzEpxqECIXvSQ,SAUSALIDO CAFE,3566 REDONDO BEACH BLVD,TORRANCE,,,
538,Athens Chicken,,"Mediterranean, Greek, Middle Eastern",19.0,4.5,,34.15716,-118.4373027,tLMz2ff8IH2zPTl5YQEplw,ATHEN'S CHICKEN,14006 RIVERSIDE DR,SHERMAN OAKS,,,
539,Honeytart,,"Bakeries, Desserts, Custom Cakes",9.0,5.0,,33.9875165738612,-118.224272705065,dRaT2L2nMpsQhJ7_mFERoQ,HONEYTART PATISSERIE,5948 PACIFIC BLVD,HUNTINGTON PARK,,,
540,Crimson,,"Mediterranean, Coffee & Tea, Salad",186.0,4.5,$$,34.01665,-118.49121,rbcuw64GMraq0ynZbkW4Jg,CRIMSON,606 BROADWAY STE 101,SANTA MONICA,,,
541,Royal Donuts,,Donuts,6.0,4.0,$,33.81866,-118.28626,qvZo4n2jbMxAkPIqnmy6-A,ROYAL DONUTS,22811 FIGUEROA ST,CARSON,,,
542,Pupuseria Acajutla,,Salvadoran,12.0,4.0,$,33.9867057800293,-118.26473236084,x4byxKSdX0ADJunAXEKVVA,PUPUSERIA CUZCATLAN CORP,608 E 59TH ST,LOS ANGELES,,,
543,Shamshiri Restaurant,,Persian/Iranian,339.0,4.0,$$,34.163496270641,-118.256170788361,B57MEeC3qT_cg72FTrNUOQ,SHAMSHIRI RESTAURANT,122 W STOCKER ST,GLENDALE,,,
544,Beach City Grub,,Caterers,28.0,5.0,,33.888423,-118.0645893,K4ZKMttYmn1ZO5tGNjdxBw,BEACH CITY GRUB,12547 ALONDRA BLVD,NORWALK,,,
545,Wing Lee Poultry Market,,Meat Shops,4.0,5.0,,34.074992,-117.719621,dWVA0x-eFs0om2oBToLlsw,WING LEE FARM MARKET,1665 INDIAN HILL BLVD,POMONA,,,
546,Nishi Poke & Sushi Roll,,"Poke, Sushi Bars, Japanese",92.0,4.5,$$,34.026938852254,-118.371561765559,GbSYL4J9viJWWM0wVsaZgQ,NISHI POKE AND ROLL,3338 S LA CIENEGA BLVD,LOS ANGELES,,,
547,In-N-Out Burger,,"Burgers, Fast Food",54.0,4.0,$,34.12853,-117.88667,rw_Zit7eG4gCNjarrSTRiA,IN-N-OUT BURGER,988 E ALOSTA AVE,AZUSA,,,
548,Vinovore,,"Beer, Wine & Spirits, Gift Shops",25.0,4.5,$$,34.0821434,-118.2843151,iAz3NTyxQKz0doRb03ph5g,VINOVORE,616 N HOOVER ST,LOS ANGELES,,,
549,,,,,,,,,,RAMIRO PRODUCE,4501 S ALAMEDA ST # P-7,LOS ANGELES,,,
550,Fire Grill,,"Mexican, Armenian",19.0,3.0,,34.27043667,-118.416795,lzWMuxZBkvxQD-0oTwD4Bw,FIRE GRILL,13003 VAN NUYS BLVD # A,PACOIMA,,,
551,Dim Sum King,,Dim Sum,193.0,4.0,,34.062457,-118.031135,IrDV2qyz0cinpx6mozeZzQ,DIMSUM KING,11230 GARVEY AVE # D,EL MONTE,,,
552,Lollicup Fresh,,Taiwanese,18.0,4.0,,34.005728,-118.1529537,7lxlK1niiBqgEzzms65kMg,LOLLICUP FRESH,150 CITADEL DR # FC-G,COMMERCE,,,
553,,,,,,,,,,RASPADELICIOUS,1123 HACIENDA BLVD,HACIENDA HEIGHTS,,,
554,Young Dong Restaurant,,"Korean, Soup, Comfort Food",285.0,4.0,$$,34.061548283255,-118.310203513492,FdczJ1FzuV_ZydUHXAa5DA,SHIN SA YOUNG DONG RESTAURANT,3828 W WILSHIRE BLVD,LOS ANGELES,,,
555,Froyo Freeze,,Ice Cream & Frozen Yogurt,15.0,4.5,,33.790782,-118.297195,OHBTlIPeU19C5Q5BGmEpYg,FROYO FREEZE,1111 PACIFIC COAST HWY # 3,HARBOR CITY,,,
556,Dragon Bakery,,"Bakeries, Custom Cakes",82.0,5.0,$,34.0139757,-117.9727798,BdPBTiq0ZGnYs5UPr6xXog,DRAGON BAKERY,15331 GALE AVE,INDUSTRY,,,
557,Celtic Raven Pub,,"Irish Pub, Sports Bars, Music Venues",11.0,4.0,$$,34.21962,-118.57306,QHyxxtn9LgC-ev8uBbVMFA,CELTIC RAVEN,20160 ROSCO BLVD,WINNETKA,,,
558,Wetzel's Pretzels,,Pretzels,52.0,3.0,$,34.1460240716304,-118.258379481506,DFKUk7cx_glDD9AMMP1gpw,WETZELS PRETZELS,2179 GALLERIA WAY,GLENDALE,,,
559,La Vie Pizza & Subs,,"Pizza, Breakfast & Brunch, Wraps",38.0,4.5,,33.832,-118.08759,uGn52c_m0fzw031po-sU8Q,LA VIE PIZZA & SUBS,11529 E CARSON ST,LAKEWOOD,,,
560,Crepelicious Cafe,,Cafes,1.0,5.0,,34.0392935,-117.94941083,15Q28uUiW75dw_Y234A47g,MODERNS CAFE,1078 HACIENDA BLVD,LA PUENTE,,,
561,Jang U Dong,,Korean,1.0,4.0,,34.057442,-118.293725,n5Ph0tkZbFpkd1KAGUV5zw,MA JANG DONG,3063 W 8TH ST,LOS ANGELES,,,
562,Menya Hanabi,,Ramen,592.0,4.5,$$,34.124942606387,-118.056387132162,aZlO1Q-JPc7WDZckS7Ck3g,MENYA HANABI RESTAURANT,733 W NAOMI AVE UNIT K,ARCADIA,,,
563,La Asunción Family Restaurant,,Mexican,32.0,4.0,$$,34.228681,-118.4670773,PDIYL5STM1YHOpgl5CkxgQ,LA ASUNCION FAMILY RESTAURANT,8712 SEPULVEDA BLVD,NORTH HILLS,,,
564,Threes Kitchen Restaurant,,Cantonese,152.0,4.5,,34.08071,-117.98239,G6mn1C1kj4wsOST1cMJcBg,THREES KITCHEN,13334 RAMONA BLVD # K,BALDWIN PARK,,,
565,,,,,,,,,,"KBAKE, INC",7122 BEVERLY BLVD # C,LOS ANGELES,,,
566,,,,,,,,,,CAFE ME RYUN,3617 W 3RD ST,LOS ANGELES,,,
567,Bangkok BBQ,,"Thai, Barbeque, Hot Pot",229.0,3.5,$$,34.02036,-117.8649,6-vpA41StGEJCIiP1OQphw,BANGKOK BBQ THAI RESTAURANT,372 N LEMON AVE,WALNUT,,,
568,Colorado Kitchen,,American (Traditional),15.0,3.5,,34.029848,-118.472823,sbSTrTdZC89ZthX6wivmyw,COLORADO FOOD HALL - VENUE B,2501 COLORADO BLVD,SANTA MONICA,,,
569,KFC,,"Chicken Shop, Fast Food, Chicken Wings",39.0,3.0,$,34.0097005,-117.885385533508,lp1ZVqOemw7kjkuglmab9Q,WALNUT KFC,19080 LA PUENTE RD,WEST COVINA,,,
570,,,,,,,,,,PAINTING WITH A TWIST,19115 GOLDEN VALLEY RD,SANTA CLARITA,,,
571,Clutch and Coffee,,"Coffee & Tea, Cafes, American (New)",473.0,4.5,$$,33.834823,-118.316464,OBotKSDujFAMXcbk0yMqug,CLUTCH N COFFEE CAFE,1321 EL PRADO AVE,TORRANCE,,,
572,,,,,,,,,,NUTRIWELL RAZAZANA,224 E ARBOR VITAE ST,INGLEWOOD,,,
573,Baja California Tacos,,"Seafood, Tacos",20.0,4.5,,34.0546625,-118.2776965,NRGZRCx-GjQOrOuH_UzL3g,BAJA CALIFORNIA TACOS,2030 W 8TH ST,LOS ANGELES,,,
574,Cantina Frida,,"New Mexican Cuisine, Diners, Cocktail Bars",171.0,3.5,,34.0682126116976,-118.399806491057,caYNq3SVg1Qju2MBxoTrbg,CANTINA FRIDA,252 N BEVERLY DR,BEVERLY HILLS,,,
575,Hot Mariscos,,"Seafood, Cajun/Creole",79.0,4.0,$$,33.97445,-118.22335,7plJ-DrATdHWzieJ7pW0vg,HOT MARISCOS,2667 E FLORENCE AVE STE A,HUNTINGTON PARK,,,
576,,,,,,,,,,GARCIA'S MARKET,2721 S CENTRAL AVE,LOS ANGELES,,,
577,,,,,,,,,,WILTER THEATRE - LOWER LEVEL,3790 WILSHIRE BLVD STE 415,LOS ANGELES,,,
578,Recital Karaoke,,Karaoke,103.0,3.5,$$$,34.0632410218741,-118.29850144608,a9C3kLooWawCWLP1CNPNHw,RECITAL KARAOKE,3500 W 6TH ST # 330,LOS ANGELES,,,
579,SY Fresh Delights,,"Coffee & Tea, Sandwiches, Acai Bowls",2.0,5.0,,34.05857,-118.44198,x2kixWExC8lcm0B1M139XQ,SY FRESH DELIGHTS,10866 WILSHIRE BLVD # 100,LOS ANGELES,,,
580,Novo Cafe,,"Italian, Bakeries, Breakfast & Brunch",161.0,4.5,$$,34.147298,-118.795435,tvYynzuPFBEVd5_gHICvbA,NOVO CAFE,30770 RUSSELL RANCH RD # G,WESTLAKE VILLAGE,,,
581,Frenz Coffee,,Coffee & Tea,110.0,4.5,,34.08325,-118.32566,pWzU4ikhUFnBC6rg9iq8_w,FRENZ COFFEE,5770 MELROSE AVE STE #101,LOS ANGELES,,,
582,Dagu Rice Noodle,,"Chinese, Noodles",79.0,4.0,$$,34.12735167,-118.05399167,Mff97m7YyNPLkf_c6uAIqQ,DAGU RICE NOODLE,1108 S BALDWIN AVE UNIT B6,ARCADIA,,,
583,Whole Foods Market,,"Grocery, Health Markets, Organic Stores",156.0,3.0,$$,34.2748483362675,-118.565155057937,96MHHnYU_h9kspDfje0GBg,WHOLE FOODS MARKET - DELI/PREPARED FOODS,20209 RINALDI ST,PORTER RANCH,,,
584,Chop Stop,,"Salad, Soup, Wraps",58.0,4.0,$$,34.1183639499,-117.778212222,ZXp9DZcj90O6KenAn7pEdw,CHOP STOP,1335 FOOTHILL BLVD,LA VERNE,,,
585,Calabra,,Mediterranean,85.0,3.5,,34.02131,-118.49521217,bMXeJ2vO0hjJgKvsrMoBBA,PROPER HOTEL - CALABRA RESTAURANT ROOF TOP,700 WILSHIRE BLVD,SANTA MONICA,,,
586,Shake Shack,,Burgers,135.0,3.5,$$,33.9779015661597,-118.438142419859,3Qw9xytSD2R3nB4oUsIQSw,SHAKE SHACK,4786 ADMIRALTY WAY,MARINA DEL REY,,,
587,,,,,,,,,,BON SEAFOOD MARKET,3060 W OLYMPIC BLVD,LOS ANGELES,,,
588,,,,,,,,,,LA ENCHILADITA,7809 PACIFIC BLVD,HUNTINGTON PARK,,,
589,,,,,,,,,,TOP TENDERS,2723 MANHATTAN BEACH BLVD,REDONDO BEACH,,,
590,,,,,,,,,,EL PRIMO CARNECERIA,11010 LONG BEACH BLVD # A,LYNWOOD,,,
591,King Donuts,,Donuts,1.0,1.0,,33.9892436563969,-118.221244364977,L_bWyp2jgfAbcc4UlqzCZA,KING #1 DONUT,2743 E SLAUSON AVE,HUNTINGTON PARK,,,
592,ZOLE MARKET&TOBACCO,,"Vape Shops, Tobacco Shops, Convenience Stores",1.0,5.0,,33.9718416,-118.3573629,4iGJA7dz5vDhv-2DBy7r4A,ZOLO MARKET AND TOBACCO,706 LA BREA AVE,INGLEWOOD,,,
593,Presidente Mexican Restaurant,,Mexican,301.0,3.0,$$,34.278917,-118.469187,MzTA7YFXaQAXpfAMR-laZw,EL PRESIDENTE,11451 SEPULVEDA BLVD,MISSION HILLS,,,
594,Village Liquor & Market,,"Beer, Wine & Spirits",12.0,4.5,$$,34.1811414,-118.3086656193,SXZomrGRi8OkqjMPbTXcSg,VILLAGE LIQUOR,211 E OLIVE AVE,BURBANK,,,
595,Burlington,,Department Stores,13.0,3.5,,33.843914,-118.260933,ruEAOOjFee_vY_VC_JcYMg,"BURLINGTON COAT FACTORY, TX INC. #1058",20700 AVALON BLVD STE 100,CARSON,,,
596,General Lee's,,Cocktail Bars,208.0,4.0,$$,34.0658,-118.23753,cRveDyXNjzHyNu0h7KvYMQ,GENERAL LEE'S (2ND FLOOR),475 GIN LING WAY,LOS ANGELES,,,
597,,,,,,,,,,BH MARRIOTT BAR,1150 BEVERLY DR,LOS ANGELES,,,
598,Nekter Juice Bar,,"Juice Bars & Smoothies, Acai Bowls",25.0,3.0,,34.27345839,-118.55497167,aXdlafg6pxorWVzW6tqjCw,NEKTER JUICE,20209 RINALDI ST,PORTER RANCH,,,
599,,,,,,,,,,TIRO'S CHICKEN,6225 S SAN PEDRO ST,LOS ANGELES,,,
600,,,,,,,,,,MI RANCHITO MEXICAN GRILL,569 E PALMDALE BLVD,PALMDALE,,,
601,Yoga-urt,,"Ice Cream & Frozen Yogurt, Juice Bars & Smoothies, Vegan",81.0,4.5,$,34.07783,-118.26559,vsRKNraKeeddoOXL2btQ5A,YOGA-URT,2211 W SUNSET BLVD,LOS ANGELES,,,
602,Arcadia Golf Course,,"Golf, Venues & Event Spaces",112.0,3.5,,34.1090295,-118.0175941,43Fbnc7-5qX1A4MkjXNFgA,ARCADIA GOLF COURSE,620 E LIVE OAK AVE,ARCADIA,,,
603,,,,,,,,,,YOGURT TIME,8245 WOODMAN AVE,PANORAMA CITY,,,
604,,,,,,,,,,CARAVANA,5629 LANKERSHIM BLVD,NORTH HOLLYWOOD,,,
605,Acapulco Restaurant & Cantina,,"Mexican, Bars, Breakfast & Brunch",764.0,4.0,$$,34.1570167541504,-118.263633728027,nONCqJwrAIUrbyJvfxhl8A,ACAPULCO RESTAURANT Y CANTINA,722 N PACIFIC AVE,GLENDALE,,,
606,Board House Coffee,,"Coffee & Tea, Breakfast & Brunch, Juice Bars & Smoothies",187.0,4.0,$,34.041877,-118.46081,-KoQb30Hphg9jRT8MGpZoA,BOARD HOUSE COFFEE,11901 SANTA MONICA BLVD # 112,LOS ANGELES,,,
607,New Stevenson Ranch Car Wash,,"Car Wash, Auto Detailing",133.0,3.0,,34.380166,-118.569522,nMZZGDSH0w2Ga_SJW40xzg,NEW SR CAR WASH,24830 PICO CANYON RD,STEVENSON RANCH,,,
608,Tamaen Japanese BBQ,,"Japanese, Barbeque",55.0,4.5,,33.8897023093148,-118.308832906187,iiLp-il2O-Ygo6lQA8FckQ,TAMAEN,15476 S WESTERN AVE STE 106,GARDENA,,,
609,,,,,,,,,,GRACE MARKET,5500 COMPTON AVE,LOS ANGELES,,,
610,BoBaPOP Tea Bar,,"Coffee & Tea, Bubble Tea",433.0,4.5,$,34.08049,-118.09207,0HJDiLQ-TIKM6VZmDApQ-Q,BOBAPOP TEA BAR,625 E VALLEY BLVD STE L,SAN GABRIEL,,,
611,Banh Mi & Che Cali,,Vietnamese,380.0,3.0,$,34.1022899,-118.0912522,aLpUbfcdLhiC1gfO-aqPoA,BANH MI CHE CALI,135 S SAN GABRIEL BLVD # A,SAN GABRIEL,,,
612,The Bear Pit Bar-B-Que,,Barbeque,1149.0,3.5,$$,34.2669195806816,-118.467706169914,OXTadNdvVndu3dBqYDCWnw,BEAR PIT BBQ,10825 SEPULVEDA BLVD,MISSION HILLS,,,
613,Márose Flowers and Chocolates,,"Florists, Chocolatiers & Shops",11.0,5.0,,34.26457,-118.52085,8mvMBNcNapnj20sp9jByPA,MAROSE FLOWERS & CHOCOLATES,17728 CHATSWORTH ST,GRANADA HILLS,,,
614,Tokyo Guild,,"Ramen, Pubs, Sandwiches",112.0,4.0,$$,34.02182,-118.396646,NeZIs4ovY-4lUJEc8vS4tg,TOKYO GUILD,9810 WASHINGTON BLVD,CULVER CITY,,,
615,Chicken N Roll,,"Southern, Chicken Wings",45.0,3.5,$,33.93389,-118.23934,naNSbdrNqB1F806WCQDr9w,CASTILLO'S CHICKEN N ROLL,11111 WILMINGTON AVE,LOS ANGELES,,,
616,Sugary Donuts,,Donuts,81.0,4.5,$,34.67592,-118.156515,ezKo8Dj4axYbS8YCcoHxrA,SUGARY DONUTS,43637 15TH ST W,LANCASTER,,,
617,Arco,,Gas Stations,19.0,2.0,,34.0415611,-118.0923233,-Kh2i6c1pY-scJ-JKSp_dw,ARCO GAS STATION,1761 N PARAMOUNT BLVD,MONTEBELLO,,,
618,Burlington,,Department Stores,11.0,2.5,,33.8483394043463,-118.136471807957,P5PsGJkALnkkwGT6P9UVlg,"BURLINGTON  COAT FACTORYOF TX, INC #1106",4950 FACULTY LAKEWOOD CENTER AVE,LAKEWOOD,,,
619,Fostar's Family Donuts,,Donuts,19.0,3.5,$,34.25772,-118.485229,Jtoyx8-gngCzuyEUFqI-FA,FOSTARS FAMILY DONUTS,16205 DEVONSHIRE ST,GRANADA HILLS,,,
620,,,,,,,,,,HAPPY KIDS NUTRITION,23630 NEWHALL AVE,SANTA CLARITA,,,
621,,,,,,,,,,AQUI ES TAXCO GRO,5427 S CENTRAL AVE,LOS ANGELES,,,
622,Baskin Robbins,,Ice Cream & Frozen Yogurt,34.0,4.0,,34.160653,-118.511194,0AVKZJDxr6GM02vuarIsuw,BASKIN ROBBINS,17330 VENTURA BLVD,ENCINO,,,
623,Grocery Outlet Bargain Market,,"Grocery, Discount Store",75.0,4.0,$,33.9037519135351,-118.255196310877,v_c_iOxXoGdactFhlRt8OA,COMPTON OF GROCERY OUTLET,2175 W ROSECRANS AVE,COMPTON,,,
624,Village Market,,Grocery,5.0,3.5,$$$$,34.0954751,-117.7188316,aC8FG-NVrzEpxwd1qVmBlg,THE VILLAGE MARKET,370 W 2ND ST,CLAREMONT,,,
625,El Volcan 2.0 Restaurant,,"Mexican, American (Traditional), Breakfast & Brunch",1.0,4.0,,34.03731667,-118.258905,zf9e3ak8-xjUc60vaqIxQQ,VOLCAN RESTAURANT,112 E 12TH ST,LOS ANGELES,,,
626,,,,,,,,,,LAS TRES HERMANAS,4763 S BROADWAY AVE,LOS ANGELES,,,
627,Mr Dragon Noodle House,,"Noodles, Chinese",711.0,4.5,$$,34.08011,-118.08278,hmF8oWLYHyBmE589QtlUSA,MR. DRAGON NOODLE HOUSE,8526 VALLEY BLVD # 108,ROSEMEAD,,,
628,Burlington,,Department Stores,30.0,2.5,$$,33.85243,-118.35262,d-ynKSs_kVGd1r-1RH1tRQ,BURLINGTON COAT FACTORY OF TEXAS INC. #1077,19800 HAWTHORNE BLVD,TORRANCE,,,
629,,,,,,,,,,ARO DE GARCIA,5601 S MAIN ST,LOS ANGELES,,,
630,RJM Mexican Grill,,"Juice Bars & Smoothies, Breakfast & Brunch, Mexican",3.0,4.5,,34.04477267,-118.3553305,WMpfkmDaKMcRb7wE77CYWQ,RJM MEXICAN GRILL,5301 VENICE BLVD,LOS ANGELES,,,
631,Ahgoo's Kitchen,,"Chinese, Taiwanese",158.0,3.5,$$,34.10556,-118.0661,1Vhhbde7TxvG5WsSTx7YGg,AHGOO KITCHEN,9406 LAS TUNAS DR,TEMPLE CITY,,,
632,Painting With A Twist,,Paint & Sip,20.0,4.5,,33.8503251,-118.1445181,iRCKV2HzRA4RP6VR8gRdRg,PAINTING WITH A TWIST,4008 HARDWICK ST,LAKEWOOD,,,
633,Pizza Presto,,"Pizza, Sandwiches, Vegan",158.0,4.5,$,33.99767467,-118.07659417,St270Q3pKMRFoWO6gn3M6w,SUPER PIZZA PRESTO,9450 WHITTIER BLVD,PICO RIVERA,,,
634,,,,,,,,,,BONITA'S CARNICERIA AND RESTAURANT,12005 GARFIELD AVE,SOUTH GATE,,,
635,Poki Maki by Mr.7,,"Japanese, Sushi Bars, Poke",93.0,4.0,$,34.0435315,-117.84903617,cmaHbJ1zAFdjGCf3-nfszw,POKI MAKI BY MR. 7,1225 N GRAND AVE,WALNUT,,,
636,Aguas Tijuana's Juice Bar,,Juice Bars & Smoothies,78.0,4.0,$,33.9814818871889,-118.051368342212,aibhPZaAnIhD4XM8mRpsRw,AGUAS TIJUANAS WHITTIER,11743 WHITTIER BLVD,WHITTIER,,,
637,Bangluck Market,,International Grocery,62.0,4.0,$,34.2009,-118.41562,MgVlTaCYxm4ru741_bWWJg,BANGLUCK MARKET 2019,12980 SHERMAN WAY,NORTH HOLLYWOOD,,,
638,,,,,,,,,,GOOGLE COFFEE BAR L1,5865 S CAMPUS CENTER DR,LOS ANGELES,,,
639,Poke Rainbow,,"Poke, Japanese, Seafood",84.0,4.5,$$,33.816487,-118.387468,3WD661LiMdr8-1JFndf35g,POKE RAINBOW,1811 S CATALINA AVE # A,REDONDO BEACH,,,
640,Basil's Deli & Cafe',,"Delis, Sandwiches, Breakfast & Brunch",216.0,5.0,$,34.2222615,-118.6058651,LVV9OYAtZ9x0-uSZlXNFYw,BASIL'S DELI & CAFE,8380 TOPANGA CANYON BLVD,CANOGA PARK,,,
641,,,,,,,,,,SAFRON,300 S GRAND AVE # LP100,LOS ANGELES,,,
642,WaBa Grill,,"Fast Food, Asian Fusion",80.0,2.5,$,34.0012752,-117.8112556,6fyKjuxY3ZZ_1NcBrQDibw,WABA GRILL #205,1194 GRAND AVE,DIAMOND BAR,,,
643,Panaderia  El Salvador,,Salvadoran,3.0,3.0,,34.046459,-118.280479,ffjxHr_yQevLBWH-mJS-ng,PANADERIA Y RESTAURANTE EL SALVADOR,1901 W PICO BLVD,LOS ANGELES,,,
644,The Eatery Encino,,Cafes,38.0,5.0,,34.1568499,-118.4849784,xb9oyNo17oDE987gq_FhXg,THE EATERY ENCINO,16133 VENTURA BLVD STE 210,ENCINO,,,
645,Louisiana #1 Fish Market,,Seafood,4.0,3.0,,33.8529463,-118.1598659,TZ56Tn0iXArw0uq5kxhDtA,J J LOUISIANA FISH MARKET,5251 PARAMOUNT BLVD,LAKEWOOD,,,
646,La Pizza,,"Chicken Wings, Pizza, Italian",24.0,3.5,$,34.2283949,-118.465152,hJxETZfm4BuC5JjU1Y3rMg,HARRYS LA PIZZA,15263 PARTHENIA ST,NORTH HILLS,,,
647,Blossom Season,,Hot Pot,178.0,4.0,$$,33.99538333,-117.91095333,9JMzaBXu2Hwac0lf2sxY8Q,BLOSSON SEASON,18009 GALE AVE,INDUSTRY,,,
648,Milan's Pizzeria,,"Pizza, Pasta Shops, Chicken Wings",80.0,4.0,$$,34.23481083,-118.45079833,YMCnwscoXv_SHp6XMpXYFA,MILANS PIZZERIA,9061 VAN NUYS BLVD,PANORAMA CITY,,,
649,MJ's Grill,,"Burgers, Chicken Wings, Steakhouses",143.0,4.5,$$,34.083851,-118.3480326,4D5gpmcEtqfTxKnnwZpAEQ,MJ'S GRILL,7265 MELROSE AVE,LOS ANGELES,,,
650,Tasty Thousand Restaurant,,Chinese,24.0,2.5,$$,34.0818485786936,-118.076809515061,uUzuOg22wWrueNj6U9wIHQ,TASTY THOUSAND RESTAURANT,8817 VALLEY BLVD,ROSEMEAD,,,
651,,,,,,,,,,VARIEDADES KAIROS,2630 W JEFFERSON BLVD,LOS ANGELES,,,
652,,,,,,,,,,DON CANGREJO,3444 W 8TH ST,LOS ANGELES,,,
653,Ethel M Chocolates,,Chocolatiers & Shops,27.0,4.5,,34.1450018920667,-118.259669908286,sDZlggnWBKqo0CDcBuvXHQ,ETHEL M. CHOCOLATES,2159 GLENDALE GALLERIA WAY,GLENDALE,,,
654,Adamae,,American (New),85.0,4.5,$$$,34.07619,-118.25656,9zD99gHhonJiBNFs5YnDXQ,ADAMAE,1538 W SUNSET BLVD,LOS ANGELES,,,
655,Coco's Bionicos,,"Juice Bars & Smoothies, Mexican",65.0,4.0,$,33.830644,-118.07452,TR1-U29-Bc--Y_lXE9OsRw,COCO'S BIONICOS INC,12090 CARSON ST STE F,HAWAIIAN GARDENS,,,
656,Cedar Lebanon Discount Market,,Tobacco Shops,1.0,1.0,,34.18622,-118.46526,arujWgTbqMaIVcZ-AVQQrg,CEDAR LEBANON DISCOUNT MARKET,15236 VICTORY BLVD,VAN NUYS,,,
657,Yummy Pizza & Shawarma,,"Pizza, Mediterranean, Wraps",55.0,4.5,,34.20149,-118.42931,o30u-QFo4109G-ST7BTp-Q,YUMMY PIZZA & SHAWARMA,13611 SHERMAN WAY,VAN NUYS,,,
658,Mejia's Mexican Food,,Mexican,4.0,4.5,,33.83941,-118.08152,PsW12PERqHPuCT9GYwtfcA,MEJIAS MEXICAN FOOD,20900 PIONEER BLVD,LAKEWOOD,,,
659,Wendy's,,"Fast Food, Burgers",31.0,2.5,$,34.415410802518,-118.467987813056,uOnwiDNAYdW5EEaMjVSW0g,WENDY'S #12241,19018 SOLEDAD CANYON RD,SANTA CLARITA,,,
660,,,,,,,,,1IJfW0fVlj03tLbRi3hyRg,J'S MART CAFE,934 S LOS ANGELES ST STE 1,LOS ANGELES,,,
661,Happy Bagels And Donuts,,"Donuts, Bagels, Sandwiches",93.0,4.5,$,33.9489731,-118.1161554,wS1CU6G-PA0cNoNDZCm0xw,HAPPY BAGELS - N -DONUTS,9926 LAKEWOOD BLVD,DOWNEY,,,
662,Hsin Hsin Shau Mei Deli,,Delis,16.0,4.0,$,33.98656,-117.902812,6vOx_1elNiM6feqwrpV7Bg,SHAU MEI,18438 COLIMA # 1,ROWLAND HEIGHTS,,,
663,Crane's Bar Downtown,,"Dive Bars, Sports Bars",181.0,4.0,$$,34.043169,-118.254065,AthyxvehEN0qoiWHB0a6BA,CRANE'S DOWNTOWN BAR,810 S SPRING ST # B1,LOS ANGELES,,,
664,El Torito,,"Mexican, Bars, Breakfast & Brunch",1006.0,3.5,$$,34.180498,-118.596973,Hmqh5fq41dlHWIp-JglgrQ,EL TORITO CANTINA AUTENTICA,6040 CANOGA AVE,WOODLAND HILLS,,,
665,Honey Donut & Teriyaki,,"Donuts, Chinese, Coffee & Tea",71.0,4.5,$,34.07964,-117.90731,s44E-7jZGp0ZhhbkJSkdKg,HONEY DONUT AND TERIYAKI,500 N AZUSA AVE # 105,WEST COVINA,,,
666,SLAY Steak + Fish House,,"Seafood, American (New), Steakhouses",98.0,4.5,$$$,33.88515,-118.41121,Tm3feuaA5PhxqCa0zKZaZw,SLAY STEAK & FISH HOUSE,1141 MANHATTAN AVE,MANHATTAN BEACH,,,
667,Rita’s Cocina,,"Mexican, American (Traditional)",5.0,5.0,,34.0369503779367,-118.252712407407,ltCRWuG_9t9f7oFNOy03Tg,RITAS COCINA,550 E OLYMPIC BLVD,LOS ANGELES,,,
668,,,,,,,,,,BLAQ HAUS NO HO,11671 VICTORY BLVD,NORTH HOLLYWOOD,,,
669,La Cocinita,,"Mexican, Seafood, Soup",56.0,4.0,$,34.26732,-118.41979,RQCaVlrBDAcRVWnQ6yIYQg,LA COCINITA RESTAURANT,13178 VAN NUYS BLVD,PACOIMA,,,
670,Collaborative Coffee Bar,,Coffee & Tea,113.0,4.5,$,33.84668667,-118.15905233,oDwrl9yzpghoby7VOl_CLg,COLLABORATIVE COFFEE BAR,4836 PARAMOUNT BLVD,LAKEWOOD,,,
671,Perry Sakura,,Japanese,22.0,3.5,,33.964017,-118.150277,OXdpn4IU1qdpYGMM4gQcwg,PERRY SAKURA,6402 E FLORENCE AVE,BELL GARDENS,,,
672,,,,,,,,,,SMOKE & MINI MART,520 S GLENDORA AVE,WEST COVINA,,,
673,Caramel Pastries,,Bakeries,162.0,3.5,$,34.697722,-118.14165033,sIvvsnt3MRESpSVcettmcg,CARAMEL PASTRIES BAKERY,660 W LANCASTER BLVD,LANCASTER,,,
674,Grand Prize Liquor & Market,,"Beer, Wine & Spirits",5.0,3.5,,34.0399649,-118.339199,ibKpZ6x_2SehURNGQWZd1Q,GRAND PRIZE LIQUOR,4555 W WASHINGTON BLVD,LOS ANGELES,,,
675,Anush Bakery & Market,,"Bakeries, Grocery, Meat Shops",24.0,3.5,$$,34.19362,-118.413353,M0AOpd5kg4ee17Ok52Tj6Q,ELITE MARKET BAKERY & LIQUOR,6770 COLDWATER CANYON AVE,NORTH HOLLYWOOD,,,
676,China Depot,,Chinese,53.0,1.5,$$,34.0722039601885,-118.359752069242,yFPEk6CNR8vPGtFdFzhRgw,CHINA DEPOT,6333 W 3RD ST # 744,LOS ANGELES,,,
677,Jimmy John's,,Sandwiches,20.0,3.5,$,33.871566,-118.248327,xa-u6XLNcFzjMtzreao7xQ,JIMMY JOHNS,2236 S CENTRAL AVE,COMPTON,,,
678,,,,,,,,,,CARRENO BOTANAS,2520 E PALMDALE BLVD # K-11,PALMDALE,,,
679,Boba Plus,,Bubble Tea,76.0,4.0,,34.12694,-118.05262,2hmyHgqpEiiH6ncVQs1zNA,BOBA PLUS,629 W DUARTE RD,ARCADIA,,,
680,Subway,,Sandwiches,17.0,2.0,$,34.063170856931,-118.04293237083,GQqqVVLSEVKnRiDfPR-_gw,SUBWAY 24709,10533 GARVEY AVE # D,EL MONTE,,,
681,,,,,,,,,,ALEX,4433 S ALAMEDA ST # E3C,LOS ANGELES,,,
682,Lucero's Bakery Express,,Bakeries,20.0,4.0,$,33.916332244873,-118.168586730957,IjYnY7nbgs3THQLm6A1Txw,LUCERO EXPRESS BAKERY INC,12120 GARFIELD AVE BLDG 1,SOUTH GATE,,,
683,Ramen of York,,Ramen,659.0,4.0,$$,34.1212545652361,-118.205110502719,B9-22buva5v480z9NovVYA,RAMEN OF YORK 5051,5051 YORK BLVD,LOS ANGELES,,,
684,7-Eleven,,Convenience Stores,9.0,1.5,$,34.0536138820884,-118.266515359282,iqiitEHPUyZJ2hsT3pdv5w,7-ELEVEN #39872A,1234 WILSHIRE BLVD # 101,LOS ANGELES,,,
685,Ross Dress for Less,,"Women's Clothing, Department Stores, Home Decor",8.0,3.0,,33.843917,-118.260952,4v3Ho4zulSN7vF1-MhiC3w,ROSS DRESS FOR LESS #2053,20700 AVALON BLVD # 102,CARSON,,,
686,,,,,,,,,,VARIEDAD LATINA,8610 VAN NUYS BLVD # 24,PANORAMA CITY,,,
687,798 House,,"Seafood, Chinese, Barbeque",32.0,3.5,,34.0918495,-118.03811233,FKp8jzRvndAuc55xr1z7gw,798 HOUSE,10632 LOWER AZUSA RD,EL MONTE,,,
688,,,,,,,,,,NUMERO 1 ROLLED ICE CREAM,14650 PARTHENIA ST,PANORAMA CITY,,,
689,Burger King,,"Burgers, Fast Food",14.0,2.0,$,33.988112,-118.197089,d-TU4s5B-jay32xvKj9_jg,BURGER KING #4298,3748 E SLAUSON AVE,MAYWOOD,,,
690,Barcade,,"Bars, Arcades, American (New)",91.0,4.0,$$,34.11861,-118.19423,Xb-6EeykOMkyWH83dHx4OA,BARCADE,5684 YORK BLVD,LOS ANGELES,,,
691,Fins & Grill,,"Seafood, Mexican",3.0,4.5,,34.0394128085849,-118.254832327366,3DfGCvJakhGso8RkJBqJJQ,FINS & GRILL,943 SANTEE ST # 1,LOS ANGELES,,,
692,La Michoacana The Ice Cream Spot,,Ice Cream & Frozen Yogurt,82.0,4.0,$,33.8896767041553,-118.136593513191,LsJAU4b-GEEyrciUCoLvzg,LA MICHOACANA THE ICE CREAM SPOT,9251 ALONDRA BLVD,BELLFLOWER,,,
693,Suehiro Mini,,"Ramen, Japanese Curry, Desserts",50.0,4.5,$$,34.059723,-118.239036,cKbwVOuYVnNy91TO5ZYJOQ,SUEHIRO MIN,642 N BROADWAY ST # 4,LOS ANGELES,,,
694,Kai Ramen Melrose,,"Ramen, Noodles, Sushi Bars",109.0,4.5,$$,34.08316,-118.32627,lYbzuO5xHStf_elUKAudvQ,RAMEN KOO,5784 MELROSE AVE,LOS ANGELES,,,
695,,,,,,,,,,APGUJUNG INC.,20627 GOLDEN SPRINGS DR # 2-F,DIAMOND BAR,,,
696,,,,,,,,,,MARIOS ITALIAN IMPORTS- RESTAURANT,740 E BROADWAY,GLENDALE,,,
697,La Blanquita Tortilleria,,"Mexican, Grocery, Meat Shops",30.0,3.5,$,34.0640905,-118.0209579,SF-slof_B4lXjlXxx_dC3Q,LA BLANQUITA,11859 VALLEY BLVD,EL MONTE,,,
698,Miniso,,"Accessories, Home Decor, Department Stores",14.0,3.0,$,33.98574133,-118.3935285,vSQsjm5NLFi6OMyZlqLM8w,MINISO,6000 SEPULVEDA BLVD # 1656,CULVER CITY,,,
699,King’s Kitchen,,"Mediterranean, American (New), Sandwiches",276.0,4.5,$$,34.13094,-118.25819,2BAnOPEzZMd64ahUxN4cpA,KING'S KITCHEN,1235 S CENTRAL AVE,GLENDALE,,,
700,Casa de Cafe Downtown,,Cafes,1.0,5.0,$,34.03458,-118.25755,V5aviTY66RZRi6c6VrwwIQ,CASA DE CAFE DOWNTOWN LA,326 E PICO BLVD,LOS ANGELES,,,
701,Big Mama's & Papa's Pizzeria and Tavern,,"Pizza, Salad, Sandwiches",216.0,3.5,$$,34.1729249,-118.558935,Ctm-0yEiAFc3Y2xs12M0IA,BIG MAMA'S AND PAPA'S PIZZERIA,19527 VENTURA BLVD,TARZANA,,,
702,The Sit Down,,"Pizza, Italian",60.0,3.5,$$,34.08399,-118.35651,uCuhYR4h2IpUddNY0h3agg,THE SIT  DOWN  MELROSE,707 N STANLEY AVE,LOS ANGELES,,,
703,Health Nut - Sherman Oaks,,"Salad, Sandwiches",164.0,4.0,$$,34.15465,-118.44803,tzdStGOC7ec1SNDKJc1I1w,HEALTH NUT,4550 VAN NUYS BLVD # A1,SHERMAN OAKS,,,
704,Teriyaki House Grill,,American (Traditional),275.0,4.5,$,33.880539,-118.142177,GKpsPOxHZA1C4bhMr827OQ,TERIYAKI HOUSE GRILL,16900 LAKEWOOD BLVD,BELLFLOWER,,,
705,Miniso,,"Accessories, Home Decor, Department Stores",10.0,4.5,,34.156994,-118.437363,umMRdP6sm-cOM2T_-r7pRg,MINISO,14006 RIVERSIDE DR SPC 65,SHERMAN OAKS,,,
706,Cup Bowl Pho - Hot Pot & Tea,,"Hot Pot, Noodles, Vietnamese",130.0,4.0,$$,33.99075,-117.91457,AAmCJuC5qZc8x4ldBMn9HQ,CUP BOWL PHO-HOT POT & TEA,17859 COLIMA RD,INDUSTRY,,,
707,The Dragon and Meeple,,"Tabletop Games, Burgers",80.0,5.0,$$,34.01619,-118.28168,dxLiwx8Ghcm0AWNph0xrVw,DRAGON AND MEEPLE,3742 S FLOWER ST,LOS ANGELES,,,
708,,,,,,,,,,GARNACHAS,13714 1/2 SHERMAN WAY,VAN NUYS,,,
709,California Bowl Sushi & Teriyaki,,"Japanese, Sushi Bars",182.0,4.0,$,34.23876,-118.5353,9jf7YE6WmFHT-OA1ETrDAA,CALIFORNIA BOWL SUSHI & TERIYAKI,9250 RESEDA BLVD # 4,NORTHRIDGE,,,
710,Happy Hours Bar & Grill,,Dive Bars,37.0,4.0,$$,34.648516,-118.218284,Z24eJKhmESRqGKtQJXwC1Q,HAPPY HOURS BAR & GRILL,42142 50TH ST W,QUARTZ HILL,,,
711,,,,,,,,,,YUM BISTRO,6740 RESEDA BLVD # E,RESEDA,,,
712,Rasselbock L.A. Kitchen & Beer Garden,,"German, Pubs",155.0,4.0,$$,34.00413,-118.43102,6ytRLP9rivVIcMptLYkfkA,RASSELBOCK KITCHEN AND BEER GARDEN,3817 GRAND VIEW BLVD,LOS ANGELES,,,
713,Mu Dan Chinese Food,,"Chinese, Bubble Tea, Asian Fusion",12.0,4.5,,34.09071,-117.96082,x_ioWs8DjZz4iiwYmPIX-A,MU DAN CHINESE FOOD,4303 MAINE AVE # 101,BALDWIN PARK,,,
714,Roadhouse At Zuma,,Barbeque,11.0,3.0,,34.031045,-118.842347,yXS4OIkC64LLqIMAAT3EVg,ROADHOUSE AT ZUMA,30745 PACIFIC COAST HWY,MALIBU,,,
