,name,address,categories,review_count,rating,price,latitude_yelp,longitude_yelp,yelp_id,program_name,facility_address,facility_city,latitude,longitude,hours
0,"Conservatory For Coffee, Tea & Cocoa",,Coffee & Tea,1080.0,4.5,$,34.0206321,-118.3995192,hjj19yo1r_sPD9Ic-uII5w,THE CONSERVATORY FOR COFFEE,10117 WASHINGTON BLVD,CULVER CITY,,,
1,Wingstop,,Chicken Wings,282.0,3.0,$$,33.97621,-118.37375,uO0ann74VEhkLD2TyIZ9RQ,WINGSTOP REST #3,6909 LA TIJERA BLVD,LOS ANGELES,,,
2,,,,,,,,,,PORTOBELLOS MED ITALIAN CUIS,2235 HONOLULU AVE,MONTROSE,,,
3,Simplethings Restaurant Marketplace,,"Sandwiches, American (Traditional), Breakfast & Brunch",338.0,3.5,$$,34.1521606,-118.3435516,srBZBpovv5TLIugzUNdqnQ,SIMPLETHINGS,4013 W RIVERSIDE DR,BURBANK,,,
4,Margo's,,"American (New), Breakfast & Brunch",299.0,3.5,$$,34.0333908,-118.4934795,R2ecsOX6SWR113wMCnz9mQ,MARGO'S,1534 MONTANA AVE,SANTA MONICA,,,
5,El Cafetalito,,Salvadoran,135.0,4.5,$$,34.00174,-118.16486,ZQvwADQSwj-qfDx5AVJLHw,EL CAFE TALITO,5300 E WASHINGTON BLVD,COMMERCE,,,
6,,,,,,,,,,HARVEST JUICE CO.,3807 OCEAN VIEW BLVD,MONTROSE,,,
7,Maria Bonita,,Mexican,164.0,4.0,$$,34.421427,-118.497468,x9Q614zAqa6dZs4q3d4Lwg,MARIA BONITA RESTAURANT,20655 SOLEDAD CYN RD B-6,CANYON COUNTRY,,,
8,China Wok Express,,Chinese,81.0,2.5,$,33.9617195129395,-118.033813476562,0086PTqF6xFa3pejXIVQDQ,CHINA WOK EXPRESS,8330 PAINTER AVE,WHITTIER,,,
9,Tlayuda L.A. Restaurant,,Mexican,733.0,4.5,$$,34.0906351,-118.307928,Lop79P2KM9zFUCCaBYz6zA,TLAYUDA LA MEXICAN RESTAURANT,5450 SANTA MONICA BLVD,LOS ANGELES,,,
10,Brus Wiffle and More,,"American (New), Breakfast & Brunch",527.0,4.0,$$,34.0655350002844,-118.377534999797,Gq0u5R0vQ6gtcxCa-IGSig,BRU`S WIFFLE & MORE,8635 WILSHIRE BLVD,BEVERLY HILLS,,,
11,Agua Dulce Winery,,Wineries,291.0,4.0,$$,34.519419,-118.302044,fVTFWIZRZdQ1tkE8Jzyveg,AGUA DULCE  WINERY,9640 SIERRA HWY,SANTA CLARITA,,,
12,Master Chef Restaurant,,Chinese,477.0,3.5,$$,34.06549,-118.2384,upjZVinxgpei3Nb83KI0Ig,MASTER CHEF,937 N HILL ST,LOS ANGELES,,,
13,Hamburger Haven,,Burgers,231.0,2.5,$,34.08345,-118.38571,52tf4Jh_1fXrM3cGSOLq6A,HAMBURGER HAVEN,8954 SANTA MONICA BLVD,WEST HOLLYWOOD,,,
14,Ono Grill,,"Hawaiian, Japanese",322.0,3.5,$,34.04218,-118.10428,lTdueW0kPXnXROxnUz4q-Q,ONO GRILL,1975 Potrero Grande DR # A,MONTEREY PARK,,,
15,Smart & Final,,Grocery,22.0,3.5,$$,33.97652,-118.36634,zmJkE9TTGkfdQIKk-S__hQ,SMART AND FINAL #457,1575 CENTINELA AVE,INGLEWOOD,,,
16,The Park Bar & Grill,,"Sports Bars, American (Traditional)",142.0,4.0,$,34.180714,-118.332979,62-OJW5FmClqMIXUQb5iCw,THE PARK BAR AND GRILL,2007 W BURBANK BLVD,BURBANK,,,
17,Berries & Cream,,Ice Cream & Frozen Yogurt,10.0,3.5,$,33.9035351,-118.1506235,5l7YItY1fU2pS58iPnK_PQ,BERRIES AND CREAM,8528 E ROSECRANS AVE,PARAMOUNT,,,
18,,,,,,,,,,KIKKA,225 LINCOLN BLVD,VENICE,,,
19,Shirin Restaurant,,"Persian/Iranian, Mediterranean",705.0,4.0,$$,34.16807,-118.60295,HxYEMp5dmZ_kv6uo_J5EoA,SHIRIN,21826 VENTURA BLVD,WOODLAND HILLS,,,
20,Alondra Liquor,,"Beer, Wine & Spirits",3.0,3.5,,33.88834,-118.11342,UkSbGlvd3YzNM_1IBEXrDQ,ALONDRA LIQUOR,10400 E ALONDRA BLVD,BELLFLOWER,,,
21,Original Tommy's World Famous Hamburgers,,"Burgers, Fast Food",143.0,4.0,$,34.18976,-118.32032,vquObrE87HVZLphxh9AFcQ,TOMMY'S FAMOUS HAMBURGERS,1310 N SAN FERNANDO BLVD,BURBANK,,,
22,Domino's Pizza,,"Pizza, Chicken Wings, Sandwiches",27.0,2.0,$,34.1411738834623,-118.38797874233,QwwQ4BbqvX9iXhpgteIpYg,DOMINO'S PIZZA,11674 VENTURA BLVD,STUDIO CITY,,,
23,Otium,,American (New),2028.0,4.0,$$$,34.054358,-118.251339,G_V5eJFfYlTEERyIPR-8MQ,OTIUM - 1ST FLOOR RESTAURANT &  LIQUOR BAR,222 S HOPE ST,LOS ANGELES,,,
24,Subway,,Sandwiches,34.0,3.5,$,33.8250167,-118.2759258,G1mfEGeM_JGfEvRfcjnk2w,SUBWAY #43995,22222 MAIN ST 102,CARSON,,,
25,SDV Liquor,,"Beer, Wine & Spirits",13.0,3.5,$$,34.260201,-118.31386,c3LnoFwFAMMI5v0T4SFNUQ,SDV LIQUOR INC.,8301 FOOTHILL BLVD,SUNLAND,,,
26,Sushi Nishi-ya,,"Japanese, Sushi Bars",412.0,4.5,$$$$,34.161587,-118.300858,jOtzs3kyyhf91mbmUShRuQ,NISHI-YA,1712 S VICTORY BLVD,GLENDALE,,,
27,Jack in the Box,,"Burgers, Fast Food, Tacos",58.0,2.0,$,34.037395,-118.6774981,keUpXMt97z6wxn7NAP3VuA,JACK IN THE BOX #160,23017 PACIFIC COAST HWY,MALIBU,,,
28,Taco House,,Mexican,14.0,4.5,$,34.0405454,-118.25285,0RN6PEh510o70c5tfI555w,TACO HOUSE #3,827 S SANTEE ST,LOS ANGELES,,,
29,India Spices & Groceries,,International Grocery,44.0,4.5,$,34.0522137,-118.371115,ikR_TtAl45ZQBcj_-paxHw,INDIA SPICES & GROCERY,5994 W PICO BLVD,LOS ANGELES,,,
30,Wing Hip Fung Herbal,,"Traditional Chinese Medicine, Naturopathic/Holistic",7.0,3.5,,34.0694725,-118.1339631,0BYqHscd1vC9UyA-nDKKMw,WING HIP FUNG HERBAL&GINSENG,500 N ATLANTIC BLVD STE #101,MONTEREY PARK,,,
31,99 Cents Only Stores,,"Grocery, Discount Store",36.0,3.5,$,33.9760498371862,-118.374119125279,5StpdfXj8Z8upWSm8vfUoA,99 CENTS ONLY STORES #001,6854 LA TIJERA BLVD,LOS ANGELES,,,
32,The Vitamin Shoppe,,Vitamins & Supplements,37.0,4.5,$$,34.074707,-117.89051,yT_WpGZlP3cDm4bOng_q6A,THE VITAMIN SHOPPE,235 N CITRUS ST,WEST COVINA,,,
33,,,,,,,,,,RALPHS MARKET #720 - DELI,30019 HAWTHORNE BLVD #A,RANCHO PALOS VERDES,,,
34,Sarku Japan,,Japanese,47.0,2.5,$,33.8641593471197,-118.093210265205,DBr5ix4hzAPbXvXJp9DiSg,SARKU JAPAN,125 LOS CERRITOS CTR # FC11,CERRITOS,,,
35,Oaks Liquor,,"Beer, Wine & Spirits",11.0,2.0,$$$$,34.164159,-118.465897,NdBYP5f13OrC_wTTfTIWxQ,THE OAKS LIQUORS,5148 SEPULVEDA BLVD,SHERMAN OAKS,,,
36,Johnny Rockets,,"Diners, Burgers",179.0,2.5,$$,33.833509,-118.34724,jyjhkw-coatT06RfT2leqg,JOHNNY ROCKETS,3525 W CARSON ST # S75,TORRANCE,,,
37,Wok n Fire,,"Chinese, Juice Bars & Smoothies, Soup",34.0,3.5,$,34.1401651,-118.0062293,Vf7_esWWks-ldc3dFhfm0g,WOK N FIRE,308 W HUNTINGTON DR,MONROVIA,,,
38,El Pollo Loco,,"Mexican, Fast Food",112.0,1.5,$,33.9416728535939,-118.046385798356,5LTq6bskmA0d2vbbEGbHMA,EL POLLO LOCO #3786,10100 CARMENITA RD,WHITTIER,,,
39,Ralphs,,Grocery,117.0,2.5,$$,34.15165,-118.02444,ISsXk8Fyaae4U1lK6bMTYQ,RALPHS MARKET # 41 (MEAT),211 E FOOTHILL BLVD,ARCADIA,,,
40,Gottsui,,Japanese,446.0,3.5,$$,34.0389636642117,-118.442531860188,bvCYNmMThax-aUU2reNjoQ,GOTTSUI,2119 SAWTELLE BLVD,LOS ANGELES,,,
41,Hk Bakery,,Bakeries,1.0,4.0,$,34.1585273742676,-118.264862060547,ZIfIyWcc21elVQnoLbJp8w,HK DELI DEPARTMENT,831 N PACIFIC AVE,GLENDALE,,,
42,Carniceria Brothers,,,1.0,5.0,,34.0555725,-117.7365189,Q_235VSbFoYk1rO2aY0cAw,CARNICERIA BROTHERS,1025 E MISSION BLVD,POMONA,,,
43,Ten Four Liqour,,Shopping,5.0,4.0,$$,33.95142,-118.02867,0EgrrMgfyEpBspVHVf7rbQ,TEN FOUR LIQUOR,14016 E LAMBERT RD,WHITTIER,,,
44,Marmalade Cafe - Calabasas,,"American (New), Breakfast & Brunch, Cafes",1127.0,4.0,$$,34.1532864216757,-118.646221248327,S4WfEmGUZVZDWbutCyhJLA,MARMALADE CAFE,4783 COMMONS WAY STE #E,CALABASAS,,,
45,Al's Liquor Store,,"Beer, Wine & Spirits",3.0,4.0,$,34.08326,-118.32152,hzZAEEaEEIJuVukQuGWnXA,ALS LIQUOR,5550 MELROSE AVE,LOS ANGELES,,,
46,Tokyo Grill,,"Japanese, Food Court",28.0,2.5,$,34.1449692562535,-118.259561246361,oXwlJ8VJmvxSi3nJ7iegig,TOKYO GRILL,1137 GLENDALE GALLERIA # FC-11,GLENDALE,,,
47,Venecia Bakery,,Bakeries,83.0,4.5,$$,34.011626,-118.11654,NuMzCJMaSuqnwMQEUk3A9A,VENECIA BAKERY,1427 W WHITTIER BLVD,MONTEBELLO,,,
48,Coronado's Meat Market 3,,Grocery,1.0,5.0,,33.9922622,-118.2702749,yriBh0jeBz7FMGQxHwACFg,GLORIA MEAT MARKET,5505 S SAN PEDRO ST,LOS ANGELES,,,
49,Villa's Market,,Grocery,3.0,5.0,$$,34.0985,-117.77494,dbnqPu1ju_UWEcilY5yNwg,VILLAS MARKET,1912 E ARROW HWY,LA VERNE,,,
50,Lollicup Fresh,,"Coffee & Tea, Juice Bars & Smoothies, Bubble Tea",159.0,3.5,$,33.9933729999837,-117.901981581832,RO2O70Bv-r9u9tvCpZANxA,LOLLICUP,1380 FULLERTON RD #101,ROWLAND HEIGHTS,,,
51,Sue’s Market,,"Grocery, Sports Wear, Beer, Wine & Spirits",4.0,4.0,,34.052416,-118.2206288,VylY7Tgdk2auTZgtPGZI6g,SUE'S MARKET,1428 E CESAR E CHAVEZ AVE,LOS ANGELES,,,
52,El Burrito Loco,,Mexican,53.0,3.0,$,34.57956,-118.07514,ai7SvdijCXYYnziVINFK6Q,EL BURRITO LOCO,3030 E PALMDALE BLVD B,PALMDALE,,,
53,Stone Oven,,"Salad, Sandwiches",179.0,3.5,$,33.985874,-118.393508,NTcTIKNJlWEvhfb3L4bBTw,STONE OVEN,6000 SEPULVEDA BLVD STE 3218,CULVER CITY,,,
54,Mariscos King Fish 2,,Mexican,83.0,3.0,$$,34.069408,-117.980613,JLb5z--MeVTnUuuTRx_bGQ,KING FISH RESTAURANT,3077 BALDWIN PARK BLVD,BALDWIN PARK,,,
55,Coyote Cantina,,"Tex-Mex, Mexican, Bars",428.0,4.0,$$,33.8504013867869,-118.389234436295,62OPX6YwItplJjNe-ZcyQg,COYOTE CANTINA,531 N PACIFIC COAST HWY # B,REDONDO BEACH,,,
56,McDonald's,,"Fast Food, Burgers, Coffee & Tea",161.0,1.5,$,34.0680962,-118.292017132044,S38YHvw4ffBWkj65ZOzrsA,MCDONALD'S #5968,341 S VERMONT AVE,LOS ANGELES,,,
57,Peruvian Corner Restaurant,,Peruvian,20.0,4.0,$$,34.7041601918354,-118.15108012408,2_cQgtt2YwcMK5szpHM0Zg,PERUVIAN CORNER RESTAURANT,1149 W AVENUE I,LANCASTER,,,
58,Ani banquet hall,,"Venues & Event Spaces, Armenian, Salad",26.0,4.0,$$$,34.1426737,-118.243627,BArd4g5jNxd7qK-b0gwpPw,ANI RESTAURANT & BANQUET HAL,915 E COLORADO ST,GLENDALE,,,
59,Natureba Juice Bar,,"Juice Bars & Smoothies, Brazilian, Sandwiches",632.0,4.5,$,33.8730199010914,-118.367196999686,86kjElAwDeRtuE6MHrjQtA,NATUREBA,2415 ARTESIA BLVD,REDONDO BEACH,,,
60,Lorena Market,,Grocery,1.0,1.0,,34.0184799,-118.20612,MRnsuIsLOHgsc4jd5A6g1Q,LORENA MARKET,3360 E OLYMPIC BLVD,LOS ANGELES,,,
61,Giant Liquor,,"Beer, Wine & Spirits",1.0,4.0,$,34.31131,-118.43442,xrMJdG8U-MeYlR2aqDcpvw,GIANT LIQUOR,13845 FOOTHILL BLVD,SYLMAR,,,
62,Thai Original BBQ Restaurant,,"Thai, Barbeque",201.0,3.5,$$,34.143067,-118.400543,icrtg5mt-MDRv9MVxtjikw,THAI ORIGINAL BBQ,12254 VENTURA BLVD,STUDIO CITY,,,
63,Buffalo Wild Wings,,"Chicken Wings, Sports Bars, American (Traditional)",706.0,2.0,$$,34.0135192351685,-118.3370174,5fEK6MOnDWoLgctbKC5bYA,BUFFALO WILD WINGS,3939 CRENSHAW BLVD E,LOS ANGELES,,,
64,Jons Marketplace,,"Beer, Wine & Spirits, Convenience Stores, Delis",123.0,3.0,$,34.1998668,-118.4660651,9ar-I-VdT4D9lGA6itYm4Q,JONS MARKETPLACE-MAIN MARKET,7134 SEPULVEDA BLVD,VAN NUYS,,,
65,Subway Restaurants,,Sandwiches,18.0,2.5,$,34.09756,-118.3357,TVihb2K5KLsgjAne9aF4mw,SUBWAY #44832,6660 W SUNSET BLVD STE STE.,LOS ANGELES,,,
66,Subway,,Sandwiches,31.0,3.0,$,33.9586431371012,-118.438695,KFZEg0MRT-SLwH-WLiok4A,SUBWAY,8133 W MANCHESTER AVE,PLAYA DEL REY,,,
67,Bon Bon Tea House,,"Coffee & Tea, Bubble Tea",1616.0,4.5,$,34.246055206289,-118.536950178049,rNU2WmPx_4ImwFxAB5kLwA,BON BON TEA HOUSE,9663 RESEDA BLVD,NORTHRIDGE,,,
68,Domino's Pizza,,"Pizza, Chicken Wings, Sandwiches",67.0,1.5,$,33.888919,-118.20745,xvQtV7pcCxb2_-PE5gCnqw,DOMINO'S PIZZA,821 S LONG BEACH BLVD,COMPTON,,,
69,,,,,,,,,,ALANO CLUB,510 S 2ND AVE # #B,COVINA,,,
70,Subway,,Sandwiches,26.0,2.5,$,33.7386008761377,-118.283289753985,VZVv8GnlTqcOvNzQW893eA,SUBWAY #47217,620 S CENTRE ST,SAN PEDRO,,,
71,Tomo Sushi & Teriyaki,,"Japanese, Sushi Bars, Desserts",140.0,3.0,$,34.0513396,-118.0367652,eLnlrrNlmhHHgUtKgPplAA,TOMO SUSHI & TERIYAKI,10910 RUSH ST # #5,SOUTH EL MONTE,,,
72,Pokiholic,,"Japanese, Seafood, Hawaiian",644.0,4.0,$,34.038557,-118.145818,rodQbd9we9OJe67Bric68g,POKIHOLIC,2207 S ATLANTIC BLVD,MONTEREY PARK,,,
73,South End Cafe,,Cafes,1.0,1.0,,33.806272,-118.340021,Z64RAhaFZhMJNqxQs_CUbQ,SOUTH END CAFE,2800 SKYPARK DR,TORRANCE,,,
74,Target,,"Department Stores, Furniture Stores, Electronics",75.0,3.0,$$,34.574356,-118.04784,4S-_T_luSiXFUd2b2iWnAw,TARGET MEAT DEPARTMENT,38019 E 47TH ST E,PALMDALE,,,
75,Pizza Hut,,"Pizza, Italian, Chicken Wings",32.0,2.0,$,34.034337,-118.291783,5zeny6mc1gQFEp2OCNnS8g,PIZZA HUT,2405 S VERMONT AVE,LOS ANGELES,,,
76,,,,,,,,,,MEAT DEPARTMENT,6601 LAUREL CANYON BLVD,NORTH HOLLYWOOD,,,
77,,,,,,,,,,J.F. INTERNATIONAL,1001 SAN JULIAN ST # A,LOS ANGELES,,,
78,Taco Bell,,"Mexican, Fast Food",56.0,2.0,$,34.57279,-118.04505,dTDSUg5KZm4gSkuHmoRAWQ,TACO BELL # 25854,37910 47TH ST E,PALMDALE,,,
79,,,,,,,,,,BAKERY DEPT,15000 CRENSHAW BLVD,GARDENA,,,
80,Savoy Kitchen,,"Singaporean, Hainan",4043.0,4.0,$,34.078585203502,-118.120988635685,2CztG4_KDsuG_jmoQNEvZA,SAVOY RESTAURANT,138 E VALLEY BLVD,ALHAMBRA,,,
81,Lupita's Seafood,,Seafood,21.0,4.5,$,34.0399,-118.255005,Mc4cpR5hL5W4AU-JBKFTBw,LUPITA'S SEAFOOD,934 S LOS ANGELES ST #1,LOS ANGELES,,,
82,Burritos El Chavo,,Mexican,111.0,3.0,$,34.1796214,-118.5358851,nL8XBgcGBrlJcw-VVF8S6w,BURRITOS EL CHAVO,6032 RESEDA BLVD,TARZANA,,,
83,CVS Pharmacy,,"Drugstores, Pharmacy, Convenience Stores",39.0,2.0,$$,34.13404,-117.907895,qXgmJl9RA2sm3Kwc-9RqkQ,CVS/PHARMACY #9780,101 W FOOTHILL BLVD,AZUSA,,,
84,KFC,,"Fast Food, Chicken Wings, Chicken Shop",76.0,1.5,$,34.0723445962132,-118.291401774886,ZZZGTxRBDBVevXKGgj7cNQ,KFC,126 S VERMONT AVE # 112,LOS ANGELES,,,
85,Veggie Life Restaurant,,"Vegetarian, Vietnamese",203.0,4.0,$,34.0625851,-118.066091,wHeSr_zWptEEX_t3gAKgCQ,VEGGIE LIFE RESTAURANT,9324 E GARVEY AVE STE #B,SOUTH EL MONTE,,,
86,Ten Ren's Tea Time,,"Coffee & Tea, Bubble Tea, Hot Pot",455.0,3.5,$,34.0985393,-118.1197503,ELq9bejXcg09aLuIIDs7zg,TEN REN TEA TIME,707 E MAIN ST,ALHAMBRA,,,
87,Fanta Chinese Food,,"Chinese, Seafood, Hawaiian",25.0,3.5,$,34.06168,-118.01803,WvUJF3vjHAYex9pOswR7zQ,FANTA CHINESE FOOD,12052 VALLEY BLVD,EL MONTE,,,
88,Super King Markets,,"Grocery, Beer, Wine & Spirits, Seafood Markets",271.0,3.0,$,34.24125,-118.559601,dwPIfdJYX4NfOt0ynNHiOw,SUPER KING #5 DELI,19500 PLUMMER ST,NORTHRIDGE,,,
89,Malaga Cove Ranch Market,,"Delis, Breakfast & Brunch, Coffee & Tea",223.0,4.5,$,33.79969,-118.38925,OykzjSLCm-h8WT2T8q_oRA,MALAGA COVE RANCH MKT&MEAT,43 MALAGA COVE PLZ,PALOS VERDES ESTATES,,,
90,The Bleu House,,"Desserts, Coffee & Tea, Cafes",757.0,4.0,$$,33.99664,-117.96646,dB79Hf2oPwb-74oXCPeHVw,THE BLUE HOUSE,15840 HALLIBURTON RD 110,HACIENDA HEIGHTS,,,
91,Old Fashioned Chiliburgers & Sandwiches,,"American (Traditional), Burgers, Sandwiches",443.0,4.5,$,34.285708,-118.438263,1zGSbpTYyKExIrHpIzLI1A,OLD FASHIONED CHILI BURGERS,233 N MACLAY AVE UNIT A,SAN FERNANDO,,,
92,Dollar Super Store,,"Discount Store, Department Stores",2.0,1.0,,33.97405317,-118.07317883,dVF2fLHKKkQoxGRm5-HkTg,DOLLAR SUPER STORE,7850 NORWALK BLVD,WHITTIER,,,
93,Jamba Juice,,Juice Bars & Smoothies,153.0,3.5,$,34.0715013890431,-118.024758942559,gaSDWl8YFWBeptp4jLrkMQ,JAMBA JUICE,3528 N PECK RD,EL MONTE,,,
94,Subway,,Sandwiches,26.0,3.0,$,33.9404462127002,-117.9846383,33YnafyY7BZtt06_rqXO8w,SUBWAY #38677,16228 E WHITTIER BLVD,WHITTIER,,,
95,Calimex Restaurant,,Mexican,148.0,4.0,$,33.873157,-118.371009,y3uOY1j4Vsm560LmXtY8VQ,CALIMEX,2217 ARTESIA BLVD,REDONDO BEACH,,,
96,Jugos Y Bionicos Zapopan,,Juice Bars & Smoothies,79.0,4.5,$,34.0538627654314,-117.97680594027,AWhoyDe1bYfmgRhvg_hT_g,BIONICOS Y SUGOS ZAPOPAN BAR,13714 AMAR RD,LA PUENTE,,,
97,La Cocina,,Mexican,2.0,2.0,$,34.23624,-118.39095,uOyZvQsLJ7Ak8pg5HYIdHw,LA COCINA,9201 SAN FERNANDO RD,SUN VALLEY,,,
98,AZ Liquor,,"Beer, Wine & Spirits, Convenience Stores, Tobacco Shops",6.0,5.0,$$,34.2352946,-118.485556,Jm-Pqe3iSLE1MjzeXbAKCw,AZ LIQUOR,16210 N NORDHOFF ST,NORTH HILLS,,,
99,Wetzel's Pretzels,,Pretzels,32.0,2.5,$,33.8608047216939,-118.092257130438,JWZfJ6T8FwZiXvepjZbs0w,WETZEL'S PRETZELS KIOSK,239 LOS CERRITOS CTR,CERRITOS,,,
100,Boys & Girls Club of Venice,,Amateur Sports Teams,4.0,5.0,,33.994856,-118.453564,Lum7_-1Z2ATBaxCEOeTtLQ,BOYS AND GIRLS CLUB OF VENICE,2232 LINCOLN BLVD,VENICE,,,
101,Panaderia Y Pasteleria,,Bakeries,1.0,2.0,$,34.0904506,-118.3132178,ZN2vwyZuKATdTi8Ueb9hDQ,PANADERIA GUILA,5656 SANTA MONICA BLVD E,LOS ANGELES,,,
102,Pico Donuts,,"Donuts, Coffee & Tea, Sandwiches",47.0,4.5,$,34.0446814,-118.2767071,3JyaTB1Qe2d6e0Z3USRqEA,PICO DONUT,1565 W PICO BLVD,LOS ANGELES,,,
103,Marmalade Cafe - El Segundo,,"American (New), Breakfast & Brunch, Cafes",1115.0,4.0,$$,33.9039926852308,-118.393832445145,I0L8djFjAUx0oIF3ZiWjUQ,MARMALADE BAR,2014 PARK PL,EL SEGUNDO,,,
104,Adobo Grill,,"Filipino, Breakfast & Brunch",52.0,4.0,$,34.0954800729878,-118.292332740884,UeEjrmZa6fdWk9kN_0ysWg,ADOBO GRILL,4716 FOUNTAIN AVE,LOS ANGELES,,,
105,Zan Beer,,Sports Bars,208.0,4.0,$$,34.0623099,-118.29753,4znEiiIqZKo9-lQHZbtCQw,ZAN RESPUB,3377 WILSHIRE BLVD # 200,LOS ANGELES,,,
106,7-Eleven,,"Convenience Stores, Coffee & Tea",9.0,2.0,$,33.903961,-118.159684,IwgGbAQg8wy2YgvYE5X20Q,7-ELEVEN STORE #39648A,14160 PARAMOUNT BLVD,PARAMOUNT,,,
107,Magee's Donuts,,Donuts,11.0,3.5,$,34.055943,-118.2676977,zTt3aHb5sFUEnZCjGoo0Pg,MAGEEHS DONUTS,1402 W 6TH ST,LOS ANGELES,,,
108,,,,,,,,,,BOTANICA MEXICO,4501 S ALAMEDA ST # #12B,LOS ANGELES,,,
109,Midway Liquor,,"Beer, Wine & Spirits",1.0,5.0,,34.0470551,-118.3112338,LKoCBMfuNmBybofCjm2otw,MIDWAY LIQUOR MARKET,3186 W PICO BLVD,LOS ANGELES,,,
110,La Cabanita De Don Chepe No 1,,Salvadoran,28.0,3.0,$,34.193608,-118.3881717,N5rtL6mhPzOrSOMuds3yqg,LA CABANITA DE DON CHEPE #1,6757 LANKERSHIM BLVD,NORTH HOLLYWOOD,,,
111,Sushi 101,,"Japanese, Sushi Bars, Seafood",257.0,4.0,$$,34.059969,-118.383311,Wy9GPDzKXrgF5dnJw5ODNw,SUSHI 101,930 S ROBERTSON BLVD #A,LOS ANGELES,,,
112,Jug & Jigger,,"Beer, Wine & Spirits",31.0,4.0,$$,34.070193,-117.889599,LQWZC2QoWs2_I_z6MCKRDA,JUG & JIGGER,2612 E GARVEY AVE S,WEST COVINA,,,
113,Ichiban Buffet and Grill,,"Asian Fusion, Buffets, Seafood",332.0,3.0,$$,34.0725311,-118.0241465,s499rRs4_t6GuPCf3LKCvg,ICHIBAN BUFFET & GRILL,3608 PECK RD,EL MONTE,,,
114,Bea's Bakery,,Bakeries,431.0,4.0,$$,34.1696918292157,-118.535060474574,eoK8s_S7UWsBHY96dn_DGQ,BEA'S BAKERY,18450 CLARK ST,TARZANA,,,
115,7-Eleven,,"Convenience Stores, Coffee & Tea",16.0,2.5,$,34.1589650651224,-118.258229,DKpPywWWtm_J8ai9tA4-OQ,7-ELEVEN #39569B,901 CENTRAL AVE,GLENDALE,,,
116,La Michoacana Vip,,Ice Cream & Frozen Yogurt,17.0,3.0,,34.0444436362239,-118.030475627439,RoS9EoPQvA1VS7eQrdrFNQ,LA MICHOACANA,1924 N DURFEE AVE,SOUTH EL MONTE,,,
117,Pizza Hut,,"Pizza, Italian, Chicken Wings",105.0,2.0,$,33.982951,-118.054157495499,KfT9SuSg4upy76thBngSXw,PIZZA HUT #24924,11550 E WHITTIER BLVD,WHITTIER,,,
118,Dojo Sushi,,Sushi Bars,879.0,4.0,$$,34.15119,-118.44732,6HzJ1hP-7BcAfp8LpqpqpQ,DOJO SUSHI,14423 VENTURA BLVD,SHERMAN OAKS,,,
119,,,,,,,,,,HOT WINGS GRILL,10748 VANOWEN ST,NORTH HOLLYWOOD,,,
120,,,,,,,,,,DAY BREAK,1751 CLOVERFIELD BLVD FL 2,SANTA MONICA,,,
121,Stone Oven,,"Salad, Sandwiches",100.0,4.0,$,34.2386093852628,-118.555266237959,0g9Qup8bf_qutJajTzXByg,STONE OVEN,9301 TAMPA AVE UNIT 104,NORTHRIDGE,,,
122,The Belasco,,"Performing Arts, Dance Clubs, Lounges",925.0,2.5,$$,34.040246,-118.25924,X2Fqh80YcJIltPkoBXp0jA,BELASCO - CAFE BELASCO,1050 S HILL ST,LOS ANGELES,,,
123,El Super,,Grocery,34.0,2.5,$,33.9480794,-118.1684027,0idxS4-h2mci1suGziIk2A,EL SUPER ( BAKERY),5702 E FIRESTONE BLVD,SOUTH GATE,,,
124,Subway,,Sandwiches,40.0,2.5,$,33.9349582521693,-118.1433317,jueE1UpX_BcMvgVpLJx9lA,SUBWAY #51110,11858 PARAMOUNT BLVD,DOWNEY,,,
125,Subway,,Sandwiches,13.0,2.0,$,34.0912001131307,-118.338413103854,U7QCCC8OoChxQ4hE9Kn8gw,SUBWAY #23684,6775 SANTA MONICA BLVD STE 9,LOS ANGELES,,,
126,Twist Eatery,,"Cafes, Bakeries, Breakfast & Brunch",195.0,4.0,$$,34.0676003,-118.3436813,Q1Y4yNm6jEFWuBDTAp-2-A,TWIST,344 S LA BREA AVE,LOS ANGELES,,,
127,,,,,,,,,,K&C ALTA-DENA DAIRY,14042 RAMONA BLVD,BALDWIN PARK,,,
128,Louisiana Fried Chicken,,"Chinese, Fast Food, Chicken Wings",31.0,2.5,$$,33.904159,-118.144081,JqPozZtnBwu5zwKtykzsxQ,LOUISIANA CHKNECHINESE FOOD,8843 ROSECRANS AVE STE #C,DOWNEY,,,
129,Helen's Market,,Grocery,2.0,1.0,$$,33.960693359375,-118.049324035645,XWahz5b3yxt_CUUTZHXiaQ,HELENS MARKET,8843 S SANTA FE SPRINGS RD,WHITTIER,,,
130,Vons,,"Grocery, Pharmacy",264.0,3.0,$$,34.069848,-118.2910931,tk1pZN54Xzm--lL_-zxn1A,VONS #2261 BAKERY,3461 W 3RD ST,LOS ANGELES,,,
131,,,,,,,,,,RALPHS DELI #293,1233 N LA BREA AVE,WEST HOLLYWOOD,,,
132,Food 4 Less,,Grocery,33.0,3.0,$,34.025077,-118.307937,yn6Bfa5ofLDauYPe9E398A,FOOD 4 LESS #359 - (BAKERY),1748 W JEFFERSON BLVD,LOS ANGELES,,,
133,Vip Seafood & Poultry Market,,Meat Shops,3.0,1.5,,34.0564967,-118.2917649,OHUHLOg33U_egYIosA1xvA,VIP SEAFOOD & POULTRY,843 S VERMONT AVE,LOS ANGELES,,,
134,710 Grille,,"Burgers, Salad",156.0,3.5,$$,33.73727,-118.30949,QGCRsC5SvQbeQA0WzGO2ZQ,710 GRILLE,710 S WEYMOUTH AVE,SAN PEDRO,,,
135,La Michoacana Mexican Ice Cream,,"Desserts, Ice Cream & Frozen Yogurt",289.0,4.5,$,34.20143,-118.53686,rQuiKBAknMBRQm7NoUotYw,LA MICHOACANA ALL-NATURAL ICE CREAM,18523 SHERMAN WAY,RESEDA,,,
136,El Buca Restaurant,,Seafood,17.0,5.0,$,34.00244140625,-118.24055480957,dW9SZasDnQ1dSM8se6JnpQ,EL BUCA,4501 S ALAMEDA ST,LOS ANGELES,,,
137,Boys Hamburgers,,Burgers,47.0,3.5,$,33.9695205688477,-118.148880004883,EFpxCAEjPR_hWEnS3qE9hw,BOY'S BURGERS,6810 GARFIELD AVE,BELL GARDENS,,,
138,San Marino Grill,,"Breakfast & Brunch, American (Traditional), Coffee & Tea",140.0,3.5,$$,34.123313,-118.101148,YFc0_x88B8_LYd7ipYvAMw,SAN MARINO GRILL,2494 HUNTINGTON DR,SAN MARINO,,,
139,La Mano Tortilleria,,"Mexican, Grocery",15.0,3.5,$,34.06319,-118.0621,6OHkLRP6Vh-JW_K1jRda4Q,LA MANO TORTILLERIA MEXICAN,9523 E GARVEY AVE,SOUTH EL MONTE,,,
140,Hilton Garden Inn LAX/El Segundo,,Hotels,148.0,3.5,$$,33.9228427808102,-118.388279423161,PtkXrWNU2ak9fmpBoSXgJw,HILTON GARDEN INN,2100 E MARIPOSA AVE,EL SEGUNDO,,,
141,CVS Pharmacy,,"Drugstores, Pharmacy, Convenience Stores",201.0,2.0,$$,34.15256,-118.453799,WpvNR0bcQqGJW1trBfSEMQ,CVS/PHARMACY #9707,14735 VENTURA BLVD,SHERMAN OAKS,,,
142,Target,,"Department Stores, Furniture Stores, Electronics",115.0,3.0,$$,33.917962,-118.07613,W1Vo8a5F4L5lBm4QVzrt1w,TARGET STORES #1424 FOOD AVE,12051 E IMPERIAL HWY,NORWALK,,,
143,Blosom Bento,,"Japanese, Sushi Bars",50.0,3.5,$,34.033363,-118.252109,9LhTwooIek16VpnPY2olSw,BLOSOM BENTO,735 E 12TH ST STE 411,LOS ANGELES,,,
144,Super King Markets,,"Grocery, Butcher, Beer, Wine & Spirits",284.0,3.0,$,34.0806183,-117.7202542,jG_zqTMmawwOdowev2qKUQ,SUER KING MARKETS -DELI,436 AUTO CENTER DR,CLAREMONT,,,
145,Tehuanita La,,Mexican,18.0,3.0,$,34.7045291,-118.1482749,vljxDxLxIXGNmpNPVYIqCg,LA TEHUANITA,45233 W 10TH ST W,LANCASTER,,,
146,Cq Tasty King,,Hot Pot,10.0,4.0,,34.060745,-118.091598,ml3kowwaegDwSezqnWoRiQ,TASTY FOODS,8150 GARVEY AVE STE 117C,ROSEMEAD,,,
147,My Home Chinese Restaurant,,Chinese,303.0,4.0,$$,33.9178857,-118.1407361,7hwk5Uw-utDWVYRxFVM8ww,MY HOME CHINESE RESTAURANT,8716 E IMPERIAL HWY,DOWNEY,,,
148,,,,,,,,,,WESTSIDE ARCO NO 2 AM-PM,3479 MOTOR AVE,LOS ANGELES,,,
149,,,,,,,,,,TACOS LA POTRANKA,1501 N LONG BEACH BLVD,COMPTON,,,
150,Bob's Mkt,,Grocery,3.0,2.5,,33.9262057,-118.0467149,daAc7EE15EFvEX7VD2f33g,BOB'S MARKET,11605 S CARMENITA RD,WHITTIER,,,
151,Flame Broiler,,"Fast Food, Asian Fusion",85.0,3.0,$,33.9373728351275,-118.046922213821,UCb-QCtf3IirK7OnRBkBwg,THE FLAME BROILER,10633 CARMENITA RD,SANTA FE SPRINGS,,,
152,Edible Arrangements,,"Florists, Chocolatiers & Shops, Gift Shops",56.0,3.5,$$,34.20196,-118.4483,wF-alezrOIzIG1qztg8jYA,EDIBLE ARRANGEMENTS,7222 VAN NUYS BLVD STE D,VAN NUYS,,,
153,Instant Replay,,Dive Bars,107.0,4.0,$,34.2084349,-118.605545,tLXig5u5noANMMwT1K5vSw,INSTANT REPLAY,21927 SATICOY ST,CANOGA PARK,,,
154,,,,,,,,,,COLOMBO'S,1833 COLORADO BLVD,LOS ANGELES,,,
155,1 Star Donut,,"Donuts, Sandwiches",12.0,4.0,$,34.192725,-118.531958,UTNWwfnXPewfuY61YU2pkQ,STAR DONUT,18300 VANOWEN ST STE #4,RESEDA,,,
156,Burger King,,"Burgers, Fast Food",20.0,3.0,$,34.01065,-118.30855,W2vTEyfuTrmzZ2E46LcJPg,BURGER KING #4107,1662 MARTIN LUTHER KING JR BLVD W,LOS ANGELES,,,
157,Sizzler,,"Salad, Seafood, Steakhouses",200.0,3.0,$$,34.394677,-118.460164,RXE8-nUV3SwgsTh15TcWFg,SANTA CLARITA SIZZLER 1233,19013 GOLDEN VALLEY RD,SANTA CLARITA,,,
158,Pavilions,,"Grocery, Pharmacy",348.0,3.5,$$,34.0837913,-118.3866193,tbaHrizfUidjkm5JWwxPMA,PAVILIONS #2739 - MEAT & SEAFOOD,8969 SANTA MONICA BLVD,WEST HOLLYWOOD,,,
159,Mami King Restaurant,,Filipino,87.0,4.0,$,34.2220050421278,-118.428445011377,Apd459nAQ1-Fvq-D78gzMw,MAMI KING,13551 ROSCOE BLVD,PANORAMA CITY,,,
160,Fisher's Market,,"Grocery, Beer, Wine & Spirits, Candy Stores",5.0,2.5,$,34.09842,-118.13818,xabHQLWjb40Zm1nv2-OdRQ,FISHER MARKET,1322 W ALHAMBRA RD,ALHAMBRA,,,
161,,,,,,,,,,BISTRO PROVINCIA,127 S CITRUS AVE,COVINA,,,
162,The Counter - Toluca Lake,,Burgers,447.0,3.5,$$,34.152486,-118.35153,U-9n2epKAwlqgh5z53C_7Q,THE COUNTER,10123 RIVERSIDE DR,NORTH HOLLYWOOD,,,
163,SweetXO,,"Ice Cream & Frozen Yogurt, Desserts, Candy Stores",189.0,4.0,$$,34.1560245472779,-118.756931605357,WECqcnI5nOKhIkhaJwgz6w,SWEET XO,5825 KANAN RD,AGOURA HILLS,,,
164,Sushi Su,,"Sushi Bars, Japanese",154.0,3.5,$$,34.144024,-118.756642,tdLbRaO0-8FGHj3PqHj2hw,SUSHI SU,5015 CORNELL RD STE #H,AGOURA HILLS,,,
165,Ralphs,,Grocery,120.0,2.5,$$,34.0482869,-118.3396125,KlxM1wTZJaG3Quh5lUsoSA,RALPHS #291 (BAKERY),4760 W PICO BLVD,LOS ANGELES,,,
166,Poquito Más,,Mexican,726.0,3.5,$,34.15995,-118.3312,kB0nyE0Nzuhndh93SGRcuA,POQUITO MAS,2635 W OLIVE AVE,BURBANK,,,
167,Leonor's Vegetarian Mexican Restaurant,,Mexican,501.0,4.0,$,34.1868149,-118.37944,W-Uuz2VL1AJIXYipKMYhGw,LEONOR'S RESTAURANT,11403 VICTORY BLVD,NORTH HOLLYWOOD,,,
168,El Super,,Grocery,71.0,2.5,$,34.119,-118.19635,cJSkJ8FCXl78fMSBwkMYpw,EL SUPER-BAKERY,5610 YORK BLVD,LOS ANGELES,,,
169,L&L Hawaiian Barbecue,,"Hawaiian, Barbeque",152.0,3.0,$,33.8078598,-118.2714914,CfachuQi4iPZIsfaxReOug,L&L HAWAIIAN BBQ,272 E SEPULVEDA BLVD,CARSON,,,
170,,,,,,,,,,HEALTH LIFE,833 S WESTERN AVE,LOS ANGELES,,,
171,,,,,,,,,,C&J LIQUOR MART,10805 S INGLEWOOD AVE STE B,INGLEWOOD,,,
172,Jack in the Box,,"Fast Food, Burgers, Tacos",33.0,2.0,$,33.8312039903349,-118.072393834591,0N_NQ6klxBNytP9ue5wlRw,JACK IN THE BOX #380,12150 CARSON ST,HAWAIIAN GARDENS,,,
173,Sandwich Man,,"Delis, Sandwiches, Breakfast & Brunch",89.0,4.0,$$,34.231587,-118.5795595,cisY-00PWahVwSFBeTndOA,THE SANDWICH MAN,20456 NORDHOFF ST,CHATSWORTH,,,
174,CVS Pharmacy,,"Drugstores, Pharmacy, Convenience Stores",91.0,2.0,$,33.977435,-118.416807,8MgT4d1J8GypWe1lhj3RDw,CVS/PHARMACY #10146,12746 W JEFFERSON BLVD STE 3160,PLAYA VISTA,,,
175,Daddy's Donuts,,"Donuts, Juice Bars & Smoothies, Breakfast & Brunch",9.0,2.5,$,34.026782989502,-118.154983520508,-xu2LnNLJZK-WE-oJkP9HA,DADDY'S DONUTS,500 S ATLANTIC BLVD,LOS ANGELES,,,
176,,,,,,,,,,EL CAFETALITO REST #2,8700 WOODMAN AVE STE 7,PACOIMA,,,
177,Vons,,"Grocery, Pharmacy",104.0,2.5,$$,33.722977,-118.3108107,qAGMNdfhwHBGHGjJBgEDug,VONS MARKET #2162,1440 W 25TH ST,SAN PEDRO,,,
178,The Albright,,"Seafood, Beer Bar, Fish & Chips",1455.0,4.0,$$,34.009779,-118.496597,qizeI2WS8-Gtz680MPtrzQ,THE ALBRIGHT,258 SANTA MONICA PIER,SANTA MONICA,,,
179,,,,,,,,,,VALLEY PERFORMING ART CENTER #1,18111 NORDHOFF ST,NORTHRIDGE,,,
180,,,,,,,,,,EL MOLCAJETE,1800 W 8TH ST,LOS ANGELES,,,
181,Western Produce Market,,"Grocery, Beer, Wine & Spirits",1.0,4.0,$,33.895858,-118.308879,USDF9ZKiVtZJ7hfls2sKcw,WESTERN PRODUCE MARKET,14924 S WESTERN AVE,GARDENA,,,
182,,,,,,,,,,VONS  MARKET,5671 KANAN RD,AGOURA HILLS,,,
183,Mrs. Winstons - Century City,,"Salad, Sandwiches, Juice Bars & Smoothies",130.0,4.5,$$,34.058458,-118.416693,IqLiTfDobX9sKdzeCXh7kg,MRS WINSTONS GREEN GROCERY,1999 AVE OF STARS STE,LOS ANGELES,,,
184,Jasmine Thai Cuisine,,Thai,421.0,3.5,$$,34.17134,-118.56906,ajNi4kisIt7EfW04o7mmlw,JASMINE THAI,20022 VENTURA BLVD,WOODLAND HILLS,,,
185,Pho House,,"Vietnamese, Korean",76.0,3.0,$,33.818466,-118.308451,RGROG0kkDCHRWyGhq1-GZw,PHO HOUSE CALIFORNIA,22820 S WESTERN AVE,TORRANCE,,,
186,Taco Bell,,"Fast Food, Mexican",65.0,2.0,$,34.112948,-118.18702,S-cQizOGOUFV7wsXEm58xw,TACO BELL,6060 N FIGUEROA ST,LOS ANGELES,,,
187,24 Hour Fitness - Northridge,,"Gyms, Trainers",550.0,2.5,,34.2340180761869,-118.556381705297,n0U6ZHlpbCQwwFdmtuFRrQ,24 HOUR FITNESS,19350 NORDHOFF ST UNIT D,NORTHRIDGE,,,
188,Pizza Hut,,"Pizza, Italian, Chicken Wings",78.0,2.0,$,34.2018046,-118.6124338,kO5Rn4PAEABKIVGSKQJEvQ,PIZZA HUT #026188,22323 SHERMAN WAY,CANOGA PARK,,,
189,Pita kitchen,,"Middle Eastern, Mediterranean",1017.0,4.0,$$,34.150547,-118.448924,DeeAn79oA2c_OKBPoVsv0g,PITA KITCHEN,14500 1/2 VENTURA BLVD,SHERMAN OAKS,,,
190,Q & M Market,,Grocery,1.0,3.0,,33.95409,-118.25894,g7Ez6_QsuVzpVPm8xEVqzw,Q AND M MARKET,853 E 91ST ST,LOS ANGELES,,,
191,Phu Yen Food To Go,,"Vietnamese, Sandwiches",1.0,5.0,,34.0619555112945,-118.236775025725,sRebO-hHdWnQEmB11U4NCA,PHU YEN FOOD TO GO,861 N SPRING ST STE #138,LOS ANGELES,,,
192,Fruttino,,"Ice Cream & Frozen Yogurt, Juice Bars & Smoothies, Bubble Tea",179.0,4.0,$,34.2589403225311,-118.502872281465,Mp-C8u-W2ge1hHjCIWgLqA,FRUTTINO,10369 BALBOA BLVD,GRANADA HILLS,,,
193,Triangle Liquor,,"Beer, Wine & Spirits, Convenience Stores",4.0,1.0,,34.2187677867539,-118.466461862156,417cBxRpNm7shy_lPycO2Q,TRIANGLE LIQUOR'S,8120 SEPULVEDA BLVD,PANORAMA CITY,,,
194,Veggie Grill,,"American (New), Vegan, Vegetarian",685.0,4.0,$$,34.09778983,-118.328236,OvXXCamqx0rEWIiz-s4yZA,THE VEGGIE GRILL,6374 W SUNSET BLVD STE #A,LOS ANGELES,,,
195,Water Grill - Santa Monica,,Seafood,2007.0,4.0,$$$,34.0140693,-118.4977968,W4rp7QysiNFwSsEf8VbRjA,WATER GRILL SUSHI,1401 OCEAN AVE,SANTA MONICA,,,
196,Dragon Garden,,Chinese,114.0,3.0,$,34.5743036860115,-118.045686041294,Q5kSCcxxrDJVJqZn_apmuA,DRAGON GARDEN,38037 E 47TH ST # F,PALMDALE,,,
197,Confetti,,"Party Supplies, Party & Event Planning",2.0,1.0,,34.041534,-118.46182,dNYmx7OW4y5J43BlSs1QuA,CONFETTI PARTY & GRAL MERCH,11957 SANTA MONICA BLVD,LOS ANGELES,,,
198,Peck Market,,Grocery,13.0,3.5,$$,34.0597724914551,-118.030807495117,uaKvDzNMCITHPGoMZZaN0w,PECK MARKET,2645 PECK RD,SOUTH EL MONTE,,,
199,,,,,,,,,,EL MANANTIAL,1929 E GAGE AVE,LOS ANGELES,,,
