,name,address,categories,review_count,rating,price,latitude_yelp,longitude_yelp,yelp_id,program_name,facility_address,facility_city,latitude,longitude,hours
0,Dandy Donuts,,Donuts,4,3.5,$,33.90913246,-118.1164545,idXXPNKvvbHsuSQKf1v0Pw,DANDY DONUTS,13428 S WOODRUFF AVE,BELLFLOWER,,,
1,Birdies,,"Chicken Shop, Donuts, Coffee & Tea",1943,4,$$,34.04183631,-118.2590469,eXZyAF5Xk1u-d9vnkeNPXg,BIRDIES,314 W OLYMPIC BLVD,LOS ANGELES,,,
2,Bubba Gump Shrimp,,"Seafood, Southern",1499,3,$$,34.00972536,-118.4971619,mQwXUxi3zflBOlz0rsM6Pw,BUBBA GUMP,301 SANTA MONICA PIER BLDG BLDG,SANTA MONICA,,,
3,Taqueria El Tapatio,,Mexican,92,4,$,34.208043,-118.623017,CfA2F3l4u5gucj4RqFwYsQ,TAQUERIA EL TAPATIO 1 INC.,22746 SATICOY ST,WEST HILLS,,,
4,Sinaloa Express,,Mexican,65,4.5,$,34.076933,-118.1686427,nIW3de4zQiJT28W-CxFz5A,SINALOA EXPRESS,5373 ALHAMBRA AVE,LOS ANGELES,,,
5,George's Coffee Shop,,"Coffee & Tea, Breakfast & Brunch, Asian Fusion",142,4,$,33.9936145,-118.395501,Jfe5XfzEuik99vKtHlEoKg,GEORGE'S COFFEE SHOP,5439 S SEPULVEDA BLVD,CULVER CITY,,,
6,Edvin's Custom Cakes,,Custom Cakes,1,5,,34.1331678,-118.2521996,bW9nN0dmwDpaDo0X7v07fg,EDVIN'S CUSTOM CAKE'S,1107 S GLENDALE AVE STE #A,GLENDALE,,,
7,Pupuseria Las Champas,,Latin American,19,3,$$,33.9722099,-118.24735,8Pa7ADob_PV3aOY71rld_g,LAS CHAMPAS,7508 S COMPTON AVE,LOS ANGELES,,,
8,USA Donuts & Croissants,,Donuts,13,3,$,33.9239997,-118.151592,-4JbAm3LFcZD6exe85zs4w,USA DONUTS & CROISSANTS,8009 E IMPERIAL HWY,DOWNEY,,,
9,El Pollo Loco,,"Fast Food, Mexican",143,2,$,34.1064751,-117.8270724,XTNUaP3u5qMg3RTLhccqXA,EL POLLO LOCO #5984,1006 W ARROW HWY,SAN DIMAS,,,
10,,,,,,,,,,38 DEGREE,100 W MAIN ST,ALHAMBRA,,,
11,Pioneer Chicken,,"Chicken Shop, Chicken Wings, Fish & Chips",431,4,$,33.9658441,-118.1519534,znNsBFBJW05Jq10718xc1w,PIONEER CHICKEN,6323 E FLORENCE AVE,BELL GARDENS,,,
12,Bee Donuts,,Donuts,9,3.5,$,33.8676034,-118.2658851,O4NARvNSJnhZTKDvtrUspg,BEE DONUTS,17948 S AVALON BLVD,CARSON,,,
13,Northgate Market,,"Grocery, Bakeries, Mexican",95,3,$$,33.90035629,-118.3430252,PYLhaTNnV3I2ZFjp7lyClA,NORTHGATE GONZALES MARKET #25 - FMR & PRODUCE,3930 W ROSECRANS AVE,HAWTHORNE,,,
14,,,,,,,,,,SPARE TIRE,5368 WILSHIRE BLVD,LOS ANGELES,,,
15,,,,,,,,,,EL SUPER #14 BAKERY,960 W ARROW HWY,COVINA,,,
16,Starbucks,,Coffee & Tea,54,3,$,34.12893855,-117.8834729,tSGG22SjepLYViZESk8NSA,STARBUCKS COFFEE COMPANY,1119 E ALOSTA AVE,AZUSA,,,
17,,,,,,,,,,NATURE'S SUNSHINE,428 S BROADWAY,LOS ANGELES,,,
18,Taco Bell,,"Mexican, Fast Food",47,2.5,$,33.869561,-118.125215,yKrDp8TAf0NdS_8cYW2x9w,TACO BELL/PIZZA HUT #28520,17900 BELLFLOWER BLVD,BELLFLOWER,,,
19,Victory Bread,,Bakeries,68,4.5,$,34.18682925,-118.4395591,u5hUywDqNHqGGQ02Kr7sAQ,VICTORY BREAD,14049 VICTORY BLVD,VAN NUYS,,,
20,Leung Kee,,"Chinese, Barbeque",312,3,$$,33.9953497,-117.8908139,vW3ClgotMZkUxV-LQDK7nw,LEUNG KEE CHINESE RESTAURANT,18908 GALE AVE,ROWLAND HEIGHTS,,,
21,El Caribe Mkt,,Grocery,4,4,$,34.0772122,-118.0479701,uFhm5uRsHcTyMef2TsWtTg,EL CARIBE LIQUOR MARKET,10201 E VALLEY BLVD,EL MONTE,,,
22,La Suprema Meat Market 2,,Grocery,13,4.5,,34.0199851,-117.9487526,cCjBV-5W29scgYPqGntO1Q,LA SUPREMA MEAT MARKET,16006 E MAIN ST,LA PUENTE,,,
23,El Toreo West,,Mexican,174,3.5,$$,34.58748,-118.14792,Xk4jHgYCsqBokC2gbkJMyg,EL TOREO WEST,38801 W 10TH ST W,PALMDALE,,,
24,Full House Buffet,,Buffets,25,2.5,$$,34.02193,-118.16291,YI3SLA5IdrbNjqHRTGyGFw,YOUNG DONG BUFFET,4917 WHITTIER BLVD,LOS ANGELES,,,
25,ToriYen Sushi Ramen Japanese Restaurant,,"Sushi Bars, Ramen",197,4,$$,34.25121703,-118.293603,I5Snm_F8dXU4G3HsZcMiQQ,TORIYEN JAPANESE RESTAURANT,7406 FOOTHILL BLVD,TUJUNGA,,,
26,Alondra's,,"Chicken Wings, Burgers, Pizza",1773,3,$$,34.092767,-118.132707,7E7MGCdW68XNOtYvPzgWjQ,ALONDRA HOTWINGS,515 W MAIN ST,ALHAMBRA,,,
27,Forbes Entertainment,,"Bars, Karaoke",40,3,$$,34.040222,-118.036071,inQNgmGAFUb6NGpbdinDYA,FORBES RESTAURANT,1536 PECK RD,SOUTH EL MONTE,,,
28,AMC Century City 15,,Cinema,908,3.5,,34.05765229,-118.4186098,wKf87agRGdeayWOzQhRYiA,AMC CENTURY CITY 15 LEVEL 2,10250 SANTA MONICA BLVD # 2000,LOS ANGELES,,,
29,Panera Bread,,"Sandwiches, Salad, Soup",226,3,$,33.898283,-118.006783,Gy_zc8YV3ZqHhdmXk9rLPA,PANERA BREAD,15224 ROSECRANS AVE,LA MIRADA,,,
30,Mariscos Las Islitas,,"Mexican, Seafood, Empanadas",145,2.5,$$,34.19430923,-118.4571457,W72F8R4DGeLua6vQPfi1Rw,MARISCOS LAS ISLITAS,14867 VANOWEN ST,VAN NUYS,,,
31,Los Taquitos,,Mexican,89,4,$,33.96113411,-118.3759287,_CsAkbq5UTLzACQNKnWUiQ,LOS TAQUITOS,1120 W FLORENCE AVE STE #B,INGLEWOOD,,,
32,,,,,,,,,,ALFREDOS,3337 1/2 SUNSET BLVD,LOS ANGELES,,,
33,Lily's Market and Deli,,Sandwiches,6,5,,34.0427899,-118.21892,y8_4hrCCkeqq9Jl4Hf6bRA,LILY'S MARKET,1814 E 4TH ST,LOS ANGELES,,,
34,McDonald's,,"Fast Food, Burgers, Coffee & Tea",116,2,$,34.02065,-118.12094,1RUfpOgjGRnxdjgDezKDxQ,MCDONALD'S #540,2020 W BEVERLY BLVD,MONTEBELLO,,,
35,,,,,,,,,,H&B DISCOUNT STORE,7355 LANKERSHIM BLVD # A30,NORTH HOLLYWOOD,,,
36,Miss Donuts & Bagel,,Donuts,79,4,$,34.03605664,-117.9259631,eqQ30ca73EKeLmMBg4p5dA,MISS DONUTS & BAGEL,1001 E AMAR RD STE #100,WEST COVINA,,,
37,Viking Pizza and Kabob,,"Pizza, Mediterranean, Sandwiches",241,4.5,$,34.12536624,-118.2562831,H7NLpkqnvEhAGY8w9KTlCg,VIKING PIZZA AND KABOB,3740 SAN FERNANDO RD,GLENDALE,,,
38,Taco Nazo,,"Mexican, Seafood",716,4,$,34.062544,-118.062384,Pinq2LZY1T2KxTTzvgXGUA,TACO NAZO,9516 GARVEY AVE,SOUTH EL MONTE,,,
39,Castle BBQ,,"Barbeque, Korean",1573,3.5,$$,34.08001,-118.30947,A_j83rvPeG-gJMR9ZaELzQ,CASTLE BBQ,473 N WESTERN AVE # 1,LOS ANGELES,,,
40,Dunkin',,"Donuts, Coffee & Tea",515,3,$,34.024869,-118.490867,uqmLw0TJmy8b3-LgBK7jFQ,DUNKIN DONUTS,1132 WILSHIRE BLVD,SANTA MONICA,,,
41,Sharetea,,"Coffee & Tea, Bubble Tea, Juice Bars & Smoothies",1411,4.5,$,33.85794,-118.07956,BcekniF1I3xAkONVShohnQ,SHARE TEA,11900 SOUTH ST # 106,CERRITOS,,,
42,Panda Express,,"Chinese, Fast Food",48,2,$,34.08425,-118.32721,bmC-UadVafavZL8GVvOTJw,PANDA EXPRESS #660,727 N VINE ST,LOS ANGELES,,,
43,Food 4 Less,,Grocery,17,3.5,$$,33.98672,-118.18707,GPHm1qWeGjx8cGPLSfRXug,FOOD 4 LESS MEAT DEPT #341,4400 E SLAUSON AVE,MAYWOOD,,,
44,Pavilions,,Grocery,164,2.5,$$,33.9850682,-118.4395059,OT_5LLi1YKc98zfdeSU_Ig,PAVILIONS DELI,4365 GLENCOE AVE,MARINA DEL REY,,,
45,Lavoo Lounge,,"Hookah Bars, Dance Clubs",117,4,$$,34.07192849,-118.3663793,8BzTYrU0f9rivMsHKs6ShA,LAVOO LOUNGE,8108 W 3RD ST,LOS ANGELES,,,
46,Target,,"Department Stores, Furniture Stores, Electronics",255,2.5,$$,33.991768,-117.919052,W5wXmk7axIxpYRru6CxULw,TARGET STORES #222,17751 E COLIMA RD,INDUSTRY,,,
47,,,,,,,,,,CLUB HOUSE USA,2218 N SAN FERNANDO RD,LOS ANGELES,,,
48,Bon Appetit,,Sandwiches,23,4,$,34.06218,-118.41581,zqZd396KInOj6ty-y-hULw,BON APPETTIT DELI & CAFE,1801 CENTURY PARK E STE #330,LOS ANGELES,,,
49,Gangadin Indian,,"Indian, Seafood",540,4,$$,34.14439,-118.39444,eJkDFqOupx5V21H7PIJlPA,GANGADIN,12067 VENTURA PL,STUDIO CITY,,,
50,Rigos Taco 2,,Mexican,98,3,$,34.17912726,-118.4305728,mUk0SZi9SytvICsoE8m_zQ,RIGO'S TACO #2,13662 OXNARD ST,VAN NUYS,,,
51,Kim Tar,,Chinese,337,4,$$,33.8655063,-118.0823349,4WoC-COucRvgJxZ_PX7EZA,KIM TAR RESTAURANT,18309 PIONEER BLVD,ARTESIA,,,
52,Food 4 Less,,Grocery,52,3,$$,34.081493,-117.908943,ydTxGiPwv9I9betXfcRmwA,FOOD 4 LESS BAKERY #337--DELI & BAKERY,615 N AZUSA AVE,WEST COVINA,,,
53,Auntie Anne's -- Upper Level,,Pretzels,25,3.5,$,34.23914605,-118.5565819,IxPViaH46Bac2KhnQajLbg,AUNTIE ANNE'S,9301 TAMPA AVE UNIT 83-A,NORTHRIDGE,,,
54,Descanso Garden Spa,,"Day Spas, Skin Care, Massage",220,4.5,$$,34.2488998,-118.2896026,sdwhYQiYhHXGuhWCpRjaoQ,DESCANSO GARDEN SPA - RESTAURANT,7226 FOOTHILL BLVD,TUJUNGA,,,
55,Rosa's Restaurant,,Mexican,253,4,$$,33.8572867,-118.3907198,XmwpR2MrTBAtYJHctV7umA,ROSA'S,322 PACIFIC COAST HWY,HERMOSA BEACH,,,
56,Marriott LAX Parking,,Parking,204,2.5,,33.946563,-118.384816,en-mv_d6b0arZQ-3K6-5-Q,STARRUCKS/COFFEE-LAX MARRIOT,5855 W CENTURY BLVD,LOS ANGELES,,,
57,La Perla Mkt No 2,,"Grocery, Beer, Wine & Spirits",2,5,,33.96971,-118.23051,CDL02NKIXbaTPrmVA2edoQ,LA PERLA,7681 S SANTA FE AVE,HUNTINGTON PARK,,,
58,7-Eleven,,"Convenience Stores, Coffee & Tea",7,2.5,$,33.96894291,-118.0711225,9QO6dh2eMsS_OS3d5jhCuQ,7-ELEVEN,8244 S NORWALK BLVD,WHITTIER,,,
59,Panda Express,,"Chinese, Fast Food",133,2.5,$,34.16752,-118.37556,_waUiuauY1ySSsMOtlX_zA,PANDA EXPRESS #1439,5300 N LANKERSHIM BLVD STE 140,NORTH HOLLYWOOD,,,
60,Round Table Pizza,,"Pizza, Buffets",71,3.5,$$,34.379674,-118.539597,bJny5JCfgjHRe9C-vgE6NA,ROUND TABLE PIZZA,23254 LYONS AVE,NEWHALL,,,
61,Acapulco Restaurant & Cantina,,"Mexican, Bars, Breakfast & Brunch",888,3.5,$$,33.935483,-118.122821,MNCsx1VtXkOxwvGV7n2-kg,ACAPULCO RESTAURANT,9021 FIRESTONE BLVD,DOWNEY,,,
62,SF Supermarket,,"Grocery, Seafood Markets",56,2.5,$,33.98911586,-117.9021135,#NAME?,SF SUPERMARKET-MEAT & FISH,18475 COLIMA RD,Rowland Heights,,,
63,Hard Rock Cafe Hollywood 5K/10K,,Races & Competitions,104,3.5,,34.102137,-118.340588,2KAUVniVcBKUO3NJa4SeNA,HARD ROCK CAFE HOLLYWOOD,6801 HOLLYWOOD BLVD STE 105,LOS ANGELES,,,
64,Sabor Baja,,Mexican,62,3.5,$,33.9602127,-118.0711212,dXdFd-8H1Wmtom6CeSaO8g,SABOR BAJA,8911 S NORWALK BLVD,WHITTIER,,,
65,Jack in the Box,,"Burgers, Fast Food, Tacos",16,2,$,34.04527671,-118.2037711,fwJTT7C4rvuPaDVkHeIDCQ,JACK IN THE BOX #250,2701 E CESAR E CHAVEZ AVE,LOS ANGELES,,,
66,Ami Sushi,,"Japanese, Sushi Bars",163,3.5,$$,34.027266,-117.895938,8b9y6DEc61vbdrf5ezzNiw,AMI SUSHI,2560 E AMAR RD STE B3,WEST COVINA,,,
67,McDonald's,,"Coffee & Tea, Burgers, Fast Food",44,2,$,33.97945,-118.202477,Srd-APntAwgNL-YhBYjusw,MC DONALD'S,3526 E GAGE AVE,BELL,,,
68,Carl's Jr,,"Fast Food, Burgers",50,1.5,$,34.11656813,-117.776412,K8fLmMixUEnxDp5UYHyPdw,CARL'S JR,1400 E FOOTHILL BLVD,LA VERNE,,,
69,Moon Daepo BBQ 3,,"Korean, Barbeque",319,2.5,$$,34.23754,-118.26087,bwi-oSx48Cte-sihtWChDg,MOON BBQ #3,3747 FOOTHILL BLVD STE H,LA CRESCENTA,,,
70,Dignity Health Sports Park,,Stadiums & Arenas,95,3,,33.8627211,-118.2658751,EStU52z5EsN-kmY1qrJKGw,DIGNITY HEALTH SPORTS PARK- EL MERCADO #15,18400 AVALON BLVD STE 300,CARSON,,,
71,Culver City Auto Care,,Auto Repair,1,5,,34.0094117,-118.413668,4RY6yP8vTlKsfplLd5-WZQ,CULVER CITY CHEVRON,11197 WASHINGTON PL,CULVER CITY,,,
72,,,,,,,,,,MARTIN LIQUOR AND MARKET,11305 WASHINGTON PL,CULVER CITY,,,
73,Baja Fresh,,"Mexican, Tex-Mex, Fast Food",118,3,$,34.151971,-118.365578,e2Av_-iq6AbwbCFIuiwYaw,BAJA FRESH MEXICAN GRILL,10760 RIVERSIDE DR,NORTH HOLLYWOOD,,,
74,Bobs Market,,Grocery,214,4,$$,34.01220839,-118.4669067,8cniYfatc68x7iHgRMDQDQ,BOB'S MARKET DELI/MEAT DEPT,1650 OCEAN PARK BLVD,SANTA MONICA,,,
75,Umenoya,,Ramen,716,3,$$,33.80499,-118.3278351,6FsP_5ps0uQ6WJPIxJA0sg,UMENOYA,24222 CRENSHAW BLVD,TORRANCE,,,
76,Restaurante Hermano Centroamericano 2,,Mexican,14,4,$,34.0396172,-118.3261549,WdqwPUT7OIIn8pA0I2UKFw,RESTAURANTE CENTROAMERICANO2,1905 8TH AVE,LOS ANGELES,,,
77,La Zapopana Meat Market,,"Meat Shops, Grocery, Butcher",1,5,,33.96122,-118.185095,46cuiZ1aTtbxqgaS3PUtiA,LA ZAPOPANA MEAT MARKET,8022 ATLANTIC AVE,CUDAHY,,,
78,Main Event-La Coliseum,,Sporting Goods,2,3,$$$,34.01367,-118.28649,CnNEDnnSbSJ3XCk_JgmCjg,LA COLISEUM PRESS BOX #2,3911 S FIGUEROA ST,LOS ANGELES,,,
79,Universal Donuts,,"Donuts, Sandwiches, Coffee & Tea",60,4.5,$,34.06768,-118.0427,vZ6yOWTrj4ADJxxcMzAGEQ,UNIVERSAL DONUTS,3261 SANTA ANITA AVE,EL MONTE,,,
80,,,,,,,,,,MLP DEMONSTRATION KITCHEN,3655 S GRAND AVE DK,LOS ANGELES,,,
81,Jersey Mike's Subs,,"Sandwiches, Fast Food, Delis",169,3.5,$,34.0623726,-118.3992549,wE90LbIYz92MEoYw7mbdjw,JERSEY MIKES SUBS,279 S BEVERLY DR,BEVERLY HILLS,,,
82,Lee's Noodles,,"Chinese, Noodles, Korean",124,3.5,$,34.06695557,-118.2920609,8G5gqfveWtzzo-TLQJZyLw,LEE'S NOODLES,401 S VERMONT AVE STE 1,LOS ANGELES,,,
83,Cafe Rio Mexican Grill,,Mexican,491,3,$,34.41244848,-118.55786,nR0QE85S5swlOrilUYWcwg,CAFE RIO MEXICAN GRILL,24230 VALENCIA BLVD,VALENCIA,,,
84,Happy Corner Liquor,,"Beer, Wine & Spirits",25,4.5,$,33.99159622,-118.421196,U7hA1p-2FC4f0LzlBDzptw,HAPPY CORNER,4584 S CENTINELA AVE,LOS ANGELES,,,
85,Dodgers Youth Baseball Camp,,Summer Camps,3,5,,34.073855,-118.23996,jP9s-JXOUN2-eo5YqGKvVQ,LA DODGERS CLUBHOUSE,1000 VIN SCULLY AVE,LOS ANGELES,,,
86,T's Thai,,"Thai, Seafood",326,3,$,34.0188597,-118.4978665,QrMjoPgfS3uPKQS8M2df1g,T'S THAI RESTAURANT,1215 4TH ST,SANTA MONICA,,,
87,Pieology Pizzeria,,"Pizza, Vegan, Gluten-Free",257,4,$$,34.02464105,-118.3941843,WXLs0EnoBwLjX46ArMuBGw,PIEOLOGY,3850 MAIN ST UNIT A,CULVER CITY,,,
88,IPIC Westwood,,Cinema,845,3.5,,34.059359,-118.4411505,QbpURaXSm7TFdsK882VIcQ,IPIC THEATER - THE TUCK ROOM TAVERN,10840 WILSHIRE BLVD,LOS ANGELES,,,
89,Lotus Inn China Bistro,,Chinese,169,3,$$,34.1685049,-118.6016716,ccPw5J2KUr15YAolnfhQKQ,LOTUS INN CHINA BISTRO,21733 VENTURA BLVD,WOODLAND HILLS,,,
90,Smog Pros,,"Auto Repair, Smog Check Stations",26,4,,34.16913986,-118.3059387,e3MScKOQPLk00CTzthogUQ,BURBANK SMOG PROS,201 W ALAMEDA AVE,BURBANK,,,
91,Mr. Giant,,Mexican,423,2.5,$,33.9665834,-118.0382097,HQMlYScKgSJ8mhY1sevN9Q,MR. GIANT RESTAURANT,12831 WHITTIER BLVD,WHITTIER,,,
92,Mikasa Restaurant,,Mexican,217,4,$,34.0049094,-117.8678731,cRSCop97VZOngbdsSk_nvw,MIKASA RESTAURANT,19849 E VALLEY BLVD,WALNUT,,,
93,Superior Grocers,,Grocery,45,3,$,34.0109069,-118.1131261,eoSDizEbpYy5vaOsx306ig,SUPERIOR GROCERS #106 MEAT,1201 W WHITTIER BLVD,MONTEBELLO,,,
94,Incredible Cafe Express,,Restaurants,1,5,,33.84761429,-118.2123566,LLUQnIvQBQNNyRsQr-dx3g,CHINA EXPRESS,2787 E DEL AMO BLVD # I-04,RANCHO DOMINGUEZ,,,
95,,,,,,,,,,TESORO USA #63251,4130 W CENTURY BLVD,INGLEWOOD,,,
96,,,,,,,,,,CALIFORNIA DINING AT LS,3100 LOMITA BLVD,TORRANCE,,,
97,,,,,,,,,,KENTUCKY FRIED CHICKEN,7617 VINELAND AVE,SUN VALLEY,,,
98,President Thai Cuisine,,Thai,522,3.5,$$,33.99363,-117.904348,ctvO0YYgbBMbi9BtN2PaeA,PRESIDENT THAI CUISINE,1390 FULLERTON RD STE 105,ROWLAND HEIGHTS,,,
99,,,,,,,,,,CENTURY CLUB,304 12TH ST,MANHATTAN BEACH,,,
100,Taco Bell,,"Fast Food, Mexican",81,2.5,$,34.178771,-118.383119,ARYCSryXY6na5jrJIrEx3Q,TACO BELL #86,5958 LANKERSHIM BLVD,NORTH HOLLYWOOD,,,
101,The Los Angeles Country Club,,Country Clubs,17,4,,34.04822153,-118.3880641,xOt-S6iPjxhgycMYoJpsXg,LOS ANGELES COUNTRY CLUB MAIN KITCHEN,10101 WILSHIRE BLVD,LOS ANGELES,,,
102,Barcito & Bodega,,"Cafes, Wine Bars, Sandwiches",335,4,$$,34.040358,-118.2634197,C-j3SzdHGOIrewm6T-qrCQ,BARCITO,403 W 12TH ST,LOS ANGELES,,,
103,Subway,,Sandwiches,17,2,$,33.97356816,-118.1464025,FkTe7INYgB6tbAxK9y7JLg,SUBWAY #43295,6420 GAGE AVE # #C,BELL GARDENS,,,
104,Coffee & Cream,,"Coffee & Tea, Ice Cream & Frozen Yogurt, Bubble Tea",118,3.5,$,34.3094284,-118.4326316,o_58g8LQCHDSZ4FDM-N47A,COFFEE AND CREAM,13739 FOOTHILL BLVD,SYLMAR,,,
105,Vons,,Grocery,98,3,$$,34.0266323,-118.4270011,NHJ4HGS1ShOhfKKLwgjX-Q,VONS MEAT #2077,3118 S SEPULVEDA BLVD,LOS ANGELES,,,
106,,,,,,,,,,FRANCO 99 CENT UP STORE,143 S MEDNIK AVE,LOS ANGELES,,,
107,,,,,,,,,,SIRY'S PIZZA,10136 S LONG BEACH BLVD STE 10,LYNWOOD,,,
108,,,,,,,,,,HOME GOODS #281,1239 S LONE HILL AVE,GLENDORA,,,
109,Shima,,"Japanese, Sushi Bars",155,3.5,$$$,33.99013901,-118.46492,HeDL57ht_txlK3XbFNqOBA,SHIMA,1432 ABBOT KINNEY BLVD,VENICE,,,
110,Books and Cafe,,Coffee & Tea,15,4,$,34.0049599,-118.43359,73MJD9fOuex2m_Jgq4Y5rA,BOOKS & CAFE,3760 CENTINELA AVE,LOS ANGELES,,,
111,Rockview Dairy,,Convenience Stores,21,4,$,34.05802,-117.9344,q1s8_hNRwC79HW1Ovvah9Q,ROCKVIEW DAIRY #29,551 E VINE AVE,WEST COVINA,,,
112,No 1 Noodle House,,"Noodles, Chinese, Soup",335,3.5,$,33.98736453,-117.9076627,kcGSmY4icSCdSfooH0tS7g,NO 1 NOODLE HOUSE,18180 E COLIMA RD STE #B,ROWLAND HEIGHTS,,,
113,Paco's Tacos,,Mexican,141,2.5,$,33.99824,-117.84339,tpkZG8w0MZulrE8Db90Cwg,PACO'S TACOS,1131 BREA CANYON RD,DIAMOND BAR,,,
114,Liquor Bank,,"Beer, Wine & Spirits, Tobacco Shops, Vape Shops",8,2.5,$,34.1945,-118.502047,AC1HgKx1wgm8L2x3-T0cFA,LIQUOR BANK,16925 VANOWEN ST,VAN NUYS,,,
115,Sky Burgers,,American (Traditional),49,4,$,34.57907867,-118.0954285,QSmebAaRDG8B7C-fX4MhmA,SKY BURGERS,1824 E PALMDALE BLVD,PALMDALE,,,
116,Del Taco,,Mexican,36,3,$,33.99921,-117.845161,9g-d5naeOzPssw2K0ShvZw,DEL TACO #108,21060 GOLDEN SPRINGS DR,DIAMOND BAR,,,
117,Boba Loca,,"Coffee & Tea, Shaved Ice, Juice Bars & Smoothies",98,4,$,33.8584051,-118.07143,DV70QELPu76l8ue-Vcirhg,BOBA LOCA,12222 E SOUTH ST,ARTESIA,,,
118,Faith & Flower,,"American (New), Cocktail Bars",2526,4,$$$,34.046195,-118.261698,c7xLlX7RjxD0WUcl2sm4Lw,BASEMENT KITCHEN/DRY STORAGE FAITH & FLOWER,705 W 9TH ST,LOS ANGELES,,,
119,Astro Burgers No 7,,"Burgers, Breakfast & Brunch",46,2.5,$,33.90168844,-118.3027868,yyg_sYFT_43F2aWRl4klOg,ASTRO BURGER,1510 ROSECRANS AVE,GARDENA,,,
120,American Legion Post 180,,Veterans Organizations,6,5,,34.13682,-117.92409,j12Uw6W9O0hTcrefrwR2Jw,AMERICAN LEGION POST #180,819 N LOREN AVE,AZUSA,,,
121,Jack in the Box,,"Fast Food, Burgers, Tacos",55,2.5,$,34.1648942,-118.2817483,aR2DJEON-nPuABUkSXMyDA,JACK IN THE BOX #342,1200 W GLENOAKS BLVD,GLENDALE,,,
122,K Bakery,,"Bakeries, Mexican",148,4,$,34.06607419,-118.254082,5oG5qtCEfBQHe1SfP_2pXg,K-BAKERY,1258 W TEMPLE ST,LOS ANGELES,,,
123,Chinese Fast Food,,Chinese,91,3.5,$,34.1657633,-118.2877865,L6x9CCM2wxjDWVRdU7zFmw,CHINESE FAST FOOD,6348 SAN FERNANDO RD,GLENDALE,,,
124,Burger King,,"Fast Food, Burgers",57,2.5,$,34.000417,-118.394994,OUejyaZPnXy1WBkQgoNELA,BURGER KING #5159,10812 JEFFERSON BLVD,CULVER CITY,,,
125,,,,,,,,,,NORTHROP GRUMMAN,21240 BURBANK BLVD,WOODLAND HILLS,,,
126,Jack in the Box,,"Fast Food, Burgers, Tacos",43,2,$,33.90197798,-118.0758525,ZrSrF6YgSKI4Jg2MBSO6QA,JACK IN THE BOX #217,12060 E ROSECRANS AVE,NORWALK,,,
127,,,,,,,,,,HONEY TOAST CAFE,18938 LABIN CT # A-109,ROWLAND HEIGHTS,,,
128,Vons,,Grocery,67,2.5,$$,33.8852338,-118.4079797,g7Ey-kyzTDBFYwCLgYjxbw,VONS #2275-DELI DEPT.,410 MANHATTAN BEACH BLVD,MANHATTAN BEACH,,,
129,,,,,,,,,,POPEYE'S CHICKEN & BISCUIT 3354,13746 VAN NUYS BLVD,PACOIMA,,,
130,,,,,,,,,,ARCO MINI MARKET,18076 VENTURA BLVD,ENCINO,,,
131,Banchan A La Carte,,"Caterers, Party & Event Planning",72,4,,34.07428741,-118.3094864,I4YLy2xlw4gNOOEjuJehqA,BANCHAN A LA CARTE,141 N WESTERN AVE,LOS ANGELES,,,
132,,,,,,,,,,UNO SUPERMARKET MEAT DEPT,5658 CLARA ST,BELL GARDENS,,,
133,,,,,,,,,,RING,6800 OWENSMOUTH AVE,CANOGA PARK,,,
134,,,,,,,,,,TOROS RESTAURANT,500 W MAIN ST,ALHAMBRA,,,
135,Vons,,"Grocery, Pharmacy",133,3.5,$$,34.114611,-117.7732594,LOI2AFVRb6AsrjYTWuv3lw,AFC SUSHI AT VONS #2832,1600 FOOTHILL BLVD,LA VERNE,,,
136,,,,,,,,,,EMPLOYEE CAFETERIA-MARRIOTT,333 S FIGUEROA ST,LOS ANGELES,,,
137,Carl's Jr,,"Fast Food, Burgers",81,2.5,$,34.05795884,-118.3642236,0Zn-kJQGZy1fFQHDzHi1HQ,CARL'S JR #97,1005 S FAIRFAX AVE,LOS ANGELES,,,
138,,,,,,,,,,CAMPUS DELI # 1,16007 S CRENSHAW BLVD,TORRANCE,,,
139,,,,,,,,,,RAINBOW DONUTS,2521 E FLORENCE AVE STE #A1,HUNTINGTON PARK,,,
140,,,,,,,,,,FLYING FOOD GROUP,5807 W 98TH ST,LOS ANGELES,,,
141,Roku,,"Sushi Bars, Teppanyaki, Asian Fusion",433,4,$$$,34.091197,-118.392448,goQqu2cvVBMVqx7pItq0rw,ROKU - BAR,9201 SUNSET BLVD,WEST HOLLYWOOD,,,
142,Game Haus Cafe,,"Cafes, Eatertainment, American (Traditional)",563,4.5,$,34.12326311,-118.2546018,fUvFTpgd2zP4R47UvhscQw,GAME HAUS,1800 S BRAND BLVD #107,GLENDALE,,,
143,Numero Uno Markets,,Grocery,8,2.5,$,34.01559993,-118.2649007,GagbKCJywz9AyYDg-u92WQ,NUMERO UNO MARKET (MEAT),701 E JEFFERSON BLVD,LOS ANGELES,,,
144,WaBa Grill,,"Fast Food, Asian Fusion",152,4,$,34.145793,-118.259348,wnRozQ9852-T4_YqpwSuQA,WABA GRILL,1318 GLENDALE GALLERIA,GLENDALE,,,
145,L.A. Pizza,,Pizza,28,3.5,$,34.2217858,-118.4606377,n93QBJj4GB_61qZ6O6meMw,LA PIZZA #2,15037 ROSCOE BLVD,PANORAMA CITY,,,
146,Ralphs,,Grocery,129,2.5,$$,34.208706,-118.509543,YZf2Bz_qxCMHW2N2kbj2ZA,RALPHS BAKERY# 189,17250 SATICOY ST,VAN NUYS,,,
147,,,,,,,,,,HK-2 MEAT MARKET,987 S GLENDORA AVE,WEST COVINA,,,
148,Aji Sushi,,"Sushi Bars, Japanese",290,3,$$,33.9950199,-117.89957,pF8YBvpUwg2hqM66sIjuxA,AJI SUSHI JAPANESE RESTAURAN,18558 GALE AVE STE #100,ROWLAND HEIGHTS,,,
149,,,,,,,,,,RUBIO'S FRESH MEXICAN GRILL,8949 E WASHINGTON BLVD,PICO RIVERA,,,
150,Guanajuato Meat Mkt,,Meat Shops,6,4,$,33.78515,-118.26323,kavURESyr23setjJyh-LsQ,GUANAJUATO MEAT MARKET,1111 N AVALON BLVD,WILMINGTON,,,
151,REI,,"Bikes, Department Stores",200,4,$$$,34.258618,-118.53789,5YxzhfD40AumM2gn8ahPKg,REI,18605 DEVONSHIRE ST,NORTHRIDGE,,,
152,Mayas Tacos Market,,"Mexican, Salvadoran, Soup",161,4,$,34.08338547,-118.2595062,3plBRIoQ8N3Bdlxm3jnbhw,MAYAS TACOS/MARKET,1600 N ALVARADO ST,LOS ANGELES,,,
153,Ixtaco Taqueria,,"Mexican, Food Stands",1030,4,$,34.07879887,-118.0520543,I0Swx2z3i5sASUZhZZhxxw,IXTACO TAQUERIA,10021 E VALLEY BLVD,EL MONTE,,,
154,LifeFood Organic,,"Live/Raw Food, Juice Bars & Smoothies, Vegetarian",104,4,$$,34.0090961,-118.4877715,woVutggZYITXhOf2q5PSKQ,LIFE FOOD ORGANIC,306 PICO BLVD,SANTA MONICA,,,
155,Noodle City,,"Vietnamese, Noodles",416,4,$,34.06218528,-118.1105591,HOCybR-TJVGNDyBqkshkGw,NOODLE CITY PHO RESTAURANT,848 E GARVEY AVE # C,MONTEREY PARK,,,
156,Granny's Donuts,,Donuts,37,4,$,33.90245,-118.1249,ghm7-wJCuLwvyYdnnLO06Q,GRANNY'S DONUTS #7,14210 S BELLFLOWER BLVD,BELLFLOWER,,,
157,,,,,,,,,,EBR,1936 E 7TH ST,LOS ANGELES,,,
158,Little Caesars Pizza,,"Pizza, Fast Food",58,2.5,$,33.99868,-118.42959,rF7PnUeaiVYEEToHrPmxOw,LITTLE CAESARS #5826,4042 S CENTINELA AVE,LOS ANGELES,,,
159,,,,,,,,,,CALIF DINING,900 S FREMONT AVE,ALHAMBRA,,,
160,Jose Chiquito,,"Mexican, Breakfast & Brunch, Sandwiches",126,4,$,34.050678,-118.248699,lCZBPzqKudOpnYMEN13eNw,JOSE CHIQUITO,317 S BROADWAY STE #42,LOS ANGELES,,,
161,Wonder Seafood,,"Dim Sum, Seafood",36,3.5,$$,34.10629,-118.0617,5-jLTb1hvZdzyg7IE4X4LQ,WONDER SEAFOOD,9556 LAS TUNAS DR,TEMPLE CITY,,,
162,McDonald's,,"Burgers, Fast Food, Coffee & Tea",60,1.5,$,34.6893093,-118.095186,BRGgIzIVhJuqjiGG0QP32w,MCDONALDS,1860 E AVENUE J,LANCASTER,,,
163,Carl's Jr,,"Fast Food, Burgers",68,1.5,$,34.0079763,-118.1562219,J9uUTvHr69pSpObGQmNwlA,CARL'S JR #337,5501 E TELEGRAPH RD,LOS ANGELES,,,
164,South Beverly Grill,,"American (New), Seafood, Sushi Bars",702,4,$$$,34.06617,-118.39872,ApNYvuRIHRd5TQsp7Cq6Zg,SOUTH BEVERLY GRILL,122 S BEVERLY DR,BEVERLY HILLS,,,
165,Lu'au Hawaiian BBQ,,Hawaiian,121,4,$,34.03541951,-117.9505706,#NAME?,LUAU HAWAIIAN BBQ,865 N HACIENDA BLVD,LA PUENTE,,,
166,Tijuana's Tacos,,Tacos,808,4,$,34.06256,-117.75653,n4vjeX-1NLLoRfJxPnmCrw,TIJUANAS TACOS,487 W HOLT AVE,POMONA,,,
167,Tea Station,,"Bubble Tea, Desserts, Juice Bars & Smoothies",608,3,$$,34.09218498,-118.1326159,RBTs8e2GHgfUhraghoUqKw,TEA STATION,560 W MAIN ST STE A,ALHAMBRA,,,
168,,,,,,,,,,DUFF'S BAR,100 UNIVERSAL CITY PLZ,UNIVERSAL CITY,,,
169,AMC Puente Hills 20,,Cinema,210,3,,33.9946807,-117.926488,VKLkoZ_4yTUKxBdJ6K_ucA,AMC THEATRES - BAR,1560 S AZUSA AVE,INDUSTRY,,,
170,Shimai's Bistro,,Japanese,94,4.5,$$,33.867944,-118.2367977,NSTOHeVpOh0oyzEjZcxlSw,SHIMAI SUSHI & TERYAKI,855 W VICTORIA ST STE A-2,COMPTON,,,
171,Carnitas Becerra,,Mexican,3,3.5,,33.96138996,-118.2474301,3V2zpoVJsgTGLUNaBEo5wQ,RESTAURANT CARNITAS BECERRA,8436 COMPTON AVE,LOS ANGELES,,,
172,Olive Garden Italian Restaurant,,"Italian, Salad, Soup",538,3,$$,34.14696,-118.25545,L65kFkzMTPJ7PBHCPTOyYw,OLIVE GARDEN #1322,101 N BRAND BLVD,GLENDALE,,,
173,Mahale Cafe,,Burgers,15,3,$$,34.149056,-118.284046,5Uok2Hvnrkz0v9cdhFPtyg,MAHALE KIOSK,5333 ZOO DR,LOS ANGELES,,,
174,Cocina Dona Chona,,Mexican,32,4.5,$,33.9745851,-118.2378913,SnCYLASSE28SbOtiXiCaMA,COSINA DONA CHONA,1938 E FLORENCE AVE,LOS ANGELES,,,
175,Cozy Cafe,,"Greek, Burgers, Breakfast & Brunch",242,4.5,$,33.837879,-118.385765,aah_uO0TbdDtfO7bXReJjg,COZY CAFE,307 S PACIFIC COAST HWY,REDONDO BEACH,,,
176,L&L Hawaiian Barbeque,,"Barbeque, Hawaiian",98,2.5,$,33.98416893,-118.0997035,5lR8Gt1iXGNGUC_uGTxVGA,L & L HAWAIIAN BBQ,8760 E WASHINGTON BLVD # C7B8,PICO RIVERA,,,
177,Ralphs,,Grocery,54,3,$$,33.925971,-118.354042,hOKoDNQT5XuX0GzUkLNA1A,RALPHS BAKERY-DELI #269,11873 S HAWTHORNE BLVD,HAWTHORNE,,,
178,Marshall Canyon Golf  Course,,Golf,43,3.5,,34.147029,-117.75238,t6GfEQxpw6rrxDg1yzKz3Q,MARSHALL CANYON GOLF COURSE,6100 N STEPHENS RANCH RD,LA VERNE,,,
179,,,,,,,,,,VILLAMAR MARKET,6200 COMPTON AVE,LOS ANGELES,,,
180,La Lupita,,Mexican,21,4.5,$$,34.0478792,-118.209829,ARL4OjGc0iSu4l72tfsmAw,LA LUPITA RESTAURANT,2211 E CESAR E CHAVEZ AVE,LOS ANGELES,,,
181,Coronados Mexican Restaurant & Bar,,"Mexican, Bars",255,3.5,$$,34.0476897,-118.2503636,qOEk6grCYlvSDzur7K47Tw,CORONADO MEXICAN RESTAURANT,212 W 5TH ST,LOS ANGELES,,,
182,Moon Juice,,"Juice Bars & Smoothies, Coffee & Tea, Health Markets",226,4,$$$,33.99839,-118.474,rWUC5O4tCNnsbVLKYIohrw,MOON JUICE,507 ROSE AVE,VENICE,,,
183,,,,,,,,,,SLS HOTEL@BH/BAZAAR,465 S LA CIENEGA BLVD,LOS ANGELES,,,
184,,,,,,,,,,DULCE ALAMEDA,777 S ALAMEDA ST STE 150,LOS ANGELES,,,
185,Outback Steakhouse,,Steakhouses,318,3,$$,34.3770114,-118.5664191,qy29tUpKJw1LXrSfe6d8aQ,OUTBACK STEAKHOUSE,25261 THE OLD RD,STEVENSON RANCH,,,
186,Purple Cup,,Juice Bars & Smoothies,76,4,$,33.82711364,-118.2764626,jaIowtSEpAMmlxACIZPr7Q,PURPLE CUP,22030 MAIN ST # 205,CARSON,,,
187,Universal CityWalk,,Shopping Centers,830,3.5,$$,34.136114,-118.353715,iJXe557zv4ZXRqC6XyOs2w,AMC UNIVERSAL CITYWALK -CONC EAST,100 UNIVERSAL STUDIOS BLVD,UNIVERSAL CITY,,,
188,Augustine Wine Bar,,Wine Bars,263,4.5,$$,34.14698,-118.42686,TNoDukQ6dQLWZD8GdLVXSA,AUGUSTINE,13456 VENTURA BLVD,SHERMAN OAKS,,,
189,,,,,,,,,,MAPO GALBI,3090 W OLYMPIC BLVD,LOS ANGELES,,,
190,Bhimas Vegetarian,,"Indian, Vegetarian",175,3.5,$$,33.860247,-118.081555,fRbR0xXwHruWcJUcQvTseA,BHIMAS VEGETERIAN,18746 PIONEER BLVD,ARTESIA,,,
191,Rite Aid,,"Drugstores, Convenience Stores",26,3.5,$,34.108128,-117.826003,NtKsRwG1mrA07XcYskfvfw,RITE AID #5608,933 W ARROW HWY,SAN DIMAS,,,
192,Harbor Park Golf Course,,Golf,42,3.5,,33.78737514,-118.2831189,d30XhNcVyGh6J50GyDsV3g,HARBOR GOLF CAFE,1235 FIGUEROA PL,WILMINGTON,,,
193,Starbucks,,Coffee & Tea,145,3,$,33.961095,-118.110713,a-0gCyopwxcP_QW4UOwMug,STARBUCKS COFFEE #10659,8801 LAKEWOOD BLVD,DOWNEY,,,
194,Lucille's Smokehouse Bar-B-Que,,"Barbeque, Smokehouse, Southern",1275,3.5,$$,33.830793,-118.349873,-3j-wcaHba-6rlhUFj1h_A,LUCILLE'S SMOKEHOUSE BAR-B-QUE,21540 HAWTHORNE BLVD # 401-B,TORRANCE,,,
195,Panini Kabob Grill,,Mediterranean,922,4,$$,34.06990296,-118.4056434,oUW9n_UPBjDQkDs7xzWlzw,PANINI CAFE,9601 S SANTA MONICA BLVD,BEVERLY HILLS,,,
196,A & M Tropical Food,,Grocery,1,5,,33.8894481,-118.3264051,zZPXOpD7pH3G3xB0Jug0Eg,A & M TROPICAL FOOD,15530 CRENSHAW BLVD,GARDENA,,,
197,,,,,,,,,,CLUB DE SALUD,14076 OSBORNE ST,PANORAMA CITY,,,
198,Liquid Bean Coffee House,,"Coffee & Tea, Bagels, Juice Bars & Smoothies",147,4,$,34.67531,-118.16163,lq4c-4r371VAUTTkPwU0Hg,LIQUID BEAN ENTERPRISE,1711 W K AVENUE,LANCASTER,,,
199,Tom's Jr. Burgers,,Burgers,4,2,$,33.97488,-118.29112,HMUC-JB5iSUR4ssXCtZQkQ,TOM'S JUNIOR,953 W FLORENCE AVE,LOS ANGELES,,,
200,La Paz Restaurant,,Mexican,295,4,$,33.922503,-118.4047451,JYX8fpNEAYU2Cy6uxYwXnw,LA PAZ RESTAURANT,514 CENTER ST,EL SEGUNDO,,,
201,Guido's Pizza & Pasta,,"Pizza, Pasta Shops, Sandwiches",141,4,$,34.202116,-118.571644,5Y43pjt4DePGfvS_kP1ssQ,GUIDO'S PIZZA AND PASTA,20113 SHERMAN WAY,WINNETKA,,,
202,,,,,,,,,,COMINO'S MARKET,3450 E MLK BLVD,LYNWOOD,,,
203,Vons,,Grocery,125,2,$$,34.02650607,-118.4899059,JD677UQ3MLF6WXsbPS7prQ,VONS #2002 MEAT DEPT,1311 WILSHIRE BLVD,SANTA MONICA,,,
204,WaBa Grill,,"Asian Fusion, Fast Food",73,2.5,$,33.96905632,-118.0598438,3kp85i47eGFbWQ_6GcnkBw,WABA GRILL,11808 E WASHINGTON BLVD,SANTA FE SPRINGS,,,
205,Little Caesar’s,,"Pizza, Fast Food",1,5,$,34.07259,-118.2913,I3RtkON7jSXbA0apB9KKUw,LITTLE CAESAR'S #5737,100 S VERMONT AVE,LOS ANGELES,,,
206,,,,,,,,,,LA FAVORITA BAKERY,5116 S CENTRAL AVE,LOS ANGELES,,,
207,Mariscos El Perihuete,,"Mexican, Seafood",392,3,$$,33.88323,-118.15953,dldmFGpUNGmib8s1GAuNSg,MARISCOS EL PERIHUETE NO 2,16600 S PARAMOUNT BLVD,PARAMOUNT,,,
208,Diamond Family Spa,,Day Spas,209,2.5,$$,33.99553,-117.89481,zYrQ68_Xm550EqUQ-dvsVw,DIAMOND FAMILY SPA,1140 COINER CT,ROWLAND HEIGHTS,,,
209,Wolfgang Puck Express,,American (New),64,2.5,$$,33.9413696,-118.3996639,M_WAWeyOeqBUd2rop9PUVQ,WOLFGANG PUCK EXPRESS,700 WORLD WAY # 70,LOS ANGELES,,,
210,Wassada Restaurant,,"Korean, Seafood, Live/Raw Food",214,3.5,$$$,34.0777743,-118.3092949,QC8p2iaBOuYtuTwRhseHeg,WASSADA POCHA,379 N WESTERN AVE,LOS ANGELES,,,
211,Rajdhani,,Indian,593,4,$$,33.8630601,-118.0824125,_9nK5MHCqdILitnK-S6urQ,RAJDHANI,18525 PIONEER BLVD,ARTESIA,,,
212,Los Victor's Mexican Food,,Mexican,47,2.5,$,34.08922597,-117.9108796,KE5gypXX8QkQydTuFK3_Dw,LOS VICTORS MEXICAN FOOD,1039 W SAN BERNARDINO RD,COVINA,,,
213,Locali - Hollywood,,"Sandwiches, Health Markets, Delis",459,4,$$,34.10542713,-118.3162094,wEWtiksMz8o6IqAotGDzRQ,LOCALI,5825 FRANKLIN AVE,LOS ANGELES,,,
214,Han Bat Sul Lung Tang,,"Korean, Comfort Food, Soup",2277,4.5,$$,34.065414,-118.3095703,uzAbw27XQTXTivjgf2bN2w,HAN BAT SHUL LUNG TANG,4163 W 5TH ST,LOS ANGELES,,,
215,El Super,,"Grocery, Bakeries, Specialty Food",22,2.5,$,34.22679,-118.45112,KcVZgUdDRx5WL-Ec7XatEg,EL SUPER,14620 PARTHENIA ST,PANORAMA CITY,,,
216,Party City,,Party Supplies,50,2.5,,33.9263325,-118.1306449,#NAME?,PARTY CITY #1521,12076 LAKEWOOD BLVD,DOWNEY,,,
217,,,,,,,,,,TAKE FIVE,100 UNIVERSAL CITY PLZ,UNIVERSAL CITY,,,
218,KFC,,"Fast Food, Chicken Wings, Chicken Shop",76,2,$,34.1724082,-118.5532231,MUeWqaJtfFtq9-EgMmsixQ,KFC TARZANA,19256 VENTURA BLVD,TARZANA,,,
219,GNC,,Vitamins & Supplements,10,4,$$,34.1064751,-117.8237527,iETY7t4vbCgwi7uVdlv67Q,GNC,830 W ARROW HWY STE B,SAN DIMAS,,,
220,Hennessey's Tavern,,"Irish, Pubs, American (Traditional)",799,3.5,$$,33.86177393,-118.4015575,SNz6QovemXXHP52CZEL1ww,HENNESSEY'S TAVERN,8 PIER AVE,HERMOSA BEACH,,,
221,Garden Café,,"Chinese, American (New), Noodles",1014,3,$$,34.07813,-118.12491,89XegE-wxqpIGndpxnnxOQ,GARDEN CAFE,228 W VALLEY BLVD STE 101,ALHAMBRA,,,
222,Zahn Emergency Housing,,Homeless Shelters,1,5,,34.0464,-118.26413,CqllI2VpPFPk2AXIcF2dag,BRIDGE/CRISIS HOUSING,832 JAMES M WOOD BLVD,LOS ANGELES,,,
223,W's China Bistro,,Chinese,586,4,$$,33.82201,-118.38491,Fa4NIt5oiBASTrZfZJ8MPw,W'S CHINA BISTRO,1410 S PACIFIC COAST HWY,REDONDO BEACH,,,
224,Rice Kitchen,,Chinese,141,3.5,$$,33.80765,-118.26373,1hjZVACaFlLDCuZexQy9pg,RICE KITCHEN,23918 AVALON BLVD,CARSON,,,
225,Susana's Restaurant,,Salvadoran,7,2,,33.9946215,-118.2913851,ZbdDjRskvh8DdCwF-yOzyA,SUSANA'S RESTAURANT,5218 S VERMONT AVE,LOS ANGELES,,,
226,Latino Grill,,Caterers,12,3.5,,34.2556947,-118.436566,#NAME?,LATINO GRILL,13935 VAN NUYS BLVD,ARLETA,,,
227,,,,,,,,,,TRIMINA,21820 BURBANK BLVD STE #110,WOODLAND HILLS,,,
228,7-Eleven,,"Convenience Stores, Coffee & Tea",22,2.5,$,34.04912371,-118.3858617,PPtk4oFi4klBfuRhWARQXw,7-ELEVEN,1665 S ROBERTSON BLVD,LOS ANGELES,,,
229,,,,,,,,,,WC'S LIQUOR,9125 E TELEGRAPH RD,PICO RIVERA,,,
230,Cabrillo Beach Yacht Club,,"Boating, Sailing",4,3.5,,33.7250773,-118.2817843,pvXC9Ct43sE6YFVcEHuEGQ,CABRILLO BEACH YACHT CLUB,211 W 22ND ST,SAN PEDRO,,,
231,El Burrito Jr,,Mexican,210,3.5,$,33.80568,-118.35334,BEAq7k8ryLL_P_KZHCU-2Q,EL BURRITO JR,3830 PACIFIC COAST HWY,TORRANCE,,,
232,Ana's La Gran Fonda Mexican Restaurant,,Mexican,67,4,$$,33.881411,-118.2929086,NLQG68ZEoA33_gC0lk8pVA,ANA'S LA GRAN FONDA # 2,1060 W GARDENA BLVD,GARDENA,,,
233,Flame Broiler,,Fast Food,40,2,$,33.8315709,-118.2984943,-3Jwgm-JUlSSFfVDvGqUog,THE FLAME BROILER,1249 W CARSON ST,TORRANCE,,,
234,Carnitas Michoacan,,Mexican,30,2.5,$,34.27429581,-118.4492111,LMwSt8zvXGqQI5EBREwg_A,CARNITAS MICHOACAN,14534 BRAND BLVD,SAN FERNANDO,,,
235,,,,,,,,,,ARCO MINI MART,9454 CORBIN AVE,NORTHRIDGE,,,
236,Jus' Poke,,"Hawaiian, Poke",1623,4.5,$$,33.84955489,-118.3888027,ksDBh7PStfDG3XrXO5UChA,GET POKE,501 N PACIFIC COAST HWY,REDONDO BEACH,,,
237,Smeraldi's,,"Italian, Breakfast & Brunch, Buffets",108,3.5,$$,34.04916594,-118.2535207,LY6JwTvyRSJL93FE9z0JQA,SMERALDI'S,506 S GRAND AVE,LOS ANGELES,,,
238,El Asado,,Mexican,5,4,$,34.03262354,-118.2964035,5wgap_ZWEyqYTOWUpXjShg,EL ASADO RESTAURANT,1564 W ADAMS BLVD,LOS ANGELES,,,
239,WaBa Grill,,"Fast Food, Asian Fusion",82,3,$,34.11016,-117.75317,yi8HXy53awwa4JvzgdR0Vw,WABA GRILL,2855 FOOTHILL BLVD # A-105,LA VERNE,,,
240,Food and Bounty,,"Caterers, Venues & Event Spaces",30,3,,34.09690551,-118.322251,iyO7J2md08eW39otUctGcw,FOOD AND BOUNTY,1438 N GOWER  BLDG 10 ST BOX 56,LOS ANGELES,,,
241,El Palmar Salvadoran Restaurant #2,,Salvadoran,30,2.5,$$,34.030086,-118.308967,#NAME?,"EL PALMAR SALVADORIAN RESTAURANT #2, INC",2781 S WESTERN AVE,LOS ANGELES,,,
242,Burbank Deli & Market,,"Delis, Beer, Wine & Spirits",30,4,$,34.16159234,-118.3174445,TWM5rIMLkSUOiOYdFZCdzw,BURBANK DELI & MARKET,1414 W ALAMEDA AVE,BURBANK,,,
243,Tortas Ahogadas Ameca,,Mexican,245,4.5,$,34.021577,-118.157317,JAks5OLgYOxoPW-wEOhh9Q,TAQUERIA AMECA,747 S ATLANTIC BLVD,LOS ANGELES,,,
244,Café Mocha,,"Sandwiches, Juice Bars & Smoothies",4,3.5,,34.0601082,-118.2920227,e3tFBFojJNBmpkCigk1h0Q,MOCHA CAFE,695 S VERMONT AVE # 106,LOS ANGELES,,,
245,Dream Dinners,,"Specialty Food, Do-It-Yourself Food",15,5,$$,34.02218,-118.43889,NWdAjvrZ7u1xByouKJpElA,DREAM DINNERS-WEST L A,11700 NATIONAL BLVD STE #N,LOS ANGELES,,,
246,Diamante Azul Restaurant,,Mexican,3,2.5,$$,34.20796329,-118.5708552,7-Oaied8bjJsCSZih2yJeg,DIAMANTE AZUL,7560 WINNETKA AVE,WINNETKA,,,
247,Chipotle Mexican Grill,,"Mexican, Fast Food",129,2.5,$,34.13833243,-118.2147238,tfstDxZVnufg7ZNg8KM2qw,CHIPOTLE MEXICAN GRILL,5047 EAGLE ROCK BLVD,LOS ANGELES,,,
248,,,,,,,,,,CASA BLANCA BAR,8744 IMPERIAL HWY,DOWNEY,,,
249,Tazzina,,"Delis, Desserts, Salad",111,4,$,34.02856445,-118.4861679,oOXn1lh-_b_ClOLX_EeKKA,CAFE TAZZINA,1620 WILSHIRE BLVD,SANTA MONICA,,,
250,Sushi Delight,,"Sushi Bars, Japanese",609,4,$$,33.790021,-118.317943,anDWdyVtZO9r33Mqfe-iBg,SUSHI DELIGHT,2117 PACIFIC COAST HWY,LOMITA,,,
251,Macy's,,"Department Stores, Men's Clothing, Women's Clothing",144,2.5,$$,34.035493,-118.083877,6cHROBlpl6-mqa4nHs_veA,MACY'S,1900 MONTEBELLO TOWN CTR,MONTEBELLO,,,
252,La Mirada Golf Course,,"Golf, Venues & Event Spaces, Wedding Planning",127,3,,33.902936,-118.000611,Hs6Z9wCHU8lhpnOYBz-LRw,LA MIRADA GOLF COURSE #116,15501 E ALICANTE RD,LA MIRADA,,,
253,Kiku Teriyaki,,"Korean, Japanese",19,3.5,$,34.04553986,-118.2552795,8sKWLKyHw8rsLdXogoLGOg,KIKU TERIYAKI RESTAURANT,725 S HILL ST,LOS ANGELES,,,
254,Spicy BBQ Restaurant,,"Barbeque, Thai",560,4.5,$$,34.09115,-118.30078,GmMSLiFDCvL4SCRRx5SYOQ,SPICY BBQ,5101 SANTA MONICA BLVD STE 1,LOS ANGELES,,,
255,VP Discount Health Food,,Health Markets,5,4.5,$$$$,34.1311379,-118.0660779,gB2CQE1wMKhnyEg6P0xpYg,V P DISCOUNT HEALTH FOOD,1127 W HUNTINGTON DR,ARCADIA,,,
256,El Gran Burrito,,Mexican,337,3.5,$,34.0906491,-118.2926032,SVd64a66m_wNMCz_4brrRA,EL GRAN BURRITO,4716 SANTA MONICA BLVD,LOS ANGELES,,,
257,Alpha Dogs,,"American (Traditional), Hot Dogs, Breakfast & Brunch",35,4,$,34.12083038,-117.7890125,zskUED2bE-33pokPtfEGjQ,ALPHA DOGS,914 FOOTHILL BLVD,LA VERNE,,,
258,Mi Pueblito San Juan Restaurant,,Mexican,32,4,$,33.7897,-118.27531,6siP2Lbc_Bb-r5aIeApVmA,MI PUEBLITO SAN JUAN RESTAUR,1341 N WILMINGTON BLVD,WILMINGTON,,,
259,Coconut Thai Cuisine,,Thai,201,4,$$,34.1695306,-118.5385246,Y0LxzIGlY5gDl82WRe_ylw,COCONUT THAI CUISINE,18594 VENTURA BLVD,TARZANA,,,
260,,,,,,,,,,AJ CHINESE FOOD,2001 S GAREY AVE # i-5,POMONA,,,
261,Embers Lounge,,Dive Bars,73,3.5,$,33.9714475,-118.0699408,L8QmlKNmLWZiA8N02j_LEA,THE EMBERS LOUNGE,11332 E WASHINGTON BLVD,WHITTIER,,,
262,,,,,,,,,,GRILL LINE,431 W 7TH ST,LOS ANGELES,,,
263,,,,,,,,,,THE ORCHARD,11444 W OLYMPIC BLVD,LOS ANGELES,,,
264,Licha's Restaurant,,Mexican,107,4,$,33.91661,-118.34967,CfIOMNjk3wX5AXUG_QqkYA,LICHA'S RESTAURANT,4267 W EL SEGUNDO BLVD,HAWTHORNE,,,
265,,,,,,,,,,GNCK,8450 GARVEY AVE STE 101,ROSEMEAD,,,
266,Lolli and Pops,,"Chocolatiers & Shops, Candy Stores",67,4.5,$$,34.157269,-118.43752,xM8_i4EWcH439fWqWMBm8w,LOLLI & POPS,14006 RIVERSIDE DR STE 76,SHERMAN OAKS,,,
267,Bar Nineteen 12,,Lounges,55,3.5,$$$$,34.081798,-118.413395,x3unUoK6umosN2gvQMruVQ,BAR NINETEEN 12,9641 SUNSET BLVD,BEVERLY HILLS,,,
268,JOEY Woodland Hills,,"American (New), Sushi Bars",2779,4,$$,34.18621,-118.605225,QbJNQBpYanGGuzLbE-Zzwg,JOEY RESTAURANT,6344 TOPANGA CANYON BLVD # 1010,WOODLAND HILLS,,,
269,Ralphs,,Grocery,152,3,$$,33.92227128,-118.3956894,#NAME?,KIKKA-RALPHS #645,500 N SEPULVEDA BLVD,EL SEGUNDO,,,
270,,,,,,,,,,ROBEKS JUICE,4314 W RIVERSIDE DR,BURBANK,,,
271,Carl's Jr,,"Fast Food, Burgers",115,2,$,34.1027145,-118.1063533,3C-sHn7aLGiSiPoV8BuOeQ,CARLS JR #255,505 W LAS TUNAS DR,SAN GABRIEL,,,
272,Grand Foods Market,,Armenian,84,4.5,$$,34.15800095,-118.2509155,qrg7f0QWFmmQldx1obiJGQ,GRAND FOOD MARKET,400 E GLENOAKS BLVD,GLENDALE,,,
273,,,,,,,,,,AFC SUSHI @ RALPH'S #281,910 LINCOLN BLVD,VENICE,,,
274,Smart & Final,,Grocery,29,4,$,34.0228327,-118.292266,cnue2EIErPuWe8xMg16SdQ,SMART AND FINAL,3607 S VERMONT AVE,LOS ANGELES,,,
275,Big Fish Japanese Cuisine,,"Japanese, Sushi Bars",347,4,$$,34.14994879,-118.4309835,yP3h_GwxwLi13v-QMYU1WA,BIG FISH JAPANESE CUISINE,4364 WOODMAN AVE,SHERMAN OAKS,,,
276,Everest Burgers,,"American (Traditional), Burgers, Sandwiches",489,3.5,$,34.4161422,-118.4606328,MpxVl4esRDUE3-exgOYxtw,EVEREST RESTAURANT,18645 SOLEDAD CANYON RD,CANYON COUNTRY,,,
277,Ming Wok,,Chinese,53,3,$,34.0261239,-118.4274862,b1z_UUr9Hmm63WblkwxnGg,MING WOK,3120 S SEPULVEDA BLVD,LOS ANGELES,,,
278,McDonald's,,"Fast Food, Burgers, Coffee & Tea",75,1.5,$,34.22806483,-118.4671784,wYGGQ9b4VjUielI2z-EqJw,MCDONALD'S #28364,8656 SEPULVEDA BLVD,NORTH HILLS,,,
279,Beard Papa's Koreatown,,"Desserts, Coffee & Tea, Bakeries",172,4.5,$,34.062983,-118.309523,OYTVF-SjKIfkX-NntdYnQQ,BEARD PAPA'S K-TOWN,621 S WESTERN AVE 103,LOS ANGELES,,,
280,DoubleTree By Hilton Los Angeles - Rosemead,,Hotels,156,3,$$,34.037185,-118.080442,01iUPDOtsP8uUZpj4xyxaA,DOUBLE TREE HOTEL ROSEMEAD,888 MONTEBELLO BLVD,ROSEMEAD,,,
281,,,,,,,,,,WOW AT MOUNTIE GRILL,1100 N GRAND AVE # BLD-1,WALNUT,,,
282,Jonathan Beach Club,,"Lounges, Swimming Pools, Tennis",55,4,$$$$,34.020264,-118.50735,ZzlvCubefrOzZjKJOdy6nA,JONATHAN CLUB CAFETERIA,850 PALISADES BEACH RD,SANTA MONICA,,,
283,Yen Sushi & Sake Bar,,"Japanese, Sushi Bars, Seafood Markets",393,4,$$,34.145003,-118.414446,skez32t0xzqAj36fTkajyA,YEN JAPANESE RESTAURANT,12930 VENTURA BLVD STE #120,STUDIO CITY,,,
284,Tajrish Persian Cuisine,,Persian/Iranian,393,4,$$,33.983207,-118.460473,_Q-Iz2fqKUHkFlfMHgGn_w,TAJRISH RESTAURANT,507 WASHINGTON BLVD,VENICE,,,
285,24 Hour Fitness - Puente Hills,,"Gyms, Trainers",368,2,,33.99270966,-117.9269346,00OlvLU4La7tTvqoKESrqw,24 HOUR FITNESS #58,1600 S AZUSA AVE,INDUSTRY,,,
286,Los Molcajetes,,Mexican,4,1,,34.00669143,-117.9098325,kgA7TeMyWlhgAJQYtjYzVA,LOS MOLCAJETES RESTAURANT,18015 E VALLEY BLVD,LA PUENTE,,,
287,Rubio's,,"Mexican, Seafood, Salad",185,4,$,34.2412912,-118.5591953,eoNP7dQWaD4opjrEYvPWBg,RUBIO'S FRESH MEXICAN GRILL,19500 PLUMMER ST UNIT B3,NORTHRIDGE,,,
288,La Esquina Meat Market,,"Butcher, Meat Shops",23,4,$,34.1050797,-118.2309113,yAOX2gKBiJrMGSe88Da3gQ,LA ESQUINA MEAT MARKET,3301 DIVISION ST,LOS ANGELES,,,
289,BRÜ HAUS,,"Gastropubs, Lounges, American (Traditional)",458,3.5,$$,34.04777,-118.46354,fm7a-Qy4U2iKOHD0kdxOlg,BRU HAUS,11831 WILSHIRE BLVD,LOS ANGELES,,,
290,Starbucks,,Coffee & Tea,150,3,$,34.19866,-118.327144,xLcorrkpnx_pHsZ2Xtl7Ww,STARBUCKS COFFEE #10802,2130 N GLENOAKS BLVD,BURBANK,,,
291,,,,,,,,,,POW WOW SALON,9560 FIRESTONE BLVD,DOWNEY,,,
292,Flame Broiler,,Fast Food,73,3,$,33.89719949,-118.0082536,m42uEP34bOJ3hBlesIHiHw,THE FLAME BROILER #105,15110 ROSECRANS AVE,LA MIRADA,,,
293,Nightingale Plaza,,"Dance Clubs, Venues & Event Spaces",75,2,$$$$,34.08322,-118.37682,6nhVUX5UYklgV2ZvlXWmww,NIGHTINGALE PLAZA,643 N LA CIENEGA BLVD,LOS ANGELES,,,
294,Veggie Grill,,"Vegetarian, Vegan, American (New)",1528,4,$$,33.9068699,-118.3900282,HIP48G5p_A-bI1jZ2uOgdw,THE VEGGIE GRILL,720 S ALLIED WAY STE D,EL SEGUNDO,,,
295,Casa Gazcón Mexican Grill,,"Mexican, Seafood",124,4,$$,33.9492189,-118.0898951,LaAG8Z28WUPBxfL5VpSoGw,CASA GAZCON MEXICAN GRILL,11413 E TELEGRAPH RD,SANTA FE SPRINGS,,,
296,La Corona,,Grocery,7,4,$,34.2015699,-118.38251,-75fTsj66myg-Fo41TbtDQ,LA CORONA,11501 SHERMAN WAY,NORTH HOLLYWOOD,,,
297,,,,,,,,,,CHURCH'S FRIED CHICKEN #945,1415 E ROSECRANS AVE # B/1,COMPTON,,,
298,Cowboy Burgers & BBQ,,"Burgers, Barbeque",65,3.5,$,34.0801585,-117.9878672,czlLwRWwrkTTVhfq2InHwA,COWBOY BURGER,13101 E RAMONA BLVD,BALDWIN PARK,,,
299,,,,,,,,,,ALTA DENA DAIRY,600 E 5TH ST,AZUSA,,,
300,Mariscos El Cristalazo,,Seafood,61,3,$$,34.0498229,-117.9448933,Jv1PbxCE98VuKGD2ySvS9A,EL CRISTALAZO,1665 N HACIENDA BLVD,LA PUENTE,,,
301,Avo's Bakery,,Bakeries,12,4,$,34.19403057,-118.3633529,MLamnNVe15NUVageFK7KQA,AVO'S BAKERY,10665 W VANOWEN ST,BURBANK,,,
302,Sofra Kabab Express,,Turkish,283,3.5,$$,34.01743166,-118.4095039,ZsoYVW5Pc2ZO4FL2QhjMAw,SOFRA KEBAB HOUSE,10821 VENICE BLVD,LOS ANGELES,,,
303,Mari's Kitchen,,"American (New), Mexican",101,4,$,34.10359,-117.87292,T3Oc2c5fGrZh7qHa-Yq2PA,MARI'S KITCHEN,1319 N GRAND AVE,COVINA,,,
304,Yoshinoya - Wilmington,,Japanese,21,3,$,33.779625,-118.263413,URg7xFCNeMOBSWkzoXatrQ,YOSHINOYA #4148,140 W ANAHEIM ST B,WILMINGTON,,,
305,Mr. Poké,,Poke,249,4.5,$$,33.99760281,-117.8543272,kc0_MGQzOOnox0rluDs45g,MR. POKE,20651 GOLDEN SPRINGS DR STE E,DIAMOND BAR,,,
306,Champion Provisions,,"Specialty Food, Grocery",56,4,$$,34.077566,-118.102075,k60VGYxmZLgFmBtZyFSZVg,CHAMPION PROVISIONS CO INC,140 W VALLEY BLVD STE #113,SAN GABRIEL,,,
307,Bricks,,"Burgers, Sandwiches, American (Traditional)",1147,4,$$,34.37881,-118.55181,AVOSQIcJzs0jJwGTOL3uVg,BRICKS,23820 LYONS AVE,NEWHALL,,,
308,The 3rd Stop,,"Gastropubs, Burgers, American (New)",637,4,$$,34.07339,-118.3809,12jL9bVids7OgTm_0_JCbg,THE 3RD STOP,8636 W 3RD ST,LOS ANGELES,,,
309,88 Beef Noodle,,"Taiwanese, Noodles, Soup",177,3.5,$,34.1274278,-118.0550407,fUXKC4xFNFFSh6kpTn8VpQ,88 BEEF NOODLE,1045 S BALDWIN AVE,ARCADIA,,,
310,EBISU Sushi & Teriyaki,,"Japanese, Sushi Bars",139,3.5,$$,34.0633626,-118.3649394,2UIUoW8A0cSjC8v5L0LRqA,EBISU JAPANESE GRILL & SUSHI,6234 WILSHIRE BLVD,LOS ANGELES,,,
311,El Tapatio,,"Mexican, Grocery",8,3.5,$,33.97441,-118.26905,Ywz5pgHS7QQ1jygY1pFzTw,EL TAPATIO MEAT MARKET,310 E FLORENCE AVE,LOS ANGELES,,,
312,Superior Grocers,,"Grocery, Bakeries, Meat Shops",25,2,$,33.9328956,-118.3262851,M4EwyeeHFT3ZWzqn-SkhNA,SUPERIOR SUPER WAREHOUSE-MT,11202 S CRENSHAW BLVD,INGLEWOOD,,,
313,JW Steakhouse,,"Steakhouses, Seafood, American (Traditional)",137,4,$$$,33.946629,-118.384843,i6JkqE_Z7Dz9lEhscxuZVA,LAX MARRIOTT JW'S STEAKHOUSE,5855 W CENTURY BLVD,LOS ANGELES,,,
314,Fresh & Easy,,"Grocery, Bakeries, Convenience Stores",211,3.5,$$,34.1226997,-118.2250595,0VxpwWytzhdMlrESdHD6Wg,FRESH & EASY #1003 MARKET,4211 EAGLE ROCK BLVD,LOS ANGELES,,,
315,,,,,,,,,,AMERICAN NUTRITIONAL,13749 FOOTHILL BLVD,SYLMAR,,,
316,Fiesta Martin Mexican Grill,,"Mexican, Latin American, Breakfast & Brunch",961,4,$$,33.980146,-118.357847,zt5MFq6w5_Zj7vYUpRjigg,FIESTA MARTIN MEXICAN GRILL,1330 N LA BREA AVE,INGLEWOOD,,,
317,,,,,,,,,,SR OIL,341 N VICTORY BLVD,BURBANK,,,
318,LA Urban Fitness,,"Health Markets, Vitamins & Supplements",37,4,$$,33.99848283,-118.4793162,yw5jKWQjTqlHO6tdSYsoDA,LA URBAN FITNESS,3015 MAIN ST STE B,SANTA MONICA,,,
319,KFC,,"Fast Food, Chicken Wings",52,2,$,34.2646,-118.528,llutjfwLK5AcnvxtHiWMAA,KFC,18145 CHATSWORTH ST,GRANADA HILLS,,,
320,City Cafe,,"Caterers, Cafes",17,1.5,$$,34.0504608,-118.2612991,EQPkT_nfqCzHmEvjcdItNQ,CITY CAFE,1000 WILSHIRE BLVD,LOS ANGELES,,,
321,Coffee Commissary,,"Coffee & Tea, Bakeries, Breakfast & Brunch",786,3.5,$$,34.15612,-118.33523,76jFAkCYXlLfwq8SLxFGcA,COMMISSARY POST EXCHANGE,3121 W OLIVE AVE,BURBANK,,,
322,Stater Bros. Markets,,"Grocery, Delis, Butcher",33,3,$$,34.661603,-118.182387,byaDu4iEtDDRt2f0N8NZeA,STATER BROS MARKETS #146BKRY,2845 W AVENUE L,LANCASTER,,,
323,Wetzel's Pretzels,,Pretzels,13,3.5,$,33.97845,-118.3926,re2uFLUftoyHeI1sr_gY5g,WETZELS PRETZELS,6081 CENTER DR STE 213,LOS ANGELES,,,
324,All About the Bread,,"Delis, Sandwiches, Salad",27,3,$$,34.05772494,-118.4194405,T7XmIcXvl0Vblo5OyUo6Fg,AATB-ALL ABOUT THE BRAD,10250 SANTA MONICA BLVD STE FC5,LOS ANGELES,,,
325,The Pancake Factory,,Breakfast & Brunch,626,4,$$,33.88857,-118.3271,tJ4q93VNHJ_lnw5alMvJuQ,PANCAKE FACTORY,15619 S CRENSHAW BLVD,GARDENA,,,
326,Iong Kee,,"Seafood, Cantonese",47,3,$$,34.26497,-118.46855,PuM1Ysgk92XCgMNSVZOMRw,IONG KEE SEAFOOD RESTAURANT,15423 CHATSWORTH ST,MISSION HILLS,,,
327,The Home Depot,,"Hardware Stores, Nurseries & Gardening, Appliances",234,2.5,$$,34.2140296,-118.4462112,bnuolRbJ13tfnUgo1G14CQ,THE HOME DEPOT #6644,7870 E VAN NUYS BLVD,PANORAMA CITY,,,
328,Old Fashion Deli & Market,,"Grocery, Fruits & Veggies, Butcher",66,4.5,$,34.188169,-118.225464,qwgR6KQIPOMrlwafKX_vQg,OLD FASHION DELI,2830 N VERDUGO RD,GLENDALE,,,
329,Walt Disney Studios,,Performing Arts,24,4.5,,34.15687561,-118.3250275,2GmBHPElGLkrw0hGwU11Qg,WALT DISNEY STUDIO ROTUNDA,500 S BUENA VISTA ST,BURBANK,,,
330,Starbucks,,Coffee & Tea,136,3,$,33.823636,-118.328231,vW5od_rTpWOZabJKJxd4BQ,STARBUCKS COFFEE #6656,2370 CRENSHAW BLVD STE A,TORRANCE,,,
331,,,,,,,,,,CATERING AREA,26101 MAGIC MOUNTAIN PKWY,VALENCIA,,,
332,,,,,,,,,,LIQUOR,3753 W SLAUSON AVE,LOS ANGELES,,,
333,Chick-fil-A,,Fast Food,488,3.5,$,33.9862666,-118.4007615,H1jfm47vEM5iMQx-wSZa9w,CHICK-FIL-A,11750 JEFFERSON BLVD,LOS ANGELES,,,
334,Starbucks,,Coffee & Tea,95,3.5,$,34.04551624,-118.2614497,lU057eF5L8-jmPUiv0aU7w,STARBUCKS,600 9TH ST,LOS ANGELES,,,
335,Boston Market,,"American (Traditional), Comfort Food, Sandwiches",197,2.5,$$,33.936923,-118.127644,mba-rGqdwKEFyJ86IJ7-4w,BOSTON MARKET #1551,8606 FIRESTONE BLVD,DOWNEY,,,
336,Chi's Chinese Cuisine,,"Chinese, Noodles, Soup",871,4,$$,34.2456698,-118.5370086,De70_nLzIwGXMs3X5aCQvg,CHI'S CHINESE CUISINE,9635 RESEDA BLVD,NORTHRIDGE,,,
337,La Cocina Restaurant L&F,,Mexican,59,4,$,34.03675698,-118.194036,rPg2y7lF8b5RIPqk3dfr7g,LA COCINA,3425 E 1ST ST STE 122,LOS ANGELES,,,
338,King Kong Sushi,,"Japanese, Sushi Bars",683,3.5,$$,34.09675561,-117.7191603,RlSnnS3SkjVumfu7kzPLCg,KING KONG SUSHI,300 N INDIAN HILL BLVD,CLAREMONT,,,
339,Le Pain Quotidien,,"Coffee & Tea, Breakfast & Brunch, Bakeries",302,3.5,$$,34.18564,-118.60415,_cskaJuklJHUcFtJjY_FHQ,LE PAIN QUOTIDIEN,6256 TOPANGA CANYON BLVD STE 1200,WOODLAND HILLS,,,
340,Rite Aid,,"Drugstores, Convenience Stores",47,3,$$,33.998453,-118.428425,ljGv9SPPwwqnkFUTn2i2JQ,RITE AID #05457,4046 S CENTINELA AVE,LOS ANGELES,,,
341,Golden Pheasant,,"Chinese, Seafood, Soup",400,4,$$,33.8317049,-118.2947898,0GiCLHnIWwS3vqJAwzgBsg,GOLDEN PHEASANT CHINESE REST,1077 W CARSON ST,TORRANCE,,,
342,Monte Alban Restaurant,,"Mexican, Breakfast & Brunch",611,4,$$,34.0419,-118.46117,vlZaQFjJ3DtLJqyfCpi3mg,MONTE ALBAN,11927 SANTA MONICA BLVD,LOS ANGELES,,,
343,Annie's Bakery Cafe,,"Bakeries, Cafes",41,4,$,34.0597913,-118.2750983,VouY-Gm3feAgEg6lRV5yQQ,ANNIES BAKERY CAFE,2117 W 6TH ST,LOS ANGELES,,,
344,Dinah's Family Restaurant,,"Diners, American (Traditional), Breakfast & Brunch",1190,3,$$,33.9803,-118.394892,b-aLCjiF1QT2l7o9Dus2yw,DIANA'S FAMILY RESTAURANT,6521 S SEPULVEDA BLVD,LOS ANGELES,,,
345,Big Lots,,"Discount Store, Department Stores",39,3.5,$,34.23284933,-118.5524224,085-St6i9nT0TyYryldTPg,BIG LOTS #4623,8960 TAMPA AVE,NORTHRIDGE,,,
346,,,,,,,,,,MARIO MEXICAN GRILL,14909 VANOWEN ST,VAN NUYS,,,
347,Lemon Moon,,American (New),141,3.5,$$,34.03159714,-118.4554138,yDLKS-m8Rxcm2pYwPAitlQ,LEMON MOON CAFE,12200 W OLYMPIC BLVD STE 110,LOS ANGELES,,,
348,Melrose Mobil,,Gas Stations,4,3.5,,34.083705,-118.338935,Oaezij5d95cSb6TGm33-5Q,MELROSE GAS CORPORATION,6601 MELROSE AVE,LOS ANGELES,,,
349,Hilton Los Angeles/Universal City,,"Hotels, Venues & Event Spaces",761,3.5,$$$,34.13692071,-118.3582589,oz-l9zWBlNURcPj_5UnABw,HILTON - BANQUET KITCHEN,555 UNIVERSAL HOLLYWOOD DR,UNIVERSAL CITY,,,
350,Winterfest at Santa Anita Park,,Festivals,27,3.5,,34.13809,-118.04,_wdq8i3IZ2rn9gy7j-1YUw,SANTA ANITA PARK - STAND 38,285 W HUNTINGTON DR,ARCADIA,,,
351,CVS Pharmacy,,"Drugstores, Pharmacy, Convenience Stores",52,2.5,$$,33.995,-117.969,v_JEy45_YchSSch4bCg--Q,CVS/PHARMACY #9730,2141 S HACIENDA BLVD,HACIENDA HEIGHTS,,,
352,Viktor Benes Bakery,,Bakeries,15,3,,34.17012,-118.53567,SYpPGseOYd1GsOHJYBmMPA,VIKTOR BENES BAKERY TARZANA,5500 RESEDA BLVD,TARZANA,,,
353,Izzy's Deli,,"Delis, Breakfast & Brunch, Sandwiches",732,3,$$,34.02761841,-118.4882813,_LGoXqQdxZF-pzlah4D6SA,IZZY'S DELI,1433 WILSHIRE BLVD,SANTA MONICA,,,
354,Ut Trai Cay,,Fruits & Veggies,28,3.5,$$,34.0625051,-118.0726324,gmFXuZ-FN9E1UiyhQcJjXA,UT TRAI CAY,9014 GARVEY AVE UNT E,ROSEMEAD,,,
355,Tacos Mexico,,Mexican,118,2.5,$,33.91673,-118.34895,Fa9mA9nCujf49gBgeY2rOA,JAVIER TACOS MEXICO # 9,4235 W EL SEGUNDO BLVD,HAWTHORNE,,,
356,,,,,,,,,,ALBERTSON'S #594 -MEAT DEPT,220 E BONITA AVE,SAN DIMAS,,,
357,Mikomi Sushi,,"Sushi Bars, Japanese",1364,4.5,$$,34.14751,-118.00061,PtaTw9g0TDwOr1pzKnwOGA,MIKOMI SUSHI,414 S MYRTLE AVE,MONROVIA,,,
358,Domino's Pizza,,"Pizza, Chicken Wings, Sandwiches",104,3,$,34.1528067,-118.4488349,1Pk5BZn2VzEFF-X840uKzg,DOMINOS PIZZA,4467 VAN NUYS BLVD,SHERMAN OAKS,,,
359,Buffalo Wild Wings,,"Chicken Wings, American (Traditional), Sports Bars",1336,2,$$,34.238621,-118.55542,AfO9XqF6VOf0Mz-hYTpgtQ,BUFFALO WILD WINGS,9301 TAMPA AVE,NORTHRIDGE,,,
360,Infuzion Cafe,,"Coffee & Tea, Breakfast & Brunch, Sandwiches",88,4.5,$,34.0190208,-118.4963792,H6Ru7bx5XbJmxQpcvPRcog,INFUZION CAFE,1241 5TH ST #102,SANTA MONICA,,,
361,Manhattan Bagel,,"Bagels, Coffee & Tea, Breakfast & Brunch",84,3.5,$,34.1711282,-118.5700519,yXaLFP_2lfvEW6KFm6TQ5g,MANHATTAN BAGEL,20048 VENTURA BLVD,WOODLAND HILLS,,,
362,Taza. A Social Coffee House,,"Coffee & Tea, Donuts, Sandwiches",475,4,$$,34.14032,-118.032,dWGq6Ss4I2EXM07xx6u5aw,TAZA A SOCIAL COFFEE HOUSE,11 W HUNTINGTON DR,ARCADIA,,,
363,,,,,,,,,,CRENSHAW MARKET & LIQUOR,6224 S CRENSHAW BLVD,LOS ANGELES,,,
364,Hirose,,"Japanese, Sushi Bars",189,4,$$$,33.80382885,-118.3279667,msMMMrMf-MSYic28Kavs4w,HIROSE,24631 CRENSHAW BLVD STE STE #,TORRANCE,,,
365,,,,,,,,,,BAKERY / DELI,1636 W 25TH ST,SAN PEDRO,,,
366,Restaurante y Pupuseria La Libertad,,"Mexican, Latin American, Seafood",19,4,$,33.96545,-118.25672,YrWpnzW-HqmsOo4fcE65pg,RESTAURANTE Y PUPUSERIA LA LIBERTAD,8101 S CENTRAL AVE,LOS ANGELES,,,
367,Tokyo Shabu Shabu,,"Japanese, Asian Fusion, Hot Pot",706,3.5,$$,33.993354,-117.905176,nbRViQl1EBLDSMHCJbDW2g,LITTLE TOKYO SHABU SHABU,1330 S FULLERTON RD STE #108,INDUSTRY,,,
368,,,,,,,,,,ITA-CHO,7311 BEVERLY BLVD,LOS ANGELES,,,
369,Tacos El Compa Est. 1995,,Mexican,3,4.5,,33.9882656,-118.1924003,f-InW8yKlSM9YvtTOSQ72g,TACOS EL COMPA,4063 E SLAUSON AVE,MAYWOOD,,,
370,Ralphs,,Grocery,64,3,$$,34.44529,-118.5531851,VOrZc9QJJ-PMAAHEHELPLw,RALPHS #147 BAKERY,27760 MCBEAN PKWY,VALENCIA,,,
371,Monja,,Taiwanese,25,3.5,$,33.9950218,-117.8995667,fFA7stD_wm8-PDk9anczoQ,MONJA,18558 E GALE AVE STE #108,ROWLAND HEIGHTS,,,
372,The Coffee Gallery,,"Coffee & Tea, Breakfast & Brunch, Sandwiches",425,4,$,34.18073274,-118.1318742,Orw0H7VdkuRv_LG4M-eIfw,THE COFFEE GALLERY,2029 N LAKE AVE,ALTADENA,,,
373,,,,,,,,,,THE WINE BAR,600 WORLD WAY,LOS ANGELES,,,
374,,,,,,,,,,MAMA GALLINA,4501 S ALAMEDA ST # W-9A,LOS ANGELES,,,
375,Whole Foods Market,,Grocery,286,3,$$$,34.06933932,-118.3982498,yVCtdIpiheMtErKf7mjfng,WHOLE FOODS-MEAT & SEAFOOD,239 N CRESCENT DR,BEVERLY HILLS,,,
376,Onishicho Ramen,,Japanese,739,4,$,34.10688,-117.741137,hA2W4-U57p8nHarwIaoilw,ONISHICHO GRILL EXPRESS,504 E FOOTHILL BLVD,POMONA,,,
377,Greenland Market,,International Grocery,184,4,$$,34.20153,-118.51815,AqegkMGKIxhQphBA1Nm8YA,GREENLAND MARKET(MEAT DEPT),17643 SHERMAN WAY,VAN NUYS,,,
378,,,,,,,,,,PIZZA,3638 SMITH AVE,ACTON,,,
379,Vons,,"Grocery, Pharmacy",78,3,$$,34.4257657,-118.4252585,rgZ2UTwADKh6qWET6DJ6jQ,VONS #3138 BAKERY,16550 SOLEDAD CANYON RD,CANYON COUNTRY,,,
380,California Bowl Teriyaki Sushi,,"Sushi Bars, Japanese",143,3.5,$$,34.1882251,-118.591717,7FiYto24kmixC-zSM7hFlg,CALIFORNIA BOWL TERIYAKIESUS,21036 VICTORY BLVD,WOODLAND HILLS,,,
381,Listo el Pollo,,Peruvian,254,4,$$,34.19416588,-118.5356087,ttN7LO40YCcQ7yKZRgCyFQ,LISTO EL POLLO,6800 RESEDA BLVD #G,RESEDA,,,
382,Chronic Tacos,,"Mexican, Tapas/Small Plates",112,3,$,33.8348201,-118.1164051,yBH1IzkAvarUgMWez5EaLw,CHRONIC TACOS LAKEWOOD,4212 WOODRUFF AVE,LAKEWOOD,,,
383,Leelin Bakery & Cafe,,"Cafes, Filipino",26,4,$,34.0321397,-117.9144588,RjU-FS7GVYLxIHm1W1wQ6g,LEELIN BAKERY & CAFE,2429 S AZUSA AVE,WEST COVINA,,,
384,El Aguila Bakery,,"Bakeries, Cupcakes",129,4,$,34.0882087,-118.1729001,QW3hQs6RX1U2nPa6rfHlHw,EL AGUILA BAKERY,5028 S HUNTINGTON DR S,LOS ANGELES,,,
385,Llamarada,,Mexican,105,4.5,$,34.07717133,-118.2151413,EWBpbXuogwNei7nWUvqQRQ,LLAMARADA,2622 PASADENA AVE,LOS ANGELES,,,
386,,,,,,,,,,PARKVIEW KAFE,25975 S VERMONT AVE,HARBOR CITY,,,
387,McDonald's,,"Burgers, Fast Food, Coffee & Tea",129,1.5,$,33.87139544,-118.0828719,M7CLjm1PIqesJG4umnN53w,MCDONALD'S,17523 S PIONEER BLVD,ARTESIA,,,
388,Qik Market,,Grocery,5,5,$,34.208732,-118.370544,H8GdacV7peWpvEbpS5OOkA,QIK MEAT MARKET,7601 VINELAND AVE,SUN VALLEY,,,
389,Subway,,Sandwiches,21,2.5,$,34.062897,-118.3648403,b9dOYRRJpVlgF4GgYHQqow,SUBWAY #10107,6238 WILSHIRE BLVD,LOS ANGELES,,,
390,Dough Boy Pizza,,Pizza,46,2.5,$,33.971779,-118.074083,17Y723lCnjP4jbLH2sCHKA,DOUGH BOY PIZZA,8017 NORWALK BLVD,WHITTIER,,,
391,Wingstop,,Chicken Wings,291,3,$$,34.42213365,-118.5374967,EYBXlDqi6Lus4ZyzfxU9qg,WINGSTOP #315,22931 SOLEDAD CANYON RD,SANTA CLARITA,,,
392,Scoreboard,,Sports Bars,10,3.5,$$,33.94441883,-118.4095163,d9r0yDxM0IU6jzSOgasUsg,SCOREBOARD LA,380 WORLD WAY 200,LOS ANGELES,,,
393,Premier Dessert Art,,Desserts,352,4,$,34.062744,-118.129608,EY2nlapvv9dsEGD4z1Pk6w,PREMIER DESSERT,501 W GARVEY AVE #107,MONTEREY PARK,,,
394,,,,,,,,,,NUMERO UNO RANCHO MARKET #6,4225 MONTCLAIR ST,LOS ANGELES,,,
395,Baskin-Robbins,,"Ice Cream & Frozen Yogurt, Desserts, Custom Cakes",35,3,$$,33.98032924,-117.9731464,C-kRY-lQ-iVwYbN6snfAwQ,BASKIN ROBBINS ICE CREAM,3127 S HACIENDA BLVD,HACIENDA HEIGHTS,,,
396,El Torogoz,,Salvadoran,74,4,$,33.9395217,-118.2141715,E80uCtcXuINhvM5Lk9N3xA,EL TOROGOZ RESTAURANT,10406 LONG BEACH BLVD,LYNWOOD,,,
397,Mike's Deli,,"Delis, Salad, Sandwiches",873,4.5,$$,33.98800555,-118.3626715,KOeuULPL0ZrIqfVU_Zcyhw,MIKE'S DELI,4859 W SLAUSON AVE STE #B,LOS ANGELES,,,
398,,,,,,,,,,NORTHROP CONTINENTAL,101 CONTINENTAL BLVD,EL SEGUNDO,,,
399,7-Eleven,,"Convenience Stores, Coffee & Tea",10,2.5,$,33.97669638,-118.3765908,fQWAPxHWkw3wFioNSJp4WA,7-ELEVEN #26262C,5498 1/2 W CENTINELA AVE,LOS ANGELES,,,
400,Kech Cafe South Bay,,"Mediterranean, Pizza, Sandwiches",134,4.5,$,33.8356,-118.31511,Dgx9JltXG5oIb6bVZqArcg,KECH CAFE SOUTH BAY,1231 CABRILLO AVE STE 103,TORRANCE,,,
401,Mulholland Tennis Club,,"Tennis, Venues & Event Spaces",11,4,,34.118352,-118.3903478,Sbgi3I6itd2DoLEtF5Lm3Q,MULHOLLAND CLUB RESTAURANT,2555 CRESTVIEW DR,LOS ANGELES,,,
402,The Home Depot,,"Hardware Stores, Nurseries & Gardening, Appliances",201,2.5,$$,33.9886595,-118.364321,nqTtw-QRSHRQxYoS5iYNAA,THE HOME DEPOT #1061,4925 W SLAUSON AVE,LOS ANGELES,,,
403,Pailin Thai Cuisine,,Thai,446,4.5,$,34.1018549,-118.3120862,eCnYyV6biWxm1NQJTQ0Wig,PAILIN THAI CUISINE,5621 HOLLYWOOD BLVD,LOS ANGELES,,,
404,Dollar Tree,,Discount Store,15,3,$,33.981099,-118.187297,FBhtLnv4ssFDRlKk-cQxqw,DOLLAR TREE #4023,6207 N ATLANTIC AVE,BELL,,,
405,Bocca Steakhouse,,"Steakhouses, Kosher, Sushi Bars",125,3.5,$$$,34.157666,-118.495049,vBCi5et_OdCUCSUHatUdDQ,BOCCA STEAKHOUSE,16610 VENTURA BLVD STE #8,ENCINO,,,
406,Al Watan Halal Restaurant,,"Indian, Pakistani",604,4,$$,33.90829453,-118.3613442,nZXWPydTSuKWLivY2k9Bug,AL WATAN RESTAURANT,13611 INGLEWOOD AVE,HAWTHORNE,,,
407,Flying Pig,,Asian Fusion,91,3,$,34.0487392,-118.2611417,aPAqmtPw3y4PdLbRYIUsVA,FLYING PIG,735 S FIGUEROA ST # 118,LOS ANGELES,,,
408,,,,,,,,,,CHARCOAL AND HEALTH FOOD RETAIL STORE,3191 OLYMPIC BLVD,LOS ANGELES,,,
409,El Pollo Gordo,,Mexican,1,5,,34.1863792,-118.3857622,EIL9aoN_m3iW0kamlOTgig,EL POLLO GORDO,11640 VICTORY BLVD,NORTH HOLLYWOOD,,,
410,,,,,,,,,,HILTON HOTEL EMPLOYEE CAFE,5711 W CENTURY BLVD,LOS ANGELES,,,
411,,,,,,,,,,GUESTHOUSE HOTEL,12500 FIRESTONE BLVD,NORWALK,,,
412,,,,,,,,,,JUN KA BOK,1380 FULLERTON RD # 104,ROWLAND HEIGHTS,,,
413,Happy Taco,,"Mexican, American (Traditional)",433,4,$$,34.0470681,-118.2843635,Ij1S9QX1QWDVwJLBcWiejQ,HAPPY TACOS TO GO,1309 S HOOVER ST,LOS ANGELES,,,
414,Jim's Burgers,,Burgers,70,4,$,33.96110762,-118.1855206,NowRYlpLk7tAt8GQ1e73kw,JIMS BURGERS #2,8050 ATLANTIC BLVD,CUDAHY,,,
415,Beach Chinese Food To Go,,Chinese,69,4,$,33.90100703,-118.4174828,dLTDfHpfRUyMRcg4x3B8vA,BEACH CHINESE FOOD,314 ROSECRANS AVE,MANHATTAN BEACH,,,
416,,,,,,,,,,FUJISAN SUSHI BAR,2122 S HACIENDA BLVD,HACIENDA HEIGHTS,,,
417,Starbucks,,Coffee & Tea,50,2.5,$$,34.238621,-118.55542,o3OG6CisUIhBwCsnvaPqYg,STARBUCKS COFFEE CO.,9301 TAMPA AVE UNIT 58,NORTHRIDGE,,,
418,Molly Malone's,,"Irish, Pubs, Music Venues",256,3.5,$$,34.06528854,-118.3616943,NV3K4jTXJzzEpOC2jJal5A,MOLLY MALONES,575 S FAIRFAX AVE,LOS ANGELES,,,
419,Exchange Mart,,"Candy Stores, Organic Stores, Convenience Stores",6,5,$$,34.14775085,-118.2546463,bIrZMB2p-SyuCuIXqGZemg,EXCHANGE MART,138 N BRAND BLVD,GLENDALE,,,
420,,,,,,,,,,W-HOTEL-STATION BAR,6250 W HOLLYWOOD BLVD,LOS ANGELES,,,
421,Salads 2000,,"Sandwiches, Wraps",101,4,$,33.9422799,-118.07212,2va5olWV-CjTzadyeTmSaA,GOURMET SALADS 2005,12215 E TELEGRAPH RD # 104,SANTA FE SPRINGS,,,
422,Joe's Pizza,,"Pizza, Italian",1150,3.5,$,34.013166,-118.496295,lU8HHVQYbWs6SSoulI3phw,JOE'S PIZZA,111 BROADWAY,SANTA MONICA,,,
423,,,,,,,,,,NEW DONUTS,7098 E GAGE AVE,COMMERCE,,,
424,Mesa Brazilian Eatery,,Brazilian,387,4.5,$,34.0596619,-118.4450226,Wci7mf0ASeackBYFQm_7nA,MESA BRAZILIAN EATERY,10917 LINDBROOK DR,LOS ANGELES,,,
425,Jin Jiang Restaurant,,Chinese,333,3.5,$$,34.04829647,-118.4433309,sMT1k-OCLEmhvXiZDWx1lQ,JIN JIANG SEAFOOD RESTAURANT,11057 SANTA MONICA BLVD,LOS ANGELES,,,
426,Starbucks,,Coffee & Tea,142,3,$,33.858852,-118.090511,SK4oo2GFTnxCk1ia4HKkQQ,STARBUCKS COFFEE # 5955,11401 E SOUTH ST,CERRITOS,,,
427,Commodore Cafe & Catering,,"Burgers, Cafes, Mexican",60,3.5,$,34.0319141,-118.4631697,kpv0hne-g-f9wFbmr_Uq3g,COMMODORE CAFE,1814 BERKELEY ST,SANTA MONICA,,,
428,Foothill Car Wash,,Car Wash,39,3,,34.1333,-117.91541,4KRK9H2eaxw1dedfC1i9Jw,FOOTHILL CAR WASH,730 W FOOTHILL BLVD,AZUSA,,,
429,Daily Donuts,,Donuts,12,3,$,34.09111,-118.29134,VHAMtusXa49uPMWxg_-_cg,DAILY DONUTS,1100 N VERMONT AVE STE 18,LOS ANGELES,,,
430,The Big Burger,,Burgers,226,4,$,33.8679224,-118.2658751,DF8gChy9b1KYZx1SzaaAOQ,BIG BURGER,17940 S AVALON BLVD,CARSON,,,
431,Friar Tuck Shoppe,,Specialty Food,39,3.5,$$,34.17183,-118.43037,259kn3kTTdsz0iefyZwrug,THE FRIAR TUCK SHOPPE,13638 BURBANK BLVD,VAN NUYS,,,
432,Gloria's Cocina Mexicana,,Mexican,943,3.5,$$,33.95919,-118.13995,XbZTHtdIrxVNlkTZqR0P5g,GLORIA'S COCINA MEXICANA,7401 E FLORENCE AVE,DOWNEY,,,
433,The Bel-Air,,Venues & Event Spaces,2,2.5,,34.07745,-118.46866,Pne16GRvNYkqDRzQUEVjpQ,THE BEL-AIR SHACK / MAIN KITCHEN,662 N SEPULVEDA BLVD,LOS ANGELES,,,
434,Sharky's Woodfired Mexican Grill,,Mexican,452,4,$$,34.1917539,-118.3291259,uKyL4Hm8f0KkpMxW58EUkA,SHARKY'S WOODFIRED MEX GRILL,1791 N VICTORY PL,BURBANK,,,
435,The Atomic Cafe,,Diners,11,2,$,34.191101,-118.350594,MvbPNX-as2e85dPy3mbQog,ATOMIC CAFE FRYS ELECTRONICS,2311 N HOLLYWOOD WAY,BURBANK,,,
436,,,,,,,,,,LIN'S GARDEN,133 E LOMITA BLVD,CARSON,,,
437,Hong Kong Supermarket,,"Grocery, Fruits & Veggies, Seafood Markets",57,2.5,$,34.06332,-118.12368,r6QJCshMD5Nc3PKbiK1BSA,HONG KONG SUPERMARKET MEAT,127 N GARFIELD AVE,MONTEREY PARK,,,
438,,,,,,,,,,ARCELIA MARKET,1002 E VERNON AVE,LOS ANGELES,,,
439,The Assembly,,"Cafes, Coffee & Tea",188,4.5,$,34.08182,-118.38518,XZm0cn97EUhacaU4JYMp2A,THE ASSEMBLY CAFE,634 N ROBERTSON BLVD,WEST HOLLYWOOD,,,
440,Tamayo Restaurant,,Mexican,265,4,$$,34.015572,-118.156393,JtkJ4Y53F_n0s8cdjo1gGg,TAMAYO RESTAURANT,5300 E OLYMPIC BLVD,LOS ANGELES,,,
441,Steve's CharBurger,,"Burgers, Fast Food",172,3,$$,33.8494,-118.36259,OxHhyyiqeNqsco1_ODF2Zw,STEVE'S CHARBROILER #3,20055 ANZA AVE,TORRANCE,,,
442,TBLA Catering & Cafe,,"American (New), Salad, Wraps",194,4.5,$$,34.04184,-118.25141,Ff0tTFNnkJsOooPs7sutww,"TBLA, INC.",765 S SANTEE ST,LOS ANGELES,,,
443,Marie Callender's,,"American (Traditional), Bakeries, Breakfast & Brunch",322,3,$$,34.06105,-118.13338,jI-UqqPwJaA4TLYHteim5w,MARIE CALLENDER PIES #81,220 S ATLANTIC BLVD,MONTEREY PARK,,,
444,Everest,,"Burgers, American (Traditional), Breakfast & Brunch",440,3.5,$,34.237846,-118.262664,cXVbVPJeqg7ZBGir2YWRlQ,EVEREST RESTAURANT,3826 FOOTHILL BLVD,LA CRESCENTA,,,
445,Quickie Dog & Taco Quickie,,"Fast Food, Mexican",92,4,$,33.962623,-118.165115,Yiux1_FQInmFgCtFbfQYlw,QUICKIE DOG,7716 EASTERN AVE,BELL GARDENS,,,
446,Sunshine Donuts,,"Donuts, Coffee & Tea, Bagels",30,4.5,$,34.04350145,-117.7504107,VULV2XBsQmPPkCGFOhPt3g,SUNSHINE DONUTS,1545 S GAREY AVE,POMONA,,,
447,Vinh Loi Tofu,,"Vietnamese, Vegan",1723,4.5,$$,34.201266,-118.539342,8lQdlnHokoGzTCpR8c1PPw,VINH LOI TOFU,18625 SHERMAN WAY # 101,RESEDA,,,
448,Mick's Sub Shop,,Sandwiches,116,4.5,$,34.16609511,-118.5273045,vNJJwxg-y5-e4PSFUnRlIg,MICKS SUB SHOP,5223 LINDLEY AVE,TARZANA,,,
449,Teddy's Red Tacos,,"Tacos, Food Trucks",328,4.5,$,33.98723867,-118.4727617,Wz04vjjqGJM7aYXsuJVoyg,THE ORIGINAL TEDDY'S RED TACOS,46 WINDWARD AVE,VENICE,,,
450,El Patron,,Mexican,448,3.5,$$,34.18967843,-118.1315221,k32x38hyQRz7VNK4X93t2g,EL PATRON MEXICAN RESTAURANT,2555 N LAKE AVE,ALTADENA,,,
451,Herbie's Cuisine - Filipino Fiesta,,"Filipino, Fast Food, Grocery",54,4.5,$,34.1066251,-117.8985066,0lP4f-eRNjd_kq_f1j02Ng,HERBIE'S CUISINE FILIPINO FIESTA,468 W ARROW HWY,COVINA,,,
452,Indigo House,,"Coffee & Tea, Tabletop Games, Jewelry",51,4.5,$$,33.99653,-118.43057,X8bKl_RJWrZxbLdumcq1_A,INDIGO HOUSE,12512 W WASHINGTON BLVD,LOS ANGELES,,,
453,,,,,,,,,,MARIA'S RESTAURANT,307 E JEFFERSON BLVD # #129,LOS ANGELES,,,
454,,,,,,,,,,RESTAURANT,8025 VINELAND AVE,SUN VALLEY,,,
455,Las Dunas,,Peruvian,145,3.5,$$,34.20934,-118.572011,JTLOSf0u0gwVJ7qtTw_PYQ,LAS DUNAS,20133 SATICOY ST,WINNETKA,,,
456,Red Mango,,"Ice Cream & Frozen Yogurt, Juice Bars & Smoothies, Acai Bowls",151,3.5,$,34.04409549,-118.2650983,IP9xsjUj21uxpLlVvaXe8A,RED MANGO YOGURT & SMOOTHIES,1011 S FIGUEROA ST #B 120,LOS ANGELES,,,
457,,,,,,,,,,NANBANKAN,11330 SANTA MONICA BLVD,LOS ANGELES,,,
458,Tutti Frutti Frozen Yogurt,,Ice Cream & Frozen Yogurt,79,3.5,$,34.23757169,-118.2609699,uF_jo0INinHenuRZ5gkE3Q,TUTTI FRUTTI,3731 FOOTHILL BLVD # #E,LA CRESCENTA,,,
459,,,,,,,,,,KEV'S LIQUOR,9442 VALLEY BLVD,ROSEMEAD,,,
460,Yogurtland Westchester,,Ice Cream & Frozen Yogurt,78,3.5,$,33.957433,-118.395912,2U5Qi59WuiO6ZNQuNkdxZA,YOGURTLAND WESTCHESTER,8752 S SEPULVEDA BLVD,LOS ANGELES,,,
461,CVS Pharmacy,,"Drugstores, Pharmacy, Convenience Stores",84,1.5,$$,33.9453,-117.997,FRQGjHN1MBJ_dXC1ted8mQ,CVS/PHARMACY #9512,15466 E WHITTIER BLVD,WHITTIER,,,
462,Subway,,Sandwiches,27,2.5,$,34.235793,-118.5887993,B2tR462jmFmp2wUXtRtFeA,SUBWAY #5102,9103 DE SOTO AVE,CHATSWORTH,,,
463,Family Market,,Convenience Stores,1,5,$,33.9184418,-118.344223,UcvlXk589h0y5G-HGmQkSA,FAMILY MARKET & 99 CENTS STORE,12539 S PRAIRIE AVE,HAWTHORNE,,,
464,Chanos Drive In,,Mexican,187,4,$,34.1033151,-118.0847957,xFrF3XCf9mrUFOkHkvXqmA,CHANO'S DRIVE-IN,1030 E LAS TUNAS DR,SAN GABRIEL,,,
465,Sorabol,,"Korean, Barbeque",125,2,$$,34.19033223,-118.6026468,XB1fEL1jEXbGac5D6HVshQ,SORABOL REMOTE PREPARATION,6600 TOPANGA CANYON BLVD UNIT FC12,CANOGA PARK,,,
466,Four Star Liquor & Market,,"Beer, Wine & Spirits",4,1,,34.23488189,-118.4364013,uFxi_zefUh-Nz4FXuxYTPA,FOUR STAR LIQOUR & MARKET,13922 NORDHOFF ST,ARLETA,,,
467,Big Sugar Bakeshop,,"Bakeries, Cupcakes, Desserts",143,4,$,34.04919131,-118.2575763,5O9BdlN4wbECvSzaGkCi0Q,BIG SUGAR BAKE SHOP,612 S FLOWER ST,LOS ANGELES,,,
468,El Super Burrito Jr,,Mexican,127,3.5,$,34.09182,-118.04313,KLMpT9v7Vtr6UMiLkHBmQA,EL SUPER BURRITO JR,10241 LOWER AZUSA RD,TEMPLE CITY,,,
469,Island Reggae Kitchen,,Caribbean,33,3.5,$$,33.900135,-118.326103,tL-0iDVdeO0cGjMCB1S2xw,ISLAND REGGAE KITCHEN,14426 S CRENSHAW BLVD STE D,GARDENA,,,
470,Chema's Tacos,,Tacos,337,4.5,$,33.9835534,-118.0543876,x0ENUAI-QU1yFuPA43celw,CHEMA'S TACOS,11527 E WHITTIER BLVD,WHITTIER,,,
471,,,,,,,,,,JACOB’S MARKET,306 N LA BREA AVE,LOS ANGELES,,,
472,Suzy's Chocolate,,Chocolatiers & Shops,4,4.5,$,34.0912111,-118.2953055,8iIwAFn9qfpV-x-ikSZU3A,SUZY'S CHOCOLATE INC,4855 SANTA MONICA BLVD STE 104,LOS ANGELES,,,
473,The Flame Broiler,,Fast Food,204,3,$,34.1609659,-118.4483027,z0XNmr5b4eCbzc1FKAJNtA,THE FLAME BROILER RESTAURANT,4954 VAN NUYS BLVD # 103,SHERMAN OAKS,,,
474,Food 4 Less,,Grocery,22,2,$$,33.97402191,-118.0739136,Ct2T4k0WPGlwTlDsaWnsFQ,FOOD 4 LESS #383 - DELI DEPT,7810 S NORWALK BLVD,WHITTIER,,,
475,,,,,,,,,,BBQ GARDEN,1707 PICO BLVD,SANTA MONICA,,,
476,Lupita's Market,,Grocery,4,4,$,34.02531,-118.32383,RXnxtJE6-bqOPnwSR2SZtA,LUPITA'S MARKET,2600 W JEFFERSON BLVD,LOS ANGELES,,,
477,Jamba Juice,,Juice Bars & Smoothies,152,3.5,$,34.1870767,-118.5976749,jLPQqA3wqe8mt6v3Jo2QGQ,JAMBA JUICE,6441 CANOGA AVE,WOODLAND HILLS,,,
478,Artisan House,,"American (New), Bars, Delis",902,3.5,$$,34.04477369,-118.2498919,i8gale7JUI8IrGKWTrfBzw,ARTISAN HOUSE-RESTAURANT,600 S MAIN ST,LOS ANGELES,,,
479,The Hummus Factory,,Mediterranean,147,3.5,$$,33.97845,-118.3926,Mwczwk6AmkGzSHcyg4303g,THE HUMMUS FACTORY,6081 CENTER DR STE #218,LOS ANGELES,,,
480,Chili's,,"American (Traditional), Tex-Mex, Bars",548,2.5,$$,33.8423,-118.26212,lbl05ymCHdbf0QtoXLp3lw,CHILI'S BAR & GRILL,20760 S AVALON BLVD,CARSON,,,
481,Mi Casita Mariscos,,Mexican,2,4,$,33.93866304,-118.3527742,989wkrHJsLULoZdA8mJHTg,MI CASITA,10623 HAWTHORNE BLVD,LENNOX,,,
482,Canyon Market,,Grocery,3,3.5,$,34.4165916,-118.4516316,9VrUhwgiNejcukzZjvYkFw,CANYON MARKET,18257 SOLEDAD CANYON RD,CANYON COUNTRY,,,
483,Wahoo's Fish Tacos,,"Seafood, Mexican",126,4,$,34.18370566,-118.3119043,nIT627d8UNtRECwxSuunuQ,WAHOO'S FISH TACO,201 E MAGNOLIA BLVD STE 381,BURBANK,,,
484,Cabine De Cafe,,American (Traditional),16,4.5,$,33.9329224,-118.1450185,0_wupFDdut8UQpMcGidnPg,CABINE DE CAFE RESTAURANT,12012 PARAMOUNT BLVD,DOWNEY,,,
485,Tom N Toms,,"Coffee & Tea, Pretzels",106,3,$,34.06189468,-118.308329,QCkLeuz_2KKiLHfIPBU5NQ,TOM N TOMS COFFEE,3785 WILSHIRE BLVD STE 26,LOS ANGELES,,,
486,Pizzasaurus Rex,,Pizza,337,4.5,$,34.250235,-118.519513,3cTvwMI1Fobr6KJ80GXMNA,PIZZASAURUS REX,17646 LASSEN ST STE 4,NORTHRIDGE,,,
487,Tortas Y Antojitos Mexicanos,,Mexican,51,4,$$,34.01812522,-118.1053441,juF0sK18OXAXNDSQcjKCBA,TORTAS Y ANTOJITOS MEXICANOS,512 N MONTEBELLO BLVD,MONTEBELLO,,,
488,Pizza Hut,,"Pizza, Italian, Chicken Wings",106,2.5,$,33.91909474,-118.0107473,0TTrR_q-E7jzQzz165P1Cg,PIZZA HUT #29990,12218 LA MIRADA BLVD,LA MIRADA,,,
489,Superior Grocers,,"Grocery, Bakeries, Meat Shops",14,2.5,$,33.97331,-118.24699,KhUjyKau5Y2e_-hywXx3PA,SUPERIOR TORTILLERTA,7316 S COMPTON AVE,LOS ANGELES,,,
490,Little Caesars Pizza,,Pizza,27,2.5,$,34.1511114,-118.0084767,VARVu12yW9XRGVRjvjYs-A,LITTLE CAESARS,418 W FOOTHILL BLVD,MONROVIA,,,
491,Hollywood Banquet Hall,,Venues & Event Spaces,38,4,,34.0976715,-118.303978,ufC_iuZE2BPtlaR-nYXMvA,HOLLYWOOD BANQUET HALL,5214 W SUNSET BLVD,LOS ANGELES,,,
492,Fosters Freeze,,"Ice Cream & Frozen Yogurt, Burgers, American (Traditional)",74,4,$,34.11112213,-118.2501373,jQRuQA8nPXjOM1bKo4isXQ,FOSTERS FREEZE #107,2760 FLETCHER DR,LOS ANGELES,,,
493,Mendocino Farms,,"Sandwiches, Salad",799,4.5,$$,34.048872,-118.261132,cEGNvEu0QtRLs7uVqY0dag,MENDOCINO FARMS - SCULLERY,735 S FIGUEROA ST #130,LOS ANGELES,,,
494,Vons,,Grocery,13,2.5,$,34.10774231,-117.8565521,aDDxbwmwfEgTDA0BNHtFLQ,VONS MEAT #2007,431 E ARROW HWY,GLENDORA,,,
495,Subway,,Sandwiches,17,2,$,34.0431662,-118.2618678,6A4BF9fnJvDeS_Kx_MY3Yg,SUBWAY,1000 S HOPE ST #C,LOS ANGELES,,,
496,Carl's Jr,,"Fast Food, Burgers",79,1.5,$,34.02039389,-117.9575156,8KVzaGx12iY0OotUcgT13A,CARLS JR #7377,210 S HACIENDA BLVD,HACIENDA HEIGHTS,,,
497,Sophia's California Bistro,,"Steakhouses, Breakfast & Brunch, Burgers",13,3,$$,33.974764,-118.036915,m_plgAOS9d8cuO85Dqq1rQ,SOPHIA'S,7320 S GREENLEAF AVE,WHITTIER,,,
498,Mama Petrillo's,,"Pizza, Italian",81,3.5,$$,34.1130411,-117.7635824,0nKzA4e-AKdzjLOAPuVALA,MAMA PETRILLOS,2123 FOOTHILL BLVD,LA VERNE,,,
499,,,,,,,,,,BONJOUR BAGEL CAFE,15010 S LA MIRADA BLVD,LA MIRADA,,,
500,Maya's Restaurant,,"Mexican, American (Traditional)",137,4,$,34.072072,-118.221006,vWymgpPqolcx9Sg9Fh63Tw,MAYA RESTAURANT,200 S AVENUE 19 ST,LOS ANGELES,,,
501,Burger King,,"Burgers, Fast Food",42,2,$,33.91680517,-118.3673203,Afms69P2VPyWAsCh2TWhlw,BURGER KING #12201,5107 W EL SEGUNDO BLVD,HAWTHORNE,,,
502,Residence Inn by Marriott Los Angeles Torrance/Redondo Beach,,Hotels,152,3,$$,33.83814007,-118.3517769,oV9vIm7Q45gBrEz7UfaaIg,MARRIOTT RESIDENCE INN,3701 TORRANCE BLVD,TORRANCE,,,
503,Hanjip,,"Korean, Barbeque",632,3,$$,34.0246876,-118.394681,WhKmAVnS9lpI_xcyclMAdw,HANJIP,3829 MAIN ST,CULVER CITY,,,
504,Costco Wholesale,,"Wholesale Stores, Tires",266,3.5,$$,34.15251,-118.79709,hxBeaSCr_NOVzWPpc1MzPQ,COSTCO WHOLESALE #117 DELI,5700 LINDERO CANYON RD,WESTLAKE VILLAGE,,,
505,Samba Brazilian Steakhouse,,"Brazilian, Steakhouses",1350,3,$$$,34.13660623,-118.351514,vaQduLQ19_8ldWPp5VN8Fg,SAMBA BRASILIAN STEAK HOUSE,1000 UNIVERSAL STUDIO BLVD STE H101,UNIVERSAL CITY,,,
506,Magee's House of Nuts,,Farmers Market,14,4.5,$$,34.07139146,-118.3609719,3Q0yDndPkoOyMyW_3VmR6Q,MAGEE'S HOUSE OF NUTS,6333 W 3RD ST # #218,LOS ANGELES,,,
507,Hacienda Del Rey,,Mexican,346,3.5,$$,33.96148,-118.42109,AVppV_P8HSE6kquiWI_hbw,HACIENDA DEL REY,8347 LINCOLN BLVD,LOS ANGELES,,,
508,Nike Store Loge Left,,"Shoe Stores, Men's Clothing",1,4,,34.072324,-118.247936,1EGTL6WUzZa0Vvm0wbNMPA,#C43 LOGE LEVEL VENDING,1000 VIN SCULLY AVE,LOS ANGELES,,,
509,Smile Thai,,Thai,218,4,$$,33.789466,-118.304416,LmR5IsmS8zELb3WRTL2zXQ,SMILE THAI,1605 W PACIFIC COAST HWY #106,HARBOR CITY,,,
510,Subway,,Sandwiches,23,2.5,$,34.03555538,-118.3782535,hvIDf5fpHdf4GASTeuQPVQ,SUBWAY SANDWICH,8511 VENICE BLVD,LOS ANGELES,,,
511,Winchell's Donuts,,"Donuts, Coffee & Tea, Sandwiches",17,2.5,$,33.9603628,-118.2784149,tV9a68hT79ZVR47VhCgQbw,WINCHELL'S DONUT HOUSE #9887,8567 S BROADWAY # #2,LOS ANGELES,,,
512,Pazzo Pizzeria Torrance,,"Pizza, Desserts, Salad",103,3.5,$,33.81979194,-118.3521858,PjTdVx9ZNyrHNtO14mwFCw,PAZZO PIZZERIA PRIMA,22825 HAWTHORNE BLVD,TORRANCE,,,
513,Taco Bell,,"Mexican, Fast Food",23,2.5,$,34.660481,-118.179558,PSqAzbKJTKZqqMw8_EAUAg,TACO BELL #22814,2729 W AVENUE L,LANCASTER,,,
514,,,,,,,,,,STAND B LACC,1201 S FIGUEROA ST,LOS ANGELES,,,
515,99 Cents Only Store,,Convenience Stores,31,4,$,34.03160782,-118.1221077,i1KMUEtqp7ul0VRjwAX6rQ,99CENTS ONLY STORES #126,2441 VIA CAMPO,MONTEBELLO,,,
516,Ameci Pizza & Pasta - Newhall,,"Pizza, Italian, Chicken Wings",95,3.5,$,34.37779333,-118.5593724,TES3EePMSTgdDlgM2RRLug,AMECI PIZZA & PASTA,24268 LYONS AVE,NEWHALL,,,
517,Sultan Chicken,,"Middle Eastern, Chicken Shop, Mexican",350,4,$,34.047011,-118.252336,vywBUQsQ6r3x8U8FkrPJAA,SULTAN RESTAURANT,311 W 6TH ST,LOS ANGELES,,,
518,Satdha Plant Based Thai Kitchen,,"Thai, Vegan, Vegetarian",800,4.5,$$,34.009819,-118.480177,n4j6uwS4g_8b8qaXP4qiEA,SATDHA,2218 LINCOLN BLVD,SANTA MONICA,,,
519,Palermo No 2 Italian Restaurant,,"Italian, Pizza, Sandwiches",115,4,$$,34.07787,-117.88809,bhFwOEYZNckOCyvZaxljPQ,PALERMO'S ITALIAN PIZZORIA,646 SHOPPERS LN,COVINA,,,
520,Cake Sensations,,"Bakeries, Desserts",303,4,$$,34.1163218,-118.1504749,ucZAgs5wxBCo-0PT8URSyA,CAKE SENSATIONS,811 FAIR OAKS AVE,SOUTH PASADENA,,,
521,Apey Kade,,Sri Lankan,228,4.5,$$,34.17256519,-118.5620805,knDLA6hUv3pry49Ss91Mwg,APEY KADE,19662 VENTURA BLVD,TARZANA,,,
522,Jollibee,,"Fast Food, Filipino, Chicken Shop",441,3,$,34.07655737,-118.29296,WkFeLCcxiGw_zyQrks5qMw,JOLLIBEE BEVERLY BLVD,3831 BEVERLY BLVD,LOS ANGELES,,,
523,Little Caesars Pizza,,"Pizza, Fast Food",30,2.5,$,34.01374464,-118.1261425,Xk0RDJRKWM3ou_95oJX_Aw,LITTLE CAESARS #5801,2349 W WHITTIER BLVD,MONTEBELLO,,,
524,Asha Indian Restaurant,,Indian,453,4.5,$$,34.1697262,-118.5390564,ODE-4AM7PXPOKqfK84-0PQ,ASHA INDIAN RESTAURANT,18608 1/2 VENTURA BLVD,TARZANA,,,
525,,,,,,,,,,OLIVIA  RESTAURANT & DELUXE,237 E OLIVE AVE,BURBANK,,,
526,,,,,,,,,,BAKERY,9136 SEPULVEDA BLVD,NORTH HILLS,,,
527,Cafe Buna,,"Coffee & Tea, Breakfast & Brunch, Juice Bars & Smoothies",1019,4,$$,33.98316567,-118.4596348,Y9wMzacINQ1Rm44vKpC-4Q,CAFE BUNA,3105 WASHINGTON BLVD,MARINA DEL REY,,,
528,Taco Bell,,"Fast Food, Mexican",33,2,$,33.79089857,-118.2637024,pHBKg0Yn7ZY8cx9t5ZwwdQ,TACO BELL #3140,100 W PACIFIC COAST HWY,WILMINGTON,,,
529,Thai Table,,Thai,611,4,$$,33.94052,-117.99364,DBIcJEUQMzhuK8CC3CM5Mg,THAI TABLE TREE RESTAURANT,10509 SANTA GERTRUDES AVE,WHITTIER,,,
530,Subway,,Sandwiches,42,2.5,$,34.04679,-118.4480684,eRf9rS8Uoi4hPyN5-DbFuw,SUBWAY #13163,11275 SANTA MONICA BLVD,LOS ANGELES,,,
531,Target,,"Department Stores, Electronics, Furniture Stores",340,2.5,$$,33.999135,-118.394038,C2nqiyXIrTMZ3GN6BTU7jg,TARGET STORES #198,10820 JEFFERSON BLVD,CULVER CITY,,,
532,Denny's,,"Diners, Breakfast & Brunch, American (Traditional)",273,2.5,$$,34.0602266,-118.4430663,FO2c7nLMs4xvgNUvq81Ljg,DENNY'S,1060 TIVERTON AVE,LOS ANGELES,,,
533,The Spot Teriyaki,,"Japanese, Fast Food, Burgers",231,4.5,$,34.0887667,-117.9075851,FAEBAn_QRCPHxFeOYaNtMA,THE SPOT TERIYAKI & BURGERS,422 N AZUSA AVE,COVINA,,,
534,,,,,,,,,,STAND 115,1111 S FIGUEROA ST,LOS ANGELES,,,
535,Eli's Mobil,,"Gas Stations, Convenience Stores",19,4,,34.25062,-118.502815,eYaZmjEfBwtcp2rfe2wrtg,ELI'S MOBIL,17011 LASSEN ST,NORTHRIDGE,,,
536,,,,,,,,,,SPRING TIME IN NEW YORK,557 S SPRING ST,LOS ANGELES,,,
537,Casa Adelita,,Mexican,138,3.5,$$,33.902141,-118.058397,lfmTjmfByQPNAoaEy0cX7w,CASA ADELITA #2,12842 E ROSECRANS AVE,NORWALK,,,
538,Main Event-La Coliseum,,Sporting Goods,2,3,$$$,34.01367,-118.28649,CnNEDnnSbSJ3XCk_JgmCjg,LA COLISEUM UC13,3911 S FIGUEROA ST,LOS ANGELES,,,
539,Gelson's,,"Grocery, Delis, Beer, Wine & Spirits",189,3.5,$$$,34.090554,-118.371309,0Uy_rXs72kSgnS_W3JNMDw,GELSON'S DELI #108,8330 SANTA MONICA BLVD,WEST HOLLYWOOD,,,
540,Panda Express,,"Chinese, Fast Food",26,2.5,$,33.9971649,-118.3939003,ImNFNRN-k85PdvBN8xuMEQ,PANDA EXPRESS #129,11030 JEFFERSON BLVD,CULVER CITY,,,
541,Superior Grocers,,"Grocery, Bakeries, Meat Shops",44,3,$,34.0432838,-118.0305271,4x7lF_K7y4fgn-jXMe40GA,SUPERIOR GROCERS-MAIN MARKET,1858 DURFEE AVE,SOUTH EL MONTE,,,
542,Block Party,,"Cocktail Bars, Beer Gardens, Venues & Event Spaces",393,4.5,$$,34.1209778,-118.2050328,aXEU3rIz_hwCS6tfqIXRcw,BLOCK PARTY,5052 YORK BLVD,LOS ANGELES,,,
543,Dollar Max,,Department Stores,4,4.5,$,34.0471999,-118.2239,ZE-3YyR5G1_JNXgBDV9C_g,DOLLAR MAX #7,1500 E 1ST ST,LOS ANGELES,,,
544,Da Bok Tofu,,"Korean, Soup",130,4,$$,33.99636519,-117.9637589,BfXo0JYP3W_Gstmksporaw,DA BOK TOFU,15944 HALLIBURTON RD,HACIENDA HEIGHTS,,,
545,Soda Pop's,,"Delis, Sandwiches, Burgers",475,4.5,$$,34.07755,-118.37695,fKQ8ITdNbkfNAioyRMlGHw,SODA POPS,349 N LA CIENEGA BLVD,LOS ANGELES,,,
546,Sushi 21,,"Sushi Bars, Japanese",324,3,$$,33.7417523,-118.2924649,NwcQ3duGT2HwYcDgPXBIUQ,SUSHI 21,235 S GAFFEY ST,SAN PEDRO,,,
547,El Tio Tacos Y Marisco,,Mexican,154,3,$,33.9018951,-118.1144279,nApBbVPgR92KH3N5LduNSw,TACOS Y MARISCOS EL TIO,10250 E ROSECRANS AVE,BELLFLOWER,,,
548,Golden Express & Donuts,,"Chinese, Donuts, Fast Food",30,4,$,33.83199,-118.21735,8njse3jptp9ro9NC7l7_WQ,GOLDEN EXPRESS,2717 E CARSON ST,CARSON,,,
549,Food 4 Less,,Grocery,50,3.5,$,34.0415781,-118.205309,vvd54k2bq34GiRJ10AKZUw,FOOD 4 LESS #363 - MEAT DEPT.,2750 E 1ST ST,LOS ANGELES,,,
550,Wingstop,,Chicken Wings,119,1.5,$$,33.96275,-118.29107,sl_wdsbfEckbQ6aKl0JuRw,WINGSTOP,8330 S VERMONT AVE,LOS ANGELES,,,
551,,,,,,,,,,THE MART,735 S FIGUEROA ST STE #116,LOS ANGELES,,,
552,Jack in the Box,,"Fast Food, Burgers, Tacos",23,2,$,33.896444,-118.2523205,5CKwlUmFailFbKeTwrHV7g,JACK IN THE BOX #253,115 N CENTRAL AVE,COMPTON,,,
553,Blvd Café,,Mexican,75,4.5,$,34.023138,-118.169219,Zqp4_CjfBacsAO_1v3_ilg,BLVD. CAFE,4555 E WHITTIER BLVD,LOS ANGELES,,,
554,Cinemark Playa Vista and XD,,"Cinema, Venues & Event Spaces",369,3.5,,33.97696192,-118.4167179,Q4SoTR9GkA9uKPQt_F7iRg,CINEMARK PLAYA VISTA AND XD BAR AND LOUNGE,12746 W JEFFERSON BLVD STE 3190,PLAYA VISTA,,,
555,,,,,,,,,,MC DONALD'S #7621,1815 HAWTHORNE BLVD STE 318,REDONDO BEACH,,,
556,Robata Bar,,"Japanese, Seafood",247,4,$$$,34.01411,-118.49746,7novzPk6_fO26cFt7XALow,ROBATA BAR,1401 OCEAN AVE,SANTA MONICA,,,
557,Beverliz Cafe,,"American (Traditional), Mediterranean",177,4,$$,34.06156012,-118.3990621,VSkrxWVZPhMM1Q-ElTqnig,BEVERLIZ CAFE,308 S BEVERLY DR,BEVERLY HILLS,,,
558,Industry Shell,,Gas Stations,13,3,,33.99317357,-117.9051912,tB-jssd_LZjKJF9nH_RTjg,INDUSTRY SHELL,1325 S FULLERTON RD,ROWLAND HEIGHTS,,,
559,Asakuma Sushi & Poke,,"Sushi Bars, Japanese, Poke",174,4,$$,34.043296,-118.457954,c0dfJ98u54abGtTaixVhlw,ASAKUMA SUSHI DELIVERY,11769 SANTA MONICA BLVD,LOS ANGELES,,,
560,L A Chinese Express,,Chinese,39,3,$,34.5795426,-118.0947254,02c6b5e3q1JaHh1r0cf4lw,LA CHINESE EXPRESS,1852 E PALMDALE BLVD,PALMDALE,,,
561,Eva's Cookery,,"American (New), Mexican, Seafood",62,4,$,33.9663405,-118.1513139,BROlsHnGp9mxNbWhc5_CQw,EVA'S RESTAURANT,7211 GARFIELD AVE,BELL GARDENS,,,
562,Mixabowl,,"Korean, Salad, Barbeque",614,4,$,34.13538742,-118.0524216,rfZGs6Q76T0eeLPlgPsRmg,MIXABOWL,400 S BALDWIN AVE STE 2335,ARCADIA,,,
563,Pan-Pacific Restaurant,,Seafood,153,3.5,$$,33.732792,-118.2769576,gpjd3yf9iVh9DqmYlcNy_g,PAN PACIFIC RESTAURANT,1136 NAGOYA WAY,SAN PEDRO,,,
564,Subway,,Sandwiches,8,3,$,33.79077453,-118.2971344,utyJ-4PxK8K0_HjEOOowoA,SUBWAY #47844,1111 PACIFIC COAST HWY STE 4,HARBOR CITY,,,
565,,,,,,,,,,MOM'S BARBEQUE,14062 VANOWEN ST,VAN NUYS,,,
566,Tacos Ensenada,,Mexican,255,4,$,34.0339128,-118.1534802,8AJoLhwMW7t_6CcC8XeMWQ,TACOS ENSENADA #2,5161 POMONA BLVD # 101,LOS ANGELES,,,
567,Daisy's Bakery,,Bakeries,16,3,$,34.041305,-118.036285,H9agn3n5daWNea4HJmGFiw,DAISY'S BAKERY,1611 N DURFEE AVE STE 9,SOUTH EL MONTE,,,
568,Dona Ana's Kitchen,,"Southern, Mexican, Salvadoran",11,4,$,33.9317229,-118.2653249,Q6OwWBJn2nlORlTEK2Jhsg,DONA ANA'S COSINA,11313 S AVALON BLVD,LOS ANGELES,,,
569,Meizhou Dongpo Restaurant,,"Szechuan, Seafood, Asian Fusion",791,3,$$$,34.058603,-118.419048,H7RQV-RrE58g9RlKwotjgg,MEIZHOU DONGPO,10250 SANTA MONICA BLVD #200A,LOS ANGELES,,,
570,Georgetown Cupcake,,"Caterers, Cupcakes",632,4,$$,34.07408383,-118.3838582,1ztsJ9C-7M4cRPznuJtC5A,GEORGE TOWN CUPCAKE,143 S ROBERTSON BLVD,LOS ANGELES,,,
571,The Grand Star Jazzclub,,"Venues & Event Spaces, Dance Clubs, Jazz & Blues",2,5,,34.06504,-118.23756,Vg4GGG2m47Nqj_pgQ6i76g,GRAND STAR,943 SUN MUN WAY,LOS ANGELES,,,
572,Del Taco,,Mexican,59,2.5,$,33.8872757,-118.1061935,59TtRr-gg9bP1qr2o6wS3g,DEL TACO #753,10644 ALONDRA BLVD,NORWALK,,,
573,Blu Jam Café,,"American (New), Breakfast & Brunch, Cafes",5365,4,$$,34.08371444,-118.3505714,ki5SNb4Lli6uOklz6BXXGw,BLU JAM CAFE,7371 MELROSE AVE,LOS ANGELES,,,
574,Starbucks,,Coffee & Tea,169,3.5,$$,34.0595525,-118.389631,jA1vkJIAl-YBcviz-hFjzg,STARBUCKS COFFEE CO.,9049 W OLYMPIC BLVD,BEVERLY HILLS,,,
575,Carmen's Bionicos,,"Salad, Sandwiches",48,4.5,$,33.94166051,-118.1318363,6upGMAEKgXORUksEAPNkbw,CARMES BIONICOS,11006 DOWNEY AVE,DOWNEY,,,
576,USA Donuts & Crossaints,,"Donuts, Coffee & Tea, Sandwiches",106,4,$,34.171741,-118.457745,SvWwgj2VP4WdusU1nERrgg,USA DONUT,14900 BURBANK BLVD,VAN NUYS,,,
577,Cafe Bonaparte,,"French, Coffee & Tea, Breakfast & Brunch",240,3.5,$$,33.862345,-118.400774,RD3xuEUssCnr4GOTKxxt3Q,CAFE BONAPARTE,37 PIER AVE,HERMOSA BEACH,,,
578,,,,,,,,,,RAY'S,5905 WILSHIRE BLVD,LOS ANGELES,,,
579,Panda Express,,"Chinese, Fast Food",74,2.5,$,34.002587,-118.087493,Ww8l7g1Wp91j-rRtio6H7g,PANDA EXPRESS #1224,8640 E WHITTIER BLVD,PICO RIVERA,,,
580,Lomeli's Italian Restaurant,,"Italian, Pizza",1105,4,$$,33.88572642,-118.3187007,oyfhwhMzkLXZ_sfEJCInnA,LOMELI'S ITALIAN RESTAURANT,2223 W REDONDO BEACH BLVD,GARDENA,,,
581,Little Belize Restaurant,,Caribbean,171,4,$$,33.9606049,-118.3530446,eY4AevP-0Am5nS_VVkbHsA,LITTLE BELIZE RESTAURANT,217 E NUTWOOD ST,INGLEWOOD,,,
582,,,,,,,,,,CHEVRON HASSAN 30,4910 N LAKEWOOD BLVD,LAKEWOOD,,,
583,El Novillo Market,,"Grocery, Fruits & Veggies, Meat Shops",6,5,,34.542186,-117.974055,kYsxWjS_H8f-7S7H413Kyg,EL NOVILLO MARKET,8714 E AVENUE T QRS,LITTLEROCK,,,
584,Winchell's Donuts,,"Donuts, Sandwiches, Coffee & Tea",6,2,,33.97507,-118.24816,QclhsmaioCD_w7-BlWOsow,WINCHELL'S DONUTS #9888,1457 E FLORENCE AVE STE #107,LOS ANGELES,,,
585,Zermenos Restaurant,,"Mexican, Breakfast & Brunch, Seafood",251,4,$,34.091152,-118.3225606,eb76buRAUSnRuoqVEf2dBA,ZERMENOS RESTAURANT INC,6115 SANTA MONICA BLVD UNIT UNIT,LOS ANGELES,,,
586,Sweet Factory,,Candy Stores,7,3.5,$$,34.237933,-118.556623,uZX4-GNdnZtor-WHm_C0rg,SWEET FACTORY,9301 TAMPA AVE #70,NORTHRIDGE,,,
587,7-Eleven,,"Convenience Stores, Coffee & Tea",29,1.5,$,33.7891475,-118.311921,EZwp8QgOHC0fn7JATHP-aQ,7-ELEVEN #20313E,1878 PACIFIC COAST HWY,LOMITA,,,
588,Los Compadres Bakery,,Bakeries,80,4,$,33.9602235,-118.0298088,SAYKSrhTL3BN8nJ_tsfvVQ,LOS COMPADRES,8432 S LAUREL AVE STE D,WHITTIER,,,
589,Chowking,,"Filipino, Fast Food, Dim Sum",95,2.5,$,34.220798,-118.433093,prP0e01qdNYYo9Am7c49CA,CHOWKING,8231 WOODMAN AVE,PANORAMA CITY,,,
590,Pepe's Tacos,,Mexican,158,4,$,34.14632132,-117.9085953,N0pBdJZ3wkSIVXIcphdosg,PEPE'S TACOS,190 W SIERRA MADRE AVE,AZUSA,,,
591,C & K Importing,,"Delis, Imported Food, Greek",7,4.5,$$,34.0473747,-118.2997818,_LBNMFCBqCJTFYuWSy7-nw,C AND K IMPORTING CO,2771 W PICO BLVD,LOS ANGELES,,,
592,Subway,,Sandwiches,28,2,$,33.80759914,-118.2732687,kUil47GknlRhxGaEQozu7A,SUBWAY #20670,156 E SEPULVEDA BLVD,CARSON,,,
593,,,,,,,,,,QUICK SERVE DAIRY,1159 E AVENUE I,LANCASTER,,,
594,,,,,,,,,,SHACK @ HILLEL,574 HILGARD AVE 2FL,LOS ANGELES,,,
595,Super Donut House,,"Donuts, Sandwiches, Coffee & Tea",66,4.5,$,34.09835,-118.34915,y5DwPsr57sljE5gIostdQQ,SUPER DONUT HOUSE,7307 W SUNSET BLVD,LOS ANGELES,,,
596,Think Prime,,"Steakhouses, Seafood",377,3.5,$$$,33.74838,-118.30986,Li9hcgJtz3A7gfqihqo3yA,THINK PRIME STEAKHOUSE,29601 S WESTERN AVE,RANCHO PALOS VERDES,,,
597,Ernie's Mexican Restaurant,,Mexican,612,3.5,$$,34.15078,-118.3657,YM2xrNOEmMxOtko-WPAV1Q,ERNIE'S TACO HOUSE,4410 LANKERSHIM BLVD,NORTH HOLLYWOOD,,,
598,Lincoln Fine Wines,,"Beer, Wine & Spirits",96,4.5,$$,33.999263,-118.463932,tqyduwv7-N5bg-HMJQvZlQ,LINCOLN BEVERAGE & FINE WINE,727 LINCOLN BLVD,VENICE,,,
599,Stone Oven,,"Sandwiches, Salad",120,3.5,$,34.14480816,-118.2590225,sVw7ZQEr0Ea8j8a8uvly3Q,STONE OVEN,1136 GLENDALE GALLERIA,GLENDALE,,,
600,Sabores De Oaxaca,,Mexican,61,3.5,$,34.03516,-118.37732,eFBcReqfnKevi8v20EP5SQ,SABORES DE OAXACA,6136 W VENICE BLVD # #104,LOS ANGELES,,,
601,Island Pacific Supermarket,,"Grocery, Filipino, Seafood Markets",56,2.5,$,34.02961349,-117.9145783,5gMfwv-KNwNtA6_-mOQ7rg,ISLAND PACIFIC RESTAURANT,1512 E AMAR RD,WEST COVINA,,,
602,Bionicos Jugos Zapopan,,"Juice Bars & Smoothies, Vegan, Mexican",85,4.5,$,33.96710336,-118.1584948,L1JIPUVxd7q09AZTbeAsZw,BIONICOS JUGOS ZAPOPAN,5960 FLORENCE AVE STE C,BELL GARDENS,,,
603,,,,,,,,,,WAL-MART,8333 VAN NUYS BLVD,PANORAMA CITY,,,
604,McDonald's,,"Burgers, Fast Food, Coffee & Tea",99,2,$,33.87256239,-118.298553,DMkPBQ6g0URQJAecfDx3ag,MCDONALD'S,1398 W ARTESIA BLVD,GARDENA,,,
605,Papa John's Pizza,,Pizza,105,2,$,34.124529,-118.054763,VvgMiddLzjboianGTOrCJA,PAPA JOHN'S PIZZA,1312 S BALDWIN AVE,ARCADIA,,,
606,Whiskey Well,,"Beer, Wine & Spirits",17,5,$,33.98043,-117.97569,QaS0xy35C8NiqQ5CzCrBqA,WHISKEY WELL & PANTRY,3180 E COLIMA RD,HACIENDA HEIGHTS,,,
607,,,,,,,,,,BANQUET KITCHEN,6101 W CENTURY BLVD,LOS ANGELES,,,
608,Veggie Grill,,"American (New), Vegan",613,4,$$,34.15740208,-118.4939649,zJEZthLP01WnrwqUECpnIg,VEGGIE GRILL,16542 VENTURA BLVD #110,ENCINO,,,
609,The Tasting Kitchen,,"Bars, Italian",1569,3.5,$$$,33.98975,-118.46306,CVsVE75e3iID4GuEMg5iBQ,THE TASTING KITCHEN,1633 ABBOT KINNEY BLVD,VENICE,,,
610,Boston Market,,"American (Traditional), Comfort Food, Sandwiches",148,3,$,34.151933,-118.34733,RONSIW2xsn4PYbzhXZTV9g,BOSTON MARKET #1890,4320 W RIVERSIDE DR,BURBANK,,,
611,Andiamo,,Italian,21,3,$$$,33.9462,-118.38159,KBk65dxk7KMm11PMgDYOnA,ANDIAMO/HILTON HOTEL,5711 W CENTURY BLVD,LOS ANGELES,,,
612,John O'Groats,,"Sandwiches, Breakfast & Brunch, Burgers",650,3.5,$$,34.0446396,-118.4193268,VjKt68VqmFpH3cX7vF8R9Q,JOHN'O GROATS,10516 W PICO BLVD,LOS ANGELES,,,
613,HomeTown Buffet,,"Buffets, American (New), Breakfast & Brunch",308,2.5,$$,34.1909519,-118.3305063,lgl8_S4HNf2b_W2c8HYdwA,HOMETOWN BUFFET # 256,1850 W EMPIRE AVE,BURBANK,,,
614,Ralphs,,Grocery,104,2.5,$$,34.201915,-118.613708,pWgLXgyZCzFrXvDEFzHoWQ,RALPHS-MEAT DEPART# 721,22333 SHERMAN WAY,CANOGA PARK,,,
615,Circle K,,Convenience Stores,6,3,$$,34.0287999,-117.81007,btl_rraYdZzmutBzTaqPnA,CIRCLE K #2709451,504 N DIAMOND BAR BLVD,DIAMOND BAR,,,
616,Flame Broiler,,"Asian Fusion, Fast Food",103,2.5,$,33.9579588,-118.3958601,EuomMTn9WDuRVkNhMCnQpg,THE FLAME BROILER TRBK #80,8730 1/4 S SEPULVEDA BLVD,LOS ANGELES,,,
617,Tatsu Ramen,,Ramen,3311,4,$$,34.038943,-118.442405,udINVeecZdXtmCgbBIZi7A,TATSU RAMEN,2123 SAWTELLE BLVD,LOS ANGELES,,,
618,Station Food Market & Check Cashing,,Grocery,3,2.5,$$,34.10187,-118.33358,yZdRoGLXQBCowi5Rdc_aFQ,STATION FOOD MARKET,6601 HOLLYWOOD BLVD,LOS ANGELES,,,
619,Cafe Sicily,,"Italian, Coffee & Tea",34,4,$,34.0622348,-118.3386354,K8ST7pdnawebbJkTkL_JMw,CAFE SICILY,5001 WILSHIRE BLVD STE #105,LOS ANGELES,,,
620,,,,,,,,,,KOREAN GINSENG & VITAMINS,500 S LOS ANGELES ST STE 39,LOS ANGELES,,,
621,Carrillo's Tortilleria,,Mexican,354,3.5,$$,34.28409576,-118.4455795,hi5Ww2z6nROrZn8qr2Lt6Q,CARRILLO TORTILLERIA & DELI,1242 PICO ST,SAN FERNANDO,,,
622,Martabak Cafe,,"Desserts, Indonesian",193,4.5,$$,34.01029051,-117.8855493,r9p3UPqA2vhly9n0zBsAdA,MARTABAK CAFE,3666 S NOGALES ST,WEST COVINA,,,
623,Rocio's Mexican Kitchen,,"Mexican, Salad, Steakhouses",434,4.5,$$,33.9601705,-118.1563554,rFUJGsKELozjJO9BBJEjiA,ROCIO'S MEXICAN KITCHEN,7891 GARFIELD AVE,BELL GARDENS,,,
624,The Coffee Bean & Tea Leaf,,Coffee & Tea,123,3.5,$,34.0638,-118.39943,dyislnObJ75EA5ciGsMp0w,THE COFFEE BEAN & TEA LEAF,233 S BEVERLY DR STE B,BEVERLY HILLS,,,
625,Juice Stop,,Juice Bars & Smoothies,90,4,$,33.895544,-118.008081,4Q2V7uyL0rOZEGmKJq6Hyg,JUICE STOP-LA MIRADA,15002 E LA MIRADA BLVD,LA MIRADA,,,
626,,,,,,,,,,UNI-BOIL,18406 COLIMA RD # C,ROWLAND HEIGHTS,,,
627,Panda Express,,"Chinese, Fast Food",40,3,$,34.05165863,-118.2513962,LaZV1qhI4bejzf58-72j8g,PANDA EXPRESS # 248,350 S GRAND AVE # # R1A,LOS ANGELES,,,
628,,,,,,,,,,THE STANDING ROOM,1320 HERMOSA AVE,HERMOSA BEACH,,,
629,,,,,,,,,,224 E - COURT,3900 W MANCHESTER BLVD,INGLEWOOD,,,
630,Office Depot,,"Office Equipment, Computers",78,2.5,$$,34.05558,-118.3963,pavRO5WvQagk_GaNDjtEIA,OFFICE DEPOT #2206,9527 W PICO BLVD,LOS ANGELES,,,
631,Ranch Market,,"Grocery, Specialty Food",26,2.5,$,34.03194,-118.35602,CHWBn5cnB78GlYMHcmv8CA,R-RANCH MARKET #14 MEAT DEPT,5212 W ADAMS BLVD,LOS ANGELES,,,
632,Anamarias Mexican Restaurant,,Mexican,73,4,$,34.29882183,-118.4592152,f1dDKCfAZhWPiNdljLI_DA,ANAMARIA'S MEXICAN RESTAURAN,12641 1/2 SAN FERNANDO RD,SYLMAR,,,
633,WaBa Grill,,"Asian Fusion, Fast Food",81,2.5,$,33.9225082,-118.0982895,kCLtMKoF9b4G1pA9UF-MTA,WABA GRILL,11005 FIRESTONE BLVD,NORWALK,,,
634,Yoshinoya - Walnut,,Japanese,124,2.5,$,34.044687,-117.849073,zlYhep7W93cxQcNkvV_IHg,YOSHINOYA,1269 N GRAND AVE,WALNUT,,,
635,Prime Pizza,,Pizza,446,4,$,34.07967212,-118.3613656,TJ-0_8pHsM5LTMp238Oo-Q,PRIME PIZZA,446 N FAIRFAX AVE,LOS ANGELES,,,
636,La Charrita,,"Mexican, Seafood, Vegan",300,4.5,$$,34.37698972,-118.5272902,hFLhXW5PuO1BBxmJd8USrg,LA CAHRRITA,24225 MAIN ST STE 4,NEWHALL,,,
637,Lindo Oaxaca,,Mexican,73,4.5,$$,34.0296223,-118.2618698,37gMBHZA9OVE_tckoSRC4Q,LINDO OAXACA,322 E WASHINGTON BLVD,LOS ANGELES,,,
638,Why not kabob,,"Middle Eastern, Mediterranean",204,4.5,$,34.1317325,-118.2524327,NdDDw2bz1YytVXzZ2rqEBg,WHY NOT KABOB,1219 S GLENDALE AVE UNIT A,GLENDALE,,,
639,Universal Service Station,,Auto Repair,165,5,,34.19691,-118.32544,wK5bq8VkDIUIMFiUwU4Lfw,A TO Z SERVICE STATION,2005 N GLENOAKS BLVD,BURBANK,,,
640,The Coffee Bean & Tea Leaf,,Coffee & Tea,88,4,$,33.79330978,-118.3317601,LulFtZWoyRh3-kQC8HHKqg,COFFEE BEAN & TEA LEAF,25345 CRENSHAW BLVD STE B,TORRANCE,,,
641,Azusa Donuts,,"Donuts, Coffee & Tea",33,4,$,34.107657,-117.898698,V_GHdiB8a9D9-1pdEs7aTQ,AZUSA DONUTS,621 E ARROW HWY,AZUSA,,,
642,Sam's on Sunset,,"Bagels, Breakfast & Brunch, Sandwiches",331,3.5,$,34.0979151,-118.3608299,QFb7n7gi6u1b8bmHpi0f6w,SAM'S ON SUNSET,7864 W SUNSET BLVD,LOS ANGELES,,,
643,Vitamin World,,Vitamins & Supplements,6,3,,34.60495,-118.152655,gNHLvpyC1CTBrzFd0Jpl2w,VITAMIN WORLD,1233 W RANCHO VISTA BLVD # 897,PALMDALE,,,
644,Cuatro Caminos,,"Mexican, Salvadoran",1,5,,34.05710032,-118.269696,BmgAscjE63_8CvFtt-FZuQ,4 CAMINOS RESTAURANT,1614 1/2 W 6TH ST,LOS ANGELES,,,
645,Good Morning Bakery,,Bakeries,58,4,$,33.98869536,-117.8923554,88aKIiAQ500pEd-4vvKWIw,GOOD MORNING BAKERY,18889 E COLIMA RD STE #A,ROWLAND HEIGHTS,,,
646,Poquito Mas,,Mexican,558,3.5,$,34.04327699,-118.4317108,2ubsbhU4y3KKZ1OuxO4ahQ,POQUITO MAS,2215 WESTWOOD BLVD,LOS ANGELES,,,
647,,,,,,,,,,SWEET KINGDOM CORPORATION,921 S BALDWIN AVE # E,ARCADIA,,,
648,Ruben Tacos,,Mexican,1,1,$,33.929312,-118.215456,WlxLCy8fGa_xUDyHjyn7cQ,RUBEN'S TACOS,3100 IMPERIAL HWY # 06,LYNWOOD,,,
649,,,,,,,,,,PUEBLO LIQUOR,4600 E WHITTIER BLVD,LOS ANGELES,,,
650,Denny's,,"Diners, American (Traditional), Breakfast & Brunch",117,2,$$,34.41493,-118.466,ivHu3TujaFxjD0RaBCwRKw,DENNY'S #7900,18932 SOLEDAD CANYON RD,CANYON COUNTRY,,,
651,Banadir Somali Restaurant,,Somali,247,4.5,$$,33.95293109,-118.3558946,4L6FyuHmnPqLrGgPNelATQ,BANADIR RESTAURANT,137 W ARBOR VITAE ST # C,INGLEWOOD,,,
652,,,,,,,,,,EMPLOYEE CAFETERIA,506 S GRAND AVE,LOS ANGELES,,,
653,,,,,,,,,,LA FORTUNA MEAT MARKET,3200 S CENTRAL AVE,LOS ANGELES,,,
654,Floral Restaurant,,Chinese,3,1,,34.08017,-118.09765,H5CZ6oH9QaCtyUFHbmdcZg,FLORAL RESTAURANT,211 E VALLEY BLVD,SAN GABRIEL,,,
655,,,,,,,,,,HOOPER MARKET,8301 HOOPER AVE,LOS ANGELES,,,
656,Hola Donuts and Water,,Donuts,2,5,,33.975784,-118.247403,KLd7RGRTWGsR5OnkyNeI9A,HOLA DONUTS & WATER,7104 COMPTON AVE,LOS ANGELES,,,
657,,,,,,,,,,TOMMY'S,14601 VICTORY BLVD,VAN NUYS,,,
658,Denny's,,"Diners, Breakfast & Brunch, American (Traditional)",129,3,$,33.87207911,-118.3813093,5_C2eDdczZ7cpvTQA97uBQ,DENNY'S #7595,1760 AVIATION BLVD,REDONDO BEACH,,,
659,Domino's Pizza,,"Pizza, Chicken Wings, Sandwiches",119,2,$,34.2283199,-118.52698,WxXXnF-K0omKg1hHGT87wA,DOMINO'S PIZZA,8662 LINDLEY AVE,NORTHRIDGE,,,
660,Trattoria Amici,,Italian,1357,4,$$,34.14364292,-118.2563828,EYbE21-tQAt84Yfz8CMlBQ,TRATTORIA AMICI,783 AMERICANA WAY,GLENDALE,,,
661,The Farm of Beverly Hills,,American (Traditional),775,3,$$,34.04449779,-118.2647644,1scsheZpqUFhgNjJqTo4Gw,FARM OF BEVERLY HILLS,800 W OLYMPIC BLVD STE A150,LOS ANGELES,,,
662,Dulan's Soul Food Kitchen,,"Soul Food, Southern, Comfort Food",1024,4,$$,33.9615532,-118.3530243,Yf4lciWF90LPKIykRD-B9g,SOUL FOOD KITCHEN,202 E MANCHESTER BLVD,INGLEWOOD,,,
663,Hong Kong Palace,,Dim Sum,362,3,$$,33.9874676,-117.8863597,vA2W1-z5p-sOHdrfTPaP3A,HONG KONG PALACE SEAFOOD RES,19101 E COLIMA RD,ROWLAND HEIGHTS,,,
664,El Pollo Loco,,"Mexican, Fast Food",37,2,$,34.580444,-118.088825,9HqIrXddmaJa3NDUb7I-TA,EL POLLO LOCO # 5977,2221 E PALMDALE BLVD,PALMDALE,,,
665,,,,,,,,,,TEJUINOS RIVERA I,3425 E 1ST ST STE 3429,LOS ANGELES,,,
666,7-Eleven,,"Convenience Stores, Coffee & Tea",21,3,$,34.19339662,-118.5620118,eiJx-VcBQ-XPfgaBwQGEvw,7 ELEVE FOOD,19660 VANOWEN ST,RESEDA,,,
667,Cafe Corner Bistro,,"American (Traditional), Mexican, Breakfast & Brunch",353,3.5,$$,34.1709,-118.29458,kS5m6gJwm6AaEhGgTXdLTQ,CORNER BISTRO,6720 SAN FERNANDO RD,GLENDALE,,,
668,Super Wok Chinese Restaurant,,Chinese,468,3.5,$$,34.16938,-118.5358651,Qm6OoK5Reb9YnwGva6j1Zw,SUPER WOK,5418 RESEDA BLVD,TARZANA,,,
669,Confexion,,"Cupcakes, Bakeries",19,4.5,$,34.184839,-118.604791,ZM9LZCo4VKnORVFYr1nMsg,CONFEXION CUPCAKES,6344 TOPANGA CANYON BLVD # 1030,WOODLAND HILLS,,,
670,,,,,,,,,,FRISCO'S CARHOP DRIVE-IN,18065 GALE AVE,ROWLAND HEIGHTS,,,
671,,,,,,,,,,MAIN MARKET,6240 FOOTHILL BLVD,TUJUNGA,,,
672,,,,,,,,,,DOLLAR CITY,4800 E WHITTIER BLVD,LOS ANGELES,,,
673,,,,,,,,,,LA CEST SI BON,1101 S VERMONT AVE # 101-0,LOS ANGELES,,,
674,La Costena Bar,,Bars,27,3.5,$,34.0499928,-118.2456405,sn7JQdXZLIZi4f92RUtXuA,LA COSTENA,271 S MAIN ST,LOS ANGELES,,,
675,Los Paisas,,Mexican,237,3.5,$$,33.8316949,-118.2966396,49FSAwZ6oaCqPHmt_zkksg,LOS PAISAS MEXICAN GRILL,1151 W CARSON ST,TORRANCE,,,
676,Granvia Automotive Service Center,,"Gas Stations, Auto Repair",65,3,,33.77923203,-118.3917542,kDZpfN5_7vp03NahMFAgAw,GRANVIA CORNER CAFE,28103 HAWTHORNE BLVD,RANCHO PALOS VERDES,,,
677,,,,,,,,,,GUCKENHEIMER #2021.01,950 W 190TH ST,TORRANCE,,,
678,Popeyes Louisiana Kitchen,,"Fast Food, Chicken Wings",116,2.5,$,33.9010865,-118.3436877,l_LDyOPySSrRvcVq8swR6g,POPEYES LOUISIANA KITCHEN,14312 S PRAIRIE AVE,HAWTHORNE,,,
679,Long John Silver's,,"Seafood, Fast Food",4,1,,34.67449,-118.14829,kY7zGYvHkrqwv04thudrnA,KFC/LONG JOHN SILVER,43559 W 10TH ST W,LANCASTER,,,
680,Cold Stone Creamery,,"Ice Cream & Frozen Yogurt, Custom Cakes, Cupcakes",94,2.5,$$,34.4222302,-118.564568,hq-L9ZToF3XsvkUk2OEwAw,COLD STONE CREAMERY,27071 MCBEAN PKWY # 3B,SANTA CLARITA,,,
681,Greco's New York Pizzeria,,Pizza,279,2.5,$,34.1014151,-118.339427,Q0ijJu2EVEFtWwuVD7-Kvg,GRECO'S NEW YORK PIZZA,6814 HOLLYWOOD BLVD,LOS ANGELES,,,
682,Ono Hawaiian BBQ,,"Barbeque, Hawaiian",58,2.5,$,33.9521149,-118.184021,V7pDYGmM-QhAqTBNn4VAug,ONO HAWAIIAN BBQ,4779 FIRESTONE BLVD,SOUTH GATE,,,
683,Carnival Karaoke,,Karaoke,135,4,$,34.20147325,-118.5165951,KjF5scnmKIoE7QMZxhsAfA,CARNIVAL,17615 SHERMAN WAY # 17,VAN NUYS,,,
684,Red Robin Gourmet Burgers,,"Burgers, American (Traditional)",355,3,$$,34.14357849,-118.2588573,5a0dP59T_NNP_ck-B5vGeA,RED ROBIN GOURMET BURGERS,1187 GLENDALE GALLERIA,GLENDALE,,,
685,Pho House,,"Vietnamese, Seafood, Noodles",453,4.5,$,33.88898,-118.353181,CRPe_mBSfsfP-FbxhawaOA,PHO HOUSE,15651 HAWTHORNE BLVD E,LAWNDALE,,,
686,Smiley's Market,,Grocery,1,1,,34.22779846,-118.4540939,DwKNTaJAy3t1rU6TXIBGbw,SMILEY'S MARKET,14712 PARTHENIA ST STE A,PANORAMA CITY,,,
687,Urban Garden,,"Middle Eastern, Vegan, Gluten-Free",98,4,$$,34.0764562,-118.3548152,YFdXJzoQ79XuFhu65bGRNA,URBAN GARDEN,7563 BEVERLY BLVD,LOS ANGELES,,,
688,LA Face Mart,,Shopping Centers,14,4,$,34.03071386,-118.255071,JOQYWJI8EeLqCHRFNozHAQ,SNACK MART,1458 S SAN PEDRO ST UNIT #127,LOS ANGELES,,,
689,Wyman's Liquor,,"Beer, Wine & Spirits",12,3.5,$$,33.93195,-118.11779,jcM1o0JLMnDP4wmgSxdEPg,WYMAN'S LIQUOR,9300 FIRESTONE BLVD,DOWNEY,,,
690,,,,,,,,,,E Z  STOP LIQUOR,24879 RAILROAD AVE,NEWHALL,,,
691,My Fit Foods,,Health Markets,76,3.5,$$,33.86375199,-118.3927917,nTbUCo3ixR61CGHdNIgfWw,MY FIT FOODS,1025 PACIFIC COAST HWY,HERMOSA BEACH,,,
692,Rainbow Donuts,,"Donuts, Coffee & Tea, Bagels",170,4,$,33.858824,-118.080999,6pUS6P9Ldm5Rce44V6HLEA,RAINBOW DONUTS,11825 E SOUTH ST,ARTESIA,,,
693,El Guanaco Restaurant,,Salvadoran,4,3.5,$,34.05634,-118.27594,pWtTqUZXGByDwwhpH0U_oA,RINCON GUAHACO RESTAURANT,2015 W 7TH ST,LOS ANGELES,,,
694,eLOVate Kitchen,,"Vegan, Juice Bars & Smoothies, Vegetarian",131,4.5,$$,34.01030419,-118.4920669,SXnmlgOtVocXdWWlb8-YcQ,ELOVATE,1705 OCEAN AVE # 111,SANTA MONICA,,,
695,DJ Market,,"Grocery, International Grocery",6,4.5,$$,33.86634,-118.07283,bYBbPEC3bf1lcGb1vJjdcA,D J MARKET,18017 NORWALK BLVD,ARTESIA,,,
696,Big Mike's Philly Steaks,,"Steakhouses, Sandwiches",327,4,$,33.92241518,-118.4160457,U1fIveC8bki6M8exz0fSgA,BIG MIKES PHILLY STEAKS&SUBS,507 MAIN ST,EL SEGUNDO,,,
697,Balboa Market,,Grocery,12,3,$,34.2085618,-118.5012949,W6EI7eyx0X0_tQlAzCH-Pw,BALBOA MARKET MEAT DEPT.,7613 BALBOA BLVD,VAN NUYS,,,
698,Hacienda Playa,,"Mexican, Sports Bars, Soup",235,3.5,$$,33.9568635,-118.443133,MoK_FvyMy6UkspDN3oMKIg,HACIENDA PLAYA,8415 PERSHING DR,PLAYA DEL REY,,,
699,Island Pacific Supermarket,,"Grocery, Filipino, Seafood Markets",34,2.5,$,34.2231058,-118.44682,hPStv2lpvd-vWx8xE8045Q,ISLAND PACIFIC SEAFOOD MRT,8340 VAN NUYS BLVD,PANORAMA CITY,,,
700,La Moderna Bakery,,"Bakeries, Mexican",255,4,$,33.9718849,-118.0739711,f9fxiHjgXOcZzi2K4Gt03A,LA MODERNA BAKERY,8035 1/2 S NORWALK BLVD,WHITTIER,,,
701,,,,,,,,,,EARTH BAR,10220 CONSTELLATION BLVD,LOS ANGELES,,,
702,Toast Cafe,,"Cafes, Breakfast & Brunch, Kosher",505,4,$$,34.153054,-118.459846,MUUuF7hSzK6kOW7HeVh5fg,TOAST CAFE,15001 VENTURA BLVD,SHERMAN OAKS,,,
703,,,,,,,,,,CARUSOS PIZZA,10504 MOUNT GLEASON AVE,TUJUNGA,,,
704,Walgreens,,"Cosmetics & Beauty Supply, Drugstores, Convenience Stores",42,2.5,$$,33.96639141,-118.3527544,Sc1gwROn9f0bpuZu1_4uaQ,WALGREENS,230 N LA BREA AVE,INGLEWOOD,,,
705,Leon Cake Studio,,"Desserts, Bakeries",2,4,$$,34.1836853,-118.2293777,ZxnrRoe7oGGM-5XQMLJL9A,LEON BAKERY CAFE CAKE STUDIO,2517 CANADA BLVD,GLENDALE,,,
706,Juice Crafters,,"Juice Bars & Smoothies, Breakfast & Brunch, Vegan",69,4,$$,34.1017462,-118.3256998,xqA2vVVMKT6h09IFpUJMKA,JUICE CRAFTERS,6247 HOLLYWOOD BLVD,LOS ANGELES,,,
707,The Old Boys Tea House,,"Taiwanese, Tea Rooms",212,3.5,$,33.992076,-117.93354,DIALQVUNlBKSOXVRFqdz3w,THE OLD BOYD TEA HOUSE,1655 AZUSA AVE STE G,HACIENDA HEIGHTS,,,
708,Downey Regional Medical Center,,Hospitals,35,2,,33.93443,-118.13117,7ESKUB8vNj-Ny9PecWrtxA,DOWNEY REGIONAL M/CENTER KITCHEN & CAFE,11500 BROOKSHIRE AVE,DOWNEY,,,
709,Kuru Kuru Sushi,,"Sushi Bars, Japanese",415,4,$$,34.1597705,-118.3432219,FpfcBbTdWmla7n4ksoWFIA,KURU-KURU SUSHI,521 N HOLLYWOOD WAY,BURBANK,,,
710,Jack in the Box,,"Fast Food, Burgers, Tacos",82,2,$,34.03246878,-118.1294659,TRYBiNw3uXLnfM3i_53e7A,JACK IN THE BOX,892 N GARFIELD AVE,MONTEBELLO,,,
711,,,,,,,,,,BOBA LOCA,10033 PARAMOUNT BLVD STE A,DOWNEY,,,
712,Poly Grill & Bakery,,"Bakeries, Polynesian",66,4,$$,33.832086,-118.249751,P1lgIX7HD8hmuZKa2KBnog,POLY GRILL & BAKERY,1329 E CARSON ST,CARSON,,,
713,Dairy Queen Orange Julius,,"Fast Food, Ice Cream & Frozen Yogurt, Juice Bars & Smoothies",57,2.5,$,34.183667,-118.312099,fi8L9phUJSw3pCx-c64Qhg,DAIRY QUEEN & ORANGE JULIUS,201 E MAGNOLIA BLVD STE 346,BURBANK,,,
714,Las Trancas,,"Mexican, Seafood",67,3.5,$$,33.9917,-118.184767,UqZ75r7yE3hfX1-MQdsEMw,LAS TRANCAS,5351 ATLANTIC BLVD,MAYWOOD,,,
715,JOANN Fabrics and Crafts,,"Home Decor, Fabric Stores, Art Supplies",221,3,$$,33.82984616,-118.3501896,TcrahQRxaVzjMwqr3c7iOA,JO-ANN FABRIC & CRAFTS #1919,21800 HAWTHORNE BLVD,TORRANCE,,,
716,Pizza Hut,,"Pizza, Italian, Chicken Wings",126,2,$,34.1867828,-118.5562067,j1_0pd4UvBXGRhKgvbxCuQ,PIZZA HUT,19417 3/4 VICTORY BLVD,RESEDA,,,
717,La Ramada,,Salvadoran,4,4.5,,34.02180533,-118.2532468,zD_0O89O5JWQJY0fHi0gLA,LA RAMADA RESTAURANT,2215 S CENTRAL AVE,LOS ANGELES,,,
718,Cafe Brio,,"Pizza, Delis",42,3.5,$,34.05003505,-118.4607066,aa5Zs6R0G4VWnOonUxGwSw,CAFE BRIO,11645 WILSHIRE BLVD #100,LOS ANGELES,,,
719,Rotex Yesoo Restaurant,,Korean,13,3.5,$$$,34.052903,-118.312479,aBA76hKuLWuNVTS-is7fGw,ROTEX YEO SOO RESTAURANT,3411 W OLYMPIC BLVD,LOS ANGELES,,,
720,Hong Kong Express,,Chinese,11,3,$,33.9313545,-118.3001862,ekc14oriCpfuboFqdCvjWA,HONG KONG EXPRESS,11252 S NORMANDIE AVE STE 101,LOS ANGELES,,,
721,Nano Cafe,,"American (Traditional), Breakfast & Brunch, Cafes",857,4,$$,34.13247,-118.00893,RdYiEMm1plGcp9tEjofJ-g,NANO CAFE TWO,441 W DUARTE RD,MONROVIA,,,
722,,,,,,,,,,SODEXHO MANAGEMENT INC,3100 THORNTON AVE,BURBANK,,,
723,,,,,,,,,kDMRv-LCTqfsTBVbc5AyCw,LA CABANA,2931 E 4TH ST,LOS ANGELES,,,
724,Walgreens,,"Drugstores, Convenience Stores, Cosmetics & Beauty Supply",79,2,$$,34.0983314,-118.308731,E5jr7mNWsEHeIol6-VzlwQ,WALGREENS,5451 W SUNSET BLVD,LOS ANGELES,,,
725,New Donut,,"Donuts, Bakeries",6,4,$,33.96754,-118.15797,jbcaXYLh8E8m-D15_dRYyg,NEW DONUTS & WATER,5985 FLORENCE AVE STE #A,BELL GARDENS,,,
726,Grizzly's Bakery,,Bakeries,3,4,,34.0242,-118.14063,lzVyKYNzipMLqRNcMvRWBg,SANDY'S BAKERY,3401 W BEVERLY BLVD,MONTEBELLO,,,
727,,,,,,,,,,NEW IMAGE MARKET,1123 E 7TH ST,LOS ANGELES,,,
728,Patio Burgers & Beer,,"Burgers, Beer Bar, Sandwiches",184,4.5,$$,34.1271217,-118.2185089,nEKPdv_zvei-pPWtuUsZ4Q,PATIO BURGERS AND BEER,4541 EAGLE ROCK BLVD,LOS ANGELES,,,
729,Cost Plus World Market,,"Home Decor, Beer, Wine & Spirits, Furniture Stores",59,4.5,$$,34.1044423,-117.8194965,QNKd325Q_3nBoExf0Fevag,COST PLUS IMPORTS,638 W ARROW HWY,SAN DIMAS,,,
730,La Cocina Poblana,,Mexican,3,5,$,34.01017985,-117.9278868,rMeAamXSkSOfbsiQDD8BTg,LA COCINA POBLANA,17247 1/2 VALLEY BLVD,LA PUENTE,,,
