,name,address,categories,review_count,rating,price,latitude_yelp,longitude_yelp,yelp_id,program_name,facility_address,facility_city,latitude,longitude,hours
0,New India's Oven,,Indian,361,3.5,$$,33.986593,33.986593,fNepJlcekm1xOZ-LC4VI7Q,NEW INDIA'S OVEN,13444 MAXELLA AVE,MARINA DEL REY,,,
1,Asia Kitchen,,"Chinese, Asian Fusion",61,3,$,34.011917,34.011917,D5Zo6W0n0PiJZ9Y5r5RENQ,ASIA KITCHEN,11279 VENICE BLVD,LOS ANGELES,,,
2,El Ranchero,,"Mexican, Breakfast & Brunch",32,3.5,$,33.94343277,33.94343277,ZWWcvwjGyB4QVM34FcD4oA,EL RANCHERO MEXICAN FOOD,4070 TWEEDY BLVD STE #B,SOUTH GATE,,,
3,Captain Tony's Pizza & Pasta Emporium,,Pizza,60,3.5,$,34.6895,34.6895,z4GxbGkHwlAKLzbALDgoDw,CAPTAIN TONYS PIZZA & PASTA  EMPORIUM,135 E J AVE,LANCASTER,,,
4,208 Rodeo,,"American (New), French, Seafood",798,3.5,$$$,34.0671885,34.0671885,Pm2XIvuYeOXa_FxoGdMEQg,208 RODEO,208 N RODEO DR,BEVERLY HILLS,,,
5,,,,,,,,,,RUBEN AND SONS,2040 W ROSECRANS AVE # 63,GARDENA,,,
6,Oto-Oto Izakaya Japonaise,,"Japanese, Bars, Sushi Bars",434,3.5,$$,34.0697208,34.0697208,Mltip1Q3CHWVbmv0LyxrUA,OTO-OTO JAPENESE RESTAURANT,2686 E GARVEY AVE S,WEST COVINA,,,
7,The Best Burger,,American (Traditional),48,3.5,$,33.96923,33.96923,GLyaVBs1YuzlpsqxFKLsjw,THE BEST BURGER,7730 S WESTERN AVE,LOS ANGELES,,,
8,El Salvadoreno Pupuseria,,Salvadoran,150,4,$,34.06573,34.06573,GRNHXQHAwFO65zu5xYXi3A,EL SALVADORENO,3130 PECK RD,EL MONTE,,,
9,,,,,,,,,,NICOLES GOURMET FOODS,921 MERIDIAN AVE # B,SOUTH PASADENA,,,
10,Black Angus Steakhouse,,"Steakhouses, American (New), Seafood",533,3,$$,34.236832,34.236832,ZwlxV_2CGdhLpMZxuQEABQ,BLACK ANGUS STEAKHOUSE REST.,9145 CORBIN AVE,NORTHRIDGE,,,
11,Nuoc Mia Vien Dong,,"Vietnamese, Chinese, Fast Food",56,4,$,34.0613699,34.0613699,b83Www-xYZOAjrjh2vaGCw,NUOC MIA VIEN DONG,8150 GARVEY AVE STE #117B,ROSEMEAD,,,
12,Super Tortas,,Mexican,86,4,$,34.21526,34.21526,yErIE4_mCGvaRgT9VdZ9lQ,SUPER TORTSAS 2,7951 VINELAND AVE,SUN VALLEY,,,
13,,,,,,,,,,RUBIO'S FRESH MEXICAN GRILL,2000 N SEPULVEDA BLVD,MANHATTAN BEACH,,,
14,Sherman Oaks Little League,,Sports Clubs,3,5,,34.16481502,34.16481502,GpY4GwUITdKVOeBm1PWBIA,SHO LITTLE LEAGUE SNACK BAR,14230 MAGNOLIA BLVD,SHERMAN OAKS,,,
15,Milo and Olive,,"Pizza, Bakeries, Italian",1761,4,$$,34.03757,34.03757,ANoWhBWNVDy_syuwZqh2BA,MILO & OLIVE,2723 WILSHIRE BLVD,SANTA MONICA,,,
16,Tep Thai,,Thai,367,3.5,$$,34.14821243,34.14821243,clL79cMWtSTF-cV2ltSxcg,TEP THAI,209 W WILSON AVE,GLENDALE,,,
17,Gish Bac Restaurant,,"Mexican, Breakfast & Brunch",73,3.5,$$,34.040138,34.040138,UPuGlJvngKuTmz-0-ssqVA,GISH BAC RESTAURANT,4163 W WASHINGTON BLVD,LOS ANGELES,,,
18,Pauline's Premier Sweets,,"Chocolatiers & Shops, Gift Shops",73,5,$$,34.1650401,34.1650401,1K7_4WA_gl4C9SBjSGpzoQ,PAULINE'S HANDMADE BRITTLE,1926 W OLIVE AVE,BURBANK,,,
19,Callender's Grill,,"American (Traditional), Breakfast & Brunch",391,3.5,$$,34.06267367,34.06267367,YYoqawLeMiAMxp2NrvERAA,MARIE CALLENDER'S,5773 WILSHIRE BLVD,LOS ANGELES,,,
20,Hong Kong Express 2,,Chinese,16,4,$,34.03959,34.03959,ISy9aIQaPalGZ3nHwwbl8A,HONG KONG EXPRESS #2,1905 S WESTERN AVE STE #1,LOS ANGELES,,,
21,,,,,,,,,,SPLASH CONCESSION,13806 LA MIRADA BLVD,LA MIRADA,,,
22,Grill N Sushi,,"Japanese, Sushi Bars, Noodles",268,4.5,$$,33.98247147,33.98247147,XF-Gkc3u6iVAfUr-LC0cuA,GRILL N SUSHI,12602 HADLEY ST,WHITTIER,,,
23,Rick's Drive In & Out,,"Burgers, Salad, Sandwiches",246,3,$,33.97572,33.97572,kbMQNIeKcfd0vlo5dZPvUg,RICK'S DRIVE IN AND OUT,7254 S GREENLEAF AVE,WHITTIER,,,
24,WaBa Grill,,"Fast Food, Asian Fusion",40,2.5,$,33.9652861,33.9652861,JB34l0q0A5d2KFWTeNjdFw,WABA GRILL,2647 SANTA ANA ST,SOUTH GATE,,,
25,,,,,,,,,,ARCO AM/PM MINI MARKET,111 W AVENUE K,LANCASTER,,,
26,,,,,,,,,,300 VICTORIA MARKET,300 W VICTORIA ST,GARDENA,,,
27,El Rio Bravo Restaurant,,Mexican,322,4,$$,34.033371,34.033371,27CXcAAteTucluMvvWCaKg,EL RIO BRAVO RESTAURANT,5853 WASHINGTON BLVD,CULVER CITY,,,
28,Sycamore Tavern,,Gastropubs,81,3,$$,34.0977882,34.0977882,nKl1JcppO64TgADGQZBrOw,SYCAMORE TAVERN,7038 W SUNSET BLVD,LOS ANGELES,,,
29,,,,,,,,,,MARINA CITY CLUB CAFE,4333 ADMIRALTY WAY,MARINA DEL REY,,,
30,El Chino Restaurant,,Mexican,10,4,$,34.055332,34.055332,69yBbwOQNCltLsa_wNW7ug,EL CHINO RESTAURANT&TAQUERIA,2119 W 8TH ST D,LOS ANGELES,,,
31,Sangam Indian Grocery,,Grocery,2,5,$$,34.018427,34.018427,bu3KERSTScQKMm3vNTpisw,SANGAM,23453 GOLDEN SPRING DR STE A,DIAMOND BAR,,,
32,,,,,,,,,,BAR 101 - FIGUEROA BAR,1111 S FIGUEROA ST,LOS ANGELES,,,
33,Woodlands Indian Cuisine,,"Indian, Vegetarian",96,3,$$,33.87445839,33.87445839,LbDN6R7fX9qx5nO8dhzsrw,WOODLANDS INDIAN RESTAURANT,11833 ARTESIA BLVD,ARTESIA,,,
34,Freebirds World Burrito,,"Mexican, Tex-Mex",493,3.5,$,33.86804149,33.86804149,H6hRX0x0vVClqeD-Rs1Rjw,FREEBIRDS WORLD BURRITO,1509 HAWTHORNE BLVD STE #101,REDONDO BEACH,,,
35,California Cheeseburgers,,Burgers,18,3,$,34.57836,34.57836,chJEV0Kayj1JZAHWs7m-QA,CALIFORNIA CHEESEBURGERS,38335 E 90TH ST E,LITTLEROCK,,,
36,Target,,"Department Stores, Furniture Stores, Electronics",392,2.5,$$,34.143081,34.143081,dhyLQpxRW6mbXbvSC9CKLw,TARGET # T2307,2195 GLENDALE GALLERIA,GLENDALE,,,
37,King Taco,,Mexican,603,2.5,$,33.889019,33.889019,nxOhJQ_jcE9ZUH4dtfH7Pg,KING TACO,15916 LAKEWOOD BLVD,BELLFLOWER,,,
38,Tacos Tumbras a Tomas,,Mexican,1034,4,$,34.050649,34.050649,520Wd4FU_DixBprFQQnnxg,TACOS TUMBRAS,317 S BROADWAY STE #14,LOS ANGELES,,,
39,The Habit Burger Grill,,"Burgers, Salad, Sandwiches",236,3.5,$,33.945193,33.945193,n0M823pKo_lFYeS1PIsy7Q,THE HABIT BURGER # 43,15498 WHITTIER BLVD,WHITTIER,,,
40,,,,,,,,,,CB MARKET,8400 S FIGUEROA ST,LOS ANGELES,,,
41,Feu Pho Kitchen,,"Vietnamese, Asian Fusion",539,4.5,$$,34.13998138,34.13998138,I9T_-L9KV6Nrrv_uJdl_Iw,FEU,11310 VENTURA BLVD,STUDIO CITY,,,
42,,,,,,,,,,LAS PALOMAS MEAT MARKET,12401 LONG BEACH BLVD,LYNWOOD,,,
43,Yummy Donuts and Croissants,,"Donuts, Juice Bars & Smoothies",50,4.5,$,34.27178205,34.27178205,ZUjgoUD9-oi5tsXK5Lr4TQ,YUMMY DONUTS,16156 SAN FERNANDO MISSION BLVD # 1,GRANADA HILLS,,,
44,24 Hour Fitness - Hermosa Beach,,"Gyms, Trainers",452,3,,33.866893,33.866893,6q1CA3mOAM69jkulNU-S8w,24 HOUR FITNESS,1601 PACIFIC COAST HWY STE 100,HERMOSA BEACH,,,
45,Brioche Pastries,,"Bakeries, Coffee & Tea",239,4.5,$,34.01326,34.01326,lRymJaHMP4-tEVbWopF88A,BRIOCHE,1916 W WHITTIER BLVD,MONTEBELLO,,,
46,Office Depot,,Office Equipment,59,3,$$,34.1664068,34.1664068,2VqeoQR5CMiJm6pLs8pcQg,OFFICE DEPOT,18211 VENTURA BLVD,TARZANA,,,
47,Subway,,Sandwiches,35,2.5,$,34.20726597,34.20726597,KDUuWDJighHj4gYmdNC8cA,SUBWAY SANDWICHES,17224 SATICOY ST,VAN NUYS,,,
48,Si Laa,,Thai,256,4,$$,34.056198,34.056198,c5XBNJKu51fAMAXzFkR-mw,SI LAA THAI DINING,1128 S ROBERTSON BLVD,LOS ANGELES,,,
49,Nano's Cafe,,"Pizza, Cafes",10,3.5,$,33.9455185,33.9455185,a1r64e8D93Ij4L8w58WOUg,NANO'S CAFE,9599 PINEHURST AVE,SOUTH GATE,,,
50,Derrick's Jamaican Cuisine,,Caribbean,267,3.5,$$,33.97685,33.97685,ETWH4RjC7t1IWGozhkvjSA,DERRICK'S JAMAICAN CUISINE,6806 S LA TIJERA BLVD,LOS ANGELES,,,
51,Thai Smile Restaurant,,Thai,71,4,$,33.8890351,33.8890351,8fLyfTKFrJt-3XvqVfDhdQ,THAI SMILE RESTAURANT,8408 E ALONDRA BLVD,PARAMOUNT,,,
52,Main Event-La Coliseum,,Sporting Goods,2,3,$$$,34.01367,34.01367,CnNEDnnSbSJ3XCk_JgmCjg,LA COLISEUM UC18,3911 S FIGUEROA ST,LOS ANGELES,,,
53,,,,,,,,,,VANCES LIQUORS,4741 N MAINE AVE,BALDWIN PARK,,,
54,Rounds Premium Burgers,,"Burgers, American (Traditional)",519,4,$$,34.07978377,34.07978377,xUe7J-iRPp8Lu58tusRyDw,ROUNDS PREMIUM BURGERS,885 S INDIAN HILL BLVD,CLAREMONT,,,
55,Carlton Plaza Deli,,Delis,1,5,,34.165775,34.165775,S_TVKH-Rj7gTtg2-apCM5Q,CARLTON PLAZA DELI,20750 VENTURA BLVD STE 110,WOODLAND HILLS,,,
56,Yum Yum Donuts,,"Donuts, Coffee & Tea, Sandwiches",27,4,$,34.57933,34.57933,Wpm5YSjlmeIixh9KrEA1hg,YUM YUM DONUTS #65,1870 E PALMDALE BLVD,PALMDALE,,,
57,Summer Buffalo,,Thai,466,4,$$,34.1803962,34.1803962,ETLCEa9x3Y-5kKEaUboO4w,SUMMER BUFFALO,449 S GLENOAKS BLVD,BURBANK,,,
58,Applebee's Grill + Bar,,"American (Traditional), Sports Bars, Burgers",410,3,$$,34.238961,34.238961,gIjhFEpO4LRu5tAq-iIHzw,APPLEBEE'S NEIGHBORHOOD GRILL & BAR,9255 WINNETKA AVE,CHATSWORTH,,,
59,Dragon Herbs,,"Health Markets, Traditional Chinese Medicine, Tea Rooms",58,4.5,$$,34.07078611,34.07078611,BQ9HSX-2RlPr2iPEryI_wg,DRAGON HERBS,458 S ROBERTSON BLVD,LOS ANGELES,,,
60,Panda Wok,,Chinese,140,4,$,34.09099817,34.09099817,GDzRBDzSgCiAWz6NIddvvA,PANDA WOK,581 N AZUSA AVE,COVINA,,,
61,Carniceria Rodriguez,,"Grocery, Meat Shops, Mexican",49,4.5,$,34.20069,34.20069,75v2keQEzsaDc-jiDSXXlQ,CARNECERIA RODRIGUEZ,21424 SHERMAN WAY,CANOGA PARK,,,
62,El Canelo Tacos Al Vapor,,Tacos,53,4,$,34.01632387,34.01632387,YkrgFBDkvK0zMtnptH-CTQ,TACOS AL VAPOR EL CANELO,6168 WHITTIER BLVD,LOS ANGELES,,,
63,Benihana - Dignity Health Sports Park,,"Sushi Bars, Bars, Japanese",1,5,,33.86438,33.86438,2IcuqHlsF6h2MeGof6DbPQ,DIGNITY HEALTH SPORTS PARK-  THE MARKET 789,18400 AVALON BLVD STE 300,CARSON,,,
64,Mr. Good's Donuts,,Donuts,24,4,$,34.086422,34.086422,nZE4lTLYXOK3v8sQsXQLMQ,MR GOOD'S DONUT SHOP,4601 N HUNTINGTON DR N,LOS ANGELES,,,
65,Umami Burger - LAX,,"Burgers, American (New), Gastropubs",296,2,$$,33.942354,33.942354,AYIUaFzjUJ9hTYgvmczfIw,UMAMI BURGER,380 WORLD WAY T30,LOS ANGELES,,,
66,,,,,,,,,,BICOL EXPRESS,1220 S CENTRAL AVE # 101,GLENDALE,,,
67,,,,,,,,,,THE BACKHOUSE,150 S SAN FERNANDO BLVD,BURBANK,,,
68,AMC Burbank Town Center 8,,Cinema,120,3,,34.18369305,34.18369305,avIrHRLO4burylT_OPrzHQ,AMC THEATRES BURBANK TWNCTR8,201 E MAGNOLIA BLVD STE 345,BURBANK,,,
69,,,,,,,,,,MYUNG DONG KYO JA,3630 WILSHIRE BLVD,LOS ANGELES,,,
70,Playa Las Tunas Restaurant,,"Latin American, Seafood, American (Traditional)",71,2,$$,34.050375,34.050375,0R0ZNTI9IuFH9LOQy2UV5w,PLAYAS LAS TUNAS,1107 S ALVARADO ST STE 112,LOS ANGELES,,,
71,Pepe's Finest Mexican Food,,Mexican,295,3,$,34.10088901,34.10088901,IsuIxyzK5vBOjmyOrf4jEQ,PEPES FINEST MEXICAN FOOD,1140 N AZUSA AVE,COVINA,,,
72,Chipotle Mexican Grill,,"Mexican, Fast Food",191,3,$,34.128151,34.128151,eGnExvCrjFGJ1Vl-_qF0Hw,CHIPOTLE MEXICAN GRILL,860 E ALOSTA AVE,AZUSA,,,
73,The Boutique Spa at The Ritz-Carlton,,Day Spas,3,3,$$$$,33.9843483,33.9843483,lNFKvuISPSJo-SwQXWEpPg,THE RITZ CARLTON,4375 ADMIRALTY WAY,MARINA DEL REY,,,
74,,,,,,,,,,EUREST DINING SERVICES,31303 AGOURA RD,WESTLAKE VILLAGE,,,
75,El Rincon De Guayabitos Mariscos,,"Mexican, Seafood",38,3,$$,34.02173236,34.02173236,MlVJ525eG65UQ4YFeoeb5A,RINCON DE GUYABITOS,735 S ATLANTIC BLVD,LOS ANGELES,,,
76,Auntie Em's Kitchen,,"American (Traditional), Breakfast & Brunch, Desserts",1298,3.5,$$,34.12768173,34.12768173,mr1TYVPNaLXrtq-waSXoFA,AUNTIE EM'S LLC,4616 EAGLE ROCK BLVD,LOS ANGELES,,,
77,Unocal 76,,Gas Stations,2,3.5,,34.07853,34.07853,4iuX_h_Npo2QLNY-BmN1OA,HILU 76,555 VINTON AVE,POMONA,,,
78,Rosewood Park,,"Parks, Playgrounds",12,4.5,,34.002532,34.002532,gCqUgBHhMj4aZK60h_7K7g,ROSEWOOD KITCHEN,5600 HARBOR ST,COMMERCE,,,
79,Starbucks,,Coffee & Tea,94,2.5,$$,34.003209,34.003209,1F1PysQR3I3SuSOwVbn87A,STARBUCKS,12404 VENICE BLVD STE A,LOS ANGELES,,,
80,Handsome Coffee Roasters,,"Coffee & Tea, Desserts",427,3.5,$$,34.0389404,34.0389404,A3V4k-fN32hVJQDLbzK-Ng,HANDSOME COFFEE,582 S MATEO ST,LOS ANGELES,,,
81,California Pizza Kitchen at Marina Del Rey,,"Pizza, American (New), Salad",444,3,$$,33.977875,33.977875,v6wsZFziHzdAhMcLFwHPig,CALIFORNIA PIZZA KITCHEN #14,13345 FIJI WAY,MARINA DEL REY,,,
82,California Pizza Kitchen at Hollywood,,"Pizza, American (New), Salad",439,3.5,$$,34.10279,34.10279,ty3PfDKPx_pgMsgMDjRUHQ,CALIFORNIA PIZZA KITCHEN #,6801 HOLLYWOOD BLVD # D2-25,LOS ANGELES,,,
83,Huang BBQ Seafood House,,"Cantonese, Barbeque",27,4,$,34.08365751,34.08365751,RXwFNm7_C1N71KQZ4wgvtQ,HUANG BBQ & SEAFOOD INC.,4808 MELROSE AVE,LOS ANGELES,,,
84,,,,,,,,,,GILS MARKET,2503 MERCED AVE,SOUTH EL MONTE,,,
85,Brentwood Country Club,,Country Clubs,12,4.5,,34.048043,34.048043,SITaN6kDkE-B39k_OMux5A,BRENTWOOD COUNTRY CLUB - MAIN RESTAURANT,590 S BURLINGAME AVE,LOS ANGELES,,,
86,Zono Sushi,,"Sushi Bars, Japanese",498,4,$$,34.1477124,34.1477124,hNgjbn0LcoBsSMn6JWBfaA,ZONO SUSHI,139 N MARYLAND AVE,GLENDALE,,,
87,,,,,,,,,,LABORS LOCAL 300,2005 W PICO BLVD,LOS ANGELES,,,
88,Super Albert Fresh Mexican Food,,Mexican,29,3.5,$,34.07353,34.07353,rwgrB_41yKGZAY6ly35vDg,SUPER ALBERT MEXICAN FOODS,5189 ALHAMBRA AVE,LOS ANGELES,,,
89,Pescaderia Puerto Guaymas,,"Seafood Markets, Seafood, Do-It-Yourself Food",2,5,$,33.9747785,33.9747785,06dKJtv01VTD00wpbUpRyg,PESCADERIA PUERTO GUAYMAS,1159 E FLORENCE AVE,LOS ANGELES,,,
90,Yogis Grill,,"Sushi Bars, Japanese, Fast Food",155,4,$,34.15717587,34.15717587,JKH7KNrk9d-mxNLnHqe1Qw,YOGI'S GRILL,4904 TOPANGA CAANYON BLVD,WOODLAND HILLS,,,
91,S-Mart,,Grocery,282,3.5,$$,33.83694,33.83694,x4MqqFHEAHByAiGHGOwPhQ,S-MART- FISH DEPT,2515 TORRANCE BLVD,TORRANCE,,,
92,Superior Grocers,,Grocery,24,2,$,33.897397,33.897397,m_smeMagUzMHWjAnkfOG7w,SUPERIOR MARKET DELI,111 E COMPTON BLVD,COMPTON,,,
93,Target,,"Department Stores, Furniture Stores, Electronics",266,3.5,$$,34.005008,34.005008,s_j1vo6GTs1Wnz1XyaaKqA,TARGET FOOD AVE,747 GRAND AVE,DIAMOND BAR,,,
94,McDonald's,,"Fast Food, Burgers, Coffee & Tea",156,1.5,$,34.11513574,34.11513574,GZqe2VlNtb18oP4wxN47QA,MCDONALD'S #2084,3124 N SAN FERNANDO RD,LOS ANGELES,,,
95,Nak Won Rice Bakery,,Bakeries,4,4.5,$,34.07479,34.07479,2hFNGKplO35tFJMMwjxKKg,NAK WON RICE BAKERY INC,205 N WESTERN AVE,LOS ANGELES,,,
96,Renovo,,"Vegetarian, Juice Bars & Smoothies",152,4,$,34.026915,34.026915,McrCN_IsJiRDJnkZYEXj3A,RENOVO ORGANIC JUICE,2200 COLORADO AVE # #G1,SANTA MONICA,,,
97,Lucky Thai Cuisine,,Thai,294,4,$$,33.941638,33.941638,1Ow-kMNo8zUZv94bsfnuZA,LUCKY THAI CUISINE,13325 TELEGRAPH RD,WHITTIER,,,
98,Shanghai Style Restaurant,,Chinese,95,4,$$,33.865183,33.865183,7PoJGWH9Fn64gsXbQypkdw,SHANGHAI STYLE RESTAURANT,18311 S PIONEER BLVD,ARTESIA,,,
99,,,,,,,,,,G N C #7416,12730 S HAWTHORNE BLVD STE #C,HAWTHORNE,,,
100,,,,,,,,,,RALPH'S #295 (BAKERY),8626 FIRESTONE BLVD,DOWNEY,,,
101,Bombay Tandoori & Banquet,,"Indian, Halal, Seafood",1129,4,$$,33.80741,33.80741,PSqpxF3f4nvPgQHpjvETjQ,BOMBAY TANDOORI & BANQUET,4111 PACIFIC COAST HWY # A,TORRANCE,,,
102,Panera Bread,,"Salad, Soup, Sandwiches",2,3,,33.99123,33.99123,FhbNjwY8EAy5f75n2-Vkwg,PANERA BREAD,17501 COLIMA RD STE #D,INDUSTRY,,,
103,Cafe Brass Monkey,,"Karaoke, Dive Bars",798,3.5,$$,34.06113901,34.06113901,FIgqdyKBNWs0vIRblFTkqg,BRASS MONKEY INC,659 S MARIPOSA AVE,LOS ANGELES,,,
104,Bruce's Restaurant,,"Steakhouses, Bars",157,4,$$,33.91815,33.91815,g0_odpptBjz0DllRM0tg6w,BRUCE'S RESTAURANT,12623 E IMPERIAL HWY,SANTA FE SPRINGS,,,
105,Tapas & Vino,,"Tapas/Small Plates, Spanish, Tapas Bars",323,3.5,$$,33.81736,33.81736,Me7zdhN48p_zlTlx2QmSng,TAPAS & VINO,1729 S CATALINA AVE,REDONDO BEACH,,,
106,Altadena Golf Course,,Golf,63,3.5,,34.18525086,34.18525086,P5cvN-bDgzdPJciW2tObWA,ALTADENA GOLF COURSE,1456 E MENDOCINO ST,ALTADENA,,,
107,California Roll & Sushi,,"Sushi Bars, Japanese",142,3.5,$$,34.1806417,34.1806417,tW3ongcPRv34AF-f9J3aOw,CALIFORNIA ROLL & SUSHI,6100 TOPANGA CANYON BLVD,WOODLAND HILLS,,,
108,,,,,,,,,,YOWAY,17901 S VERMONT AVE # D,GARDENA,,,
109,Vibrato Grill Jazz,,"American (New), Jazz & Blues, Cocktail Bars",719,4,$$$,34.1273687,34.1273687,p4P3RDJRD1zBQiZ5InM5aw,VIBRATO GRILL,2930 N BEVERLY GLEN CIR,LOS ANGELES,,,
110,Pho Hana,,Vietnamese,286,3.5,$,33.975618,33.975618,LEHMI7fgm5RkFpAooFCqig,PHO HANA RESTAURANT,2777 S DIAMOND BAR BLVD,DIAMOND BAR,,,
111,,,,,,,,,,KENTUCKY FRIED CHICKEN,320 W BEVERLY BLVD,MONTEBELLO,,,
112,Wetzel's Pretzels,,Pretzels,2,2.5,$,34.070665,34.070665,VZb0NBzaWEX3JCoLD-qi4w,WETZEL'S PRETZELS,112 PLAZA DR # 9002,WEST COVINA,,,
113,Tam O'Shanter,,"Pubs, British",1451,4,$$$,34.12567515,34.12567515,cJ_-7MywlZgLvvsS4u7jaQ,TAM O SHANTER INN,2980 LOS FELIZ BLVD,LOS ANGELES,,,
114,Casita Taco Al Carbon,,Mexican,481,4,$,34.17765946,34.17765946,X_OumVUlTCqt_GEnM8re5g,CASITAS TACO AL CARBON,405 N VICTORY BLVD,BURBANK,,,
115,Nick's Coffee Shop,,"Breakfast & Brunch, Coffee & Tea, American (Traditional)",819,4,$$,34.0532,34.0532,XR5S7kMZKyQBuW_bNe_sag,NICKS COFFEE SHOP EST 1946,8536 W PICO BLVD,LOS ANGELES,,,
116,Malibu Country Chicken,,"Chicken Shop, Sandwiches, Wraps",124,3.5,$,34.03961,34.03961,KU2soDtnyEIBq2s3pgJjHQ,MALIBU COUNTRY CHICKEN,22751 PACIFIC COAST HWY,MALIBU,,,
117,Rene Cafe,,"Chinese, Thai",95,4,$$,34.05139542,34.05139542,l9NshmZJGVC02hxAUooimg,RENE CAFE,1123 W 7TH ST,LOS ANGELES,,,
118,Pizza Della Nonna,,"Italian, Pizza",160,4,$$,34.0439435,34.0439435,aAvFIV0H-kRTsC-NcNEqiQ,PIZZA DELLA NONNA,1570 S WESTERN AVE # 106,LOS ANGELES,,,
119,Galleria Market Northridge,,International Grocery,248,3.5,$$,34.25611,34.25611,m68_2ArXQuKJc_qHplHVyQ,GALLERIA MARKET DELI,10201 RESEDA BLVD,NORTHRIDGE,,,
120,,,,,,,,,,BUY LOW MARKET RESTAURANT,9900 E GARVEY AVE,SOUTH EL MONTE,,,
121,Mr. Kabob,,"Mediterranean, Greek, Persian/Iranian",654,4,$$,34.18184113,34.18184113,qURp9MBd-1EriCIgNCOYRg,MR. KABOB,164 E PALM AVE STE 103,BURBANK,,,
122,Oso Meat Market,,Meat Shops,7,2,$$,34.615286,34.615286,U3FJhvxtSl1EAjKYrCtyoA,OSO MEAT MARKET,40340 170TH ST E,PALMDALE,,,
123,Rodeo Room,,Dive Bars,8,4,,34.0470058,34.0470058,lUHjT5RdAOCTtw0_Ur2Rgg,RODEO ROOM,1306 S VERMONT AVE,LOS ANGELES,,,
124,Fiore Market Cafe,,"Cafes, American (New)",869,4.5,$$,34.11447,34.11447,chD218tO8ryaVGbExD8IJw,FIORE MARKET CAFE,1000 FREMONT AVE # #102,SOUTH PASADENA,,,
125,Downstairs Coffee Shop,,"Coffee & Tea, Mexican",6,4.5,$,34.154026,34.154026,uDNeP_UBPdkaZMLpNkmKQQ,DOWNSTAIRS COFFEE SHOP,15233 VENTURA BLVD STE #G-1,SHERMAN OAKS,,,
126,Food 4 Less,,Grocery,39,2.5,$,34.0513803,34.0513803,rTuHV3Y_Xt9U8kfmNGVzUA,FOOD 4 LESS #375 - MEAT,1091 S HOOVER ST,LOS ANGELES,,,
127,Papa John's Pizza,,Pizza,52,2,$,33.92317,33.92317,d061ssCTk2sNEnFBu8AfQQ,PAPA JOHN'S PIZZA,14569 TELEGRAPH RD,LA MIRADA,,,
128,,,,,,,,,,BETTY DISCOUNT STORE,5922 E OLYMPIC BLVD,LOS ANGELES,,,
129,Blaze Pizza,,"Salad, Pizza, Fast Food",588,4,$,34.15020033,34.15020033,dXXDb2H633acEVLrwnfDgQ,BLAZE PIZZA #1023,108 FOOTHILL BLVD,MONROVIA,,,
130,,,,,,,,,,H&S 41,150 S DIAMOND BAR BLVD,DIAMOND BAR,,,
131,El Tarasco Burrito,,Mexican,264,3,$,33.89484787,33.89484787,82vaZQnM-MezI3i2CTA1hw,EL TARASCO BURRITO,4809 MARINE AVE,LAWNDALE,,,
132,Saigon Market,,"Grocery, Bakeries, Juice Bars & Smoothies",102,4,$,33.88840502,33.88840502,6ie5ZRHkxADceTpIvbvMOg,SAIGON MARKET,15705 HAWTHORNE BLVD #A,LAWNDALE,,,
133,Central Market,,Grocery,5,4.5,$,34.278411,34.278411,VkttaZFXEcYhaE91Jt3fUg,CENTRAL MARKET,11479 SAN FERNANDO RD,SAN FERNANDO,,,
134,Skaf's Lebanese Cuisine,,Lebanese,764,4.5,$$,34.15144,34.15144,2cDrWNhKy2QsZaWLOJD73w,SKAF'S LEBANESE CUSINE,367 N CHEVY CHASE DR,GLENDALE,,,
135,Four Seasons Produce & Deli,,"Fruits & Veggies, Grocery",1,5,,34.13202286,34.13202286,5qcE7CfLVnSKSy2ZSWnV5g,FOUR SEASONS PRODUCE & DELI,1200 S BRAND BLVD STE 5 & 6,GLENDALE,,,
136,,,,,,,,,,JEO JAC KEO RI,12201 E CARSON ST,HAWAIIAN GARDENS,,,
137,Numero Uno Market,,Grocery,40,3,$,33.739575,33.739575,3M5WVg_t2En3pDJaRHAwfQ,NUMERO UNO MARKET #106,500 S PACIFIC AVE,SAN PEDRO,,,
138,Jack in the Box,,"Burgers, Fast Food, Tacos",33,2.5,$,34.26458,34.26458,NqoPvnoh1Ro2IraG29bk6A,JACK IN THE BOX,17744 CHATSWORTH ST,GRANADA HILLS,,,
139,,,,,,,,,,PERKIN UP,33326 SANTIAGO RD,ACTON,,,
140,Duke's Malibu,,"American (New), Seafood, Breakfast & Brunch",2648,4,$$,34.03644,34.03644,aHjHADnP0qB0sY2XuRhC-g,DUKES MALIBU,21150 PACIFIC COAST HWY,MALIBU,,,
141,Philly Fusion,,"American (Traditional), Cheesesteaks, Sandwiches",224,4.5,$,33.90219615,33.90219615,_G1LBmrqT9bU1uYj2oJxrQ,PHILLY FUSION,14220 1/2 ROSECRANS AVE,LA MIRADA,,,
142,Denny's,,"American (Traditional), Breakfast & Brunch, Diners",114,2,$$,34.283547,34.283547,u_GMC4w51C8OZ_cJumijPA,DENNY'S #7847,1041 TRUMAN ST,SAN FERNANDO,,,
143,Pizza Ritta,,"Pizza, Salad, Sandwiches",62,4,$,33.9696847,33.9696847,AYzfGpOJ04UetbwvxfdwAw,PIZZA RITTA,7701 CRENSHAW BLVD,LOS ANGELES,,,
144,Costco,,Wholesale Stores,373,3,$$,34.18650417,34.18650417,4F1gm5P-0RD88Mjo156uDw,COSTCO - BAKERY,21800 VICTORY BLVD,WOODLAND HILLS,,,
145,El Jalapeno Tacos,,"Tacos, Breakfast & Brunch, American (Traditional)",140,4,$,34.05666,34.05666,vXbzLktO9oPvA6q5GptEAQ,EL JALAPENO,854 S VERMONT AVE,LOS ANGELES,,,
146,Casa Jimenez Restaurant,,Mexican,35,3,$,34.010643,34.010643,kTiEhJ_meywcJUzR9wHLCA,CASA JIMENEZ PICO RIVERA,4400 S ROSEMEAD BLVD STE 8,PICO RIVERA,,,
147,Ross Dress for Less,,"Department Stores, Women's Clothing, Home Decor",39,3.5,$,34.1055604,34.1055604,D1NhkTB1cYgiwoe0Mr5_nA,ROSS STORES #376,818 W ARROW HWY,SAN DIMAS,,,
148,Cafe Broadway & Deli,,Cafes,16,4,$,34.146595,34.146595,c4drXm3b20OFmv3avZZRMg,CAFE BROADWAY,701 E BROADWAY,GLENDALE,,,
149,Star BBQ,,"Korean, Barbeque",126,3.5,$$,33.86668602,33.86668602,_4RfSbeBpXJi1WHJs2uC1w,STAR BBQ,18040 S WESTERN AVE,GARDENA,,,
150,101 Thai Restaurant,,Thai,80,3.5,$,34.25833677,34.25833677,cFmQZH91fhyc6lTozoSRTQ,101 THAI RESTAURANT,7782 FOOTHILL BLVD,TUJUNGA,,,
151,RST Poultry & Meat Market,,Meat Shops,7,3.5,$$,34.0098646,34.0098646,dkb3rF223AkWtQa9QWFqqg,RST POULTRY,15914 E GALE AVE # B,HACIENDA HEIGHTS,,,
152,Omi Sushi,,"Japanese, Sushi Bars",444,4,$$,34.09079993,34.09079993,WtIqshRchvPmR-kWca-Drw,OMI SUSHI,8163 SANTA MONICA BLVD,WEST HOLLYWOOD,,,
153,L&L Hawaiian Barbecue,,"Barbeque, Hawaiian",70,3,$,33.99435581,33.99435581,P93iRMl22cQlBT7vhCiRQw,L & L HAWAIIAN BBQ,1600 S AZUSA AVE UNIT 169J,INDUSTRY,,,
154,Donut Den,,"Donuts, Coffee & Tea",159,4,$,33.80868516,33.80868516,owPZnWbWIBlzIKXGG9NW5Q,DONUT DEN,4257 PACIFIC COAST HWY,TORRANCE,,,
155,,,,,,,,,,RINCONCITO MONARCAS,739 HYDE PARK BLVD # B,INGLEWOOD,,,
156,Ray Charles Cafeteria - Sinai Medical Center's Cafeteria,,Cafeteria,43,2,$,34.07654572,34.07654572,sc9O0p-zbveLclWqSBtuvw,RAY CHARLES CAFETERIA,8700 BEVERLY BLVD,LOS ANGELES,,,
157,Incredible Cafe Express,,Restaurants,1,5,,33.84761429,33.84761429,LLUQnIvQBQNNyRsQr-dx3g,INCREDIBLE CAFE EXPRESS,2787 E DEL AMO BLVD # E-16,COMPTON,,,
158,Johnny Rockets,,"Burgers, American (Traditional), Sandwiches",100,2.5,$$,34.15365219,34.15365219,fSMr27y2HSWQrwmfN98TlQ,JOHNNY ROCKETS,4799 COMMONS WAY STE #J,CALABASAS,,,
159,,,,,,,,,,WATER GARDEN LOBBY SHOP (SUNDRY),2450 COLORADO AVE 1010,SANTA MONICA,,,
160,Alfredo's Mexican Food,,Mexican,105,3,$,34.084079,34.084079,BG_6KN4vP9WzG7z-s-FvfQ,ALFREDOS MEXICAN RESTAURANT,13952 RAMONA BLVD,BALDWIN PARK,,,
161,Rio Maya Bar & Grill,,"Seafood, Mexican",13,4.5,$,33.88163882,33.88163882,2KjxR98qDSbxmw81GZNg6Q,RIO MAYA BAR & GRILL,444 W GARDENA BLVD,GARDENA,,,
162,Más Malo,,"Mexican, Lounges, Latin American",1199,3,$$,34.04703,34.04703,zVGlCeGvSv0JDNodNA66QQ,MAS MALO,515 W 7TH ST,LOS ANGELES,,,
163,,,,,,,,,,"SANDNES,RICHARD H",26135 BOUQUET CANYON RD,SANTA CLARITA,,,
164,Ay-Do-No Korean BBQ,,"Barbeque, Korean, Vegan",481,4,$$,34.10183154,34.10183154,Pluwjw_dbs42d1PfhBl7qQ,AY-DO-NO,5911 HOLLYWOOD BLVD,LOS ANGELES,,,
165,,,,,,,,,,JASON'S AM PM,2211 S HOOVER ST,LOS ANGELES,,,
166,Toshi,,Sushi Bars,150,4,$$,34.15511,34.15511,pLhw9fCYELj_IGi9yfAoAA,TOSHI,15489 VENTURA BLVD,SHERMAN OAKS,,,
167,Cafe Bolivar,,"Coffee & Tea, Venezuelan, Juice Bars & Smoothies",393,4,$$,34.01307259,34.01307259,NsipbTgJwbynALO_wdWfTg,CAFE BOLIVAR,1741 OCEAN PARK BLVD,SANTA MONICA,,,
168,Louis Burgers,,Burgers,259,3.5,$,33.903618,33.903618,NwVBXjhrX8SHiD8qYXl3Fw,LOUIS BURGERS,1501 E ROSECRANS AVE,COMPTON,,,
169,EMC Seafood & Raw Bar - Woodland Hills,,"Seafood, Live/Raw Food, Sushi Bars",627,4,$$,34.18474652,34.18474652,9seQUx1EqpWjvsVXOLlEng,EMC SEAFOOD & RAW BAR,6252 N TOPANGA CANYON BLVD # 1695,WOODLAND HILLS,,,
170,Maywood Shell Station,,Gas Stations,4,2,,33.98934174,33.98934174,B0MEGOZgCAI87JqO7mmHAg,MAYWOOD SHELL,5645 ATLANTIC BLVD,MAYWOOD,,,
171,Chi Chi's Pizza,,"Pizza, Soup, Pasta Shops",498,4,$$,34.2344545,34.2344545,esy-jVen66URjQUwusapPA,CHI CHIS PIZZA INC,9080 TAMPA AVE,NORTHRIDGE,,,
172,Cali Mart Market,,Grocery,103,2,$$,34.07804194,34.07804194,pefeX9b1Hfcz0gjppEdiOg,CALI FOODS MART,1000 E VALLEY BLVD,ALHAMBRA,,,
173,California Wok,,"Chinese, Soup",371,3.5,$$,34.157633,34.157633,xjPMIl6hSRbRHRigHMtutQ,CALIFORNIA WOK,16656 VENTURA BLVD,ENCINO,,,
174,L.A. Banquets - Glenoaks Ballroom,,"Venues & Event Spaces, Caterers",321,5,,34.165439,34.165439,AnF7tVZdFWiZ-7QMZzMJdg,LA BANQUET S -GLENOAKS BALLR,1320 W GLENOAKS BLVD,GLENDALE,,,
175,,,,,,,,,,CITY MARKET #13,22107 ROSCOE BLVD,WEST HILLS,,,
176,Bristol Farms -  Manhattan Beach,,"Specialty Food, Grocery, Beer, Wine & Spirits",247,3,$$,33.90073805,33.90073805,fdJKzYSzr3WxFZR1bqWXlg,BRISTOL FARMS MEAT DEPT#2303,1570 ROSECRANS AVE STE #H,MANHATTAN BEACH,,,
177,Las Lomas Restaurant,,"Mexican, Fast Food, Bars",102,4,$,34.3099165,34.3099165,Oap6fS2lWEN6P6qKZ4AALg,LAS LOMAS RESTAURANT,15677 ROXFORD ST,SYLMAR,,,
178,Leo's Xpress,,"Food Trucks, Mexican",6,3,,33.94079989,33.94079989,FQWkllR0KTKgq_qDvorn6Q,LEO'S TACOS,400 WORLD WAY,LOS ANGELES,,,
179,,,,,,,,,,COFFEE AND GRILL,18927 DAISETTA ST STE #102,ROWLAND HEIGHTS,,,
180,Walmart Pharmacy,,Pharmacy,1,5,,33.9284446,33.9284446,ThHarsv61hb3Ez2nOCChlQ,WALMART  DELI,12270 PARAMOUNT BLVD,DOWNEY,,,
181,,,,,,,,,,DOLLAR DISCOUNT,5464 SANTA MONICA BLVD,LOS ANGELES,,,
182,Caffe Delizioso,,"Sandwiches, Mexican",11,4,$,34.062295,34.062295,wABOD2wsPLXDpGzfOxvl_Q,CAFFE DELIZIOSO,4727 WILSHIRE BLVD STE 110,LOS ANGELES,,,
183,,,,,,,,,,TIA JUANA'S,205 E 2ND ST,POMONA,,,
184,Tam's Burgers,,Burgers,28,3,$,34.01653776,34.01653776,nb8QSth-t7q5htIYcbHBAQ,TAMS BURGERS #8,2801 S CENTRAL AVE,LOS ANGELES,,,
185,American Airlines Flagship Lounge,,Airport Lounges,111,3.5,$$,33.94153634,33.94153634,jLrrI4z6EHVqU0P0ujH6CQ,FLAGSHIP LOUNGE MAIN KITCHEN,400 WORLD WAY,LOS ANGELES,,,
186,Olympic Cafe - House of Breakfast,,"Breakfast & Brunch, Coffee & Tea, American (Traditional)",256,3.5,$,34.05315,34.05315,F84VYmRA7Q8nm3W417rNDg,OLYMPIC CAFE HOUSE OF BKFST,3728 W OLYMPIC BLVD,LOS ANGELES,,,
187,Rubio's Coastal Grill,,"Mexican, Seafood, Salad",136,3,$,34.1123503,34.1123503,b2Tb7RraFThew8pesFCBXQ,RUBIO'S FRESH MEXICAN GRILL,2204 E FOOTHILL BLVD,LA VERNE,,,
188,San Gabriel Superstore,,"Grocery, Fruits & Veggies, Seafood Markets",182,3,$,34.07884236,34.07884236,cX_9P2AA4NN1KJ6XRiuLIw,SAN GABRIEL SUPERSTORE/MEAT,1635 S SAN GABRIEL BLVD,SAN GABRIEL,,,
189,El Amigo,,Mexican,457,4.5,$$,33.88719639,33.88719639,bAGcK1-sFPGVRw75TViY8w,EL AMIGO,4600 MANHATTAN BEACH BLVD,LAWNDALE,,,
190,,,,,,,,,,ACE SUSHI @ VON'S 2078,9119 RESEDA BLVD,NORTHRIDGE,,,
191,Playa Dorada Pupuseria Y Restaurant,,Salvadoran,27,4,,33.9400224,33.9400224,TB2588_TPLMm-htyLeFakQ,PLAYA DORADA,10522 S VERMONT AVE,LOS ANGELES,,,
192,Tea Barrel,,"Tea Rooms, Bubble Tea, Juice Bars & Smoothies",416,4,$,34.0932353,34.0932353,bX2cA37HRy2cAgcB0KbXgw,TEA BARREL,405 W MAIN ST,ALHAMBRA,,,
193,Hungry Fox,,"Breakfast & Brunch, American (Traditional), Waffles",1215,4,$$,34.201484,34.201484,w2SJi5JY_Ha1gi4GaR5VBQ,HUNGRY FOX RESTAURANT,13359 SHERMAN WAY,NORTH HOLLYWOOD,,,
194,Chego!,,"Asian Fusion, American (New), Latin American",1706,4,$,34.06140215,34.06140215,3PYUJTfqcebeIOOqOLbMGQ,CHEGO,727 N BROADWAY #117,LOS ANGELES,,,
195,Town & Country Liquor Store,,"Beer, Wine & Spirits",6,2.5,,34.36991166,34.36991166,Icw1OQ-hLpoquScbha7fzg,TOWN & COUNTRY LIQUOR,23638 NEWHALL AVE STE #1-3,NEWHALL,,,
196,Pizzanista,,Pizza,1220,4,$,34.034836,34.034836,ICTrXwuFczeXxHye7fQxlA,PIZZANISTA,2019 E 7TH ST,LOS ANGELES,,,
197,La Guadalupana Market,,Grocery,4,2,,33.9649043,33.9649043,iAeD_heen_zld25g4XFtFA,LA GUADALUPANA BAKERY,4949 CLARA ST,CUDAHY,,,
198,,,,,,,,,,EDDIE'S MEXICAN FOOD,11237 E WHITTIER BLVD,WHITTIER,,,
199,Tai Shang Hong,,"Grocery, Herbal Shops",11,3.5,$$,34.078119,34.078119,8fI99bFA7FmSpdKdzCLhFw,TAI SHANG HONG,937 W VALLEY BLVD,ALHAMBRA,,,
200,Matisse Restaurant,,"Bars, Venues & Event Spaces, American (Traditional)",158,4,$$,33.900987,33.900987,NfQj_uXChNuU9BaZ_4ZUXg,MATISSE,14400 HINDRY AVE,HAWTHORNE,,,
201,Hide Out Cafe,,"Coffee & Tea, Asian Fusion, Comfort Food",740,4,$,33.992678,33.992678,bCOaVGrzvKkaW0w-kAx2Tw,HIDE OUT CAFE,18888 LABIN CT STE C106,ROWLAND HEIGHTS,,,
202,El Pollo Loco,,"Fast Food, Mexican",50,2.5,$,34.05090751,34.05090751,20-KWchW7q2cLocFReX6Cw,EL POLLO LOCO # 5502,1934 W OLYMPIC BLVD,LOS ANGELES,,,
203,,,,,,,,,,LA CATHEDRAL MARKET,340 S GRAND AVE,SAN PEDRO,,,
204,La Cocina Restaurant,,Mexican,201,3.5,$$,33.86551704,33.86551704,EyL-xmanisYtmOhKeLmqzQ,LA COCINA,4438 W 182ND ST,REDONDO BEACH,,,
205,Giuliano's Delicatessen,,"Delis, Sandwiches, Italian",905,4.5,$,33.88111496,33.88111496,JWNMwdEAx3L0ijJuAFVP0A,GIULIANO'S DELI,1138 W GARDENA BLVD,GARDENA,,,
206,Fish Land,,"Seafood Markets, Seafood",39,4,$,33.91278076,33.91278076,Znit-VUmAdbF07seXcgZ0w,FISH LAND,12530 LONG BEACH BLVD,LYNWOOD,,,
207,Chyn King,,Chinese,273,3,$$,34.06866,34.06866,FPMYFXC8M7TRuVRYafG3Xw,NEW CHYN KING,5770 W 3RD ST,LOS ANGELES,,,
208,,,,,,,,,,THE VILLAGE,6333 W 3RD ST STE 334,LOS ANGELES,,,
209,Ralphs,,Grocery,137,3,$$,34.03709,34.03709,_Q4FP4Hf7YLupMvoYu8X1g,RALPHS #95 - MAIN MARKET,2230 S ATLANTIC BLVD,MONTEREY PARK,,,
210,,,,,,,,,,SIMON'S DISCOUNT PHARMACY,7256 W SUNSET BLVD,LOS ANGELES,,,
211,Dollar King-Van Nuys,,Discount Store,33,4,$,34.1934,34.1934,s1oYmeqMmxeQngC8XvCcgg,DOLLAR KING #6,15230 VANOWEN ST UNIT A,VAN NUYS,,,
212,Tito's Market,,"Sandwiches, Argentine, Empanadas",895,4.5,$,34.062122,34.062122,b_jbBMNU3mg73s2LZ2s00A,TITO'S MARKET INC.,9814 GARVEY AVE STE 15,SOUTH EL MONTE,,,
213,Joan's on Third,,"Breakfast & Brunch, Cafes, Party & Event Planning",557,3.5,$$,34.144814,34.144814,TsxwYF29zLkcOx2Ic4KKHQ,JOANS ON THIRD MARKET,12059 VENTURA PL,STUDIO CITY,,,
214,El Milagro Restaurant,,Mexican,4,5,$,34.0323651,34.0323651,xJi8Ies8N5Ol1sX40Qjg7A,EL MILAGRO,5162 W ADAMS BLVD,LOS ANGELES,,,
215,Aburiya Raku,,Japanese,311,4,$$$,34.080846,34.080846,rv1mFVfUlmbxMgScm3A6Gg,ABURIYA RAKU,521 N LA CIENEGA BLVD,WEST HOLLYWOOD,,,
216,M Delivery,,Vietnamese,22,4.5,$,34.0805099,34.0805099,sKt0-8wjCd7xPQUMx0ZX0Q,M DELIVERY,725 E VALLEY BLVD # #B,SAN GABRIEL,,,
217,Embassy Kitchen,,Chinese,150,3.5,$$,34.1012188,34.1012188,InTzWIs9Ih3tlpRc8bpcGg,EMBASSY KITCHEN,218 S SAN GABRIEL BLVD,SAN GABRIEL,,,
218,Hotel Casa 425,,"Hotels, Bed & Breakfast",70,3.5,$$,34.0949465,34.0949465,7bdftPqFKdups7ReEMwiMg,HOTEL CASA 425,425 W 1ST ST,CLAREMONT,,,
219,,,,,,,,,#NAME?,TEQUILA CANTINA & GRILL,4310 W MAGNOLIA BLVD,BURBANK,,,
220,Chili's,,"American (Traditional), Tex-Mex, Bars",429,2.5,$$,33.8539099,33.8539099,EdMGFJ6hV6X1NPbFIRBqiw,CHILI'S GRILL & BAR #252,4931 CANDLEWOOD ST,LAKEWOOD,,,
221,Rigo's Taco No 3,,"Burgers, Tacos",121,3.5,$,34.29015,34.29015,B1cm2rxU2ML2JZzV8VABYQ,RIGO'S TACO #3,671 N MACLAY AVE,SAN FERNANDO,,,
222,Costco Wholesale,,Wholesale Stores,541,3,$$,34.185412,34.185412,1cuTX9oFxCNls_SQjOdrIw,COSTCO #677 MEAT DEPT,1051 W BURBANK BLVD,BURBANK,,,
223,Costco Wholesale,,"Wholesale Stores, Gas Stations",416,3.5,$$,33.85010707,33.85010707,fcCFBDV0Lq9c4iR-gcwH2A,COSTCO # 1050-WAREHOUSE,340 LAKEWOOD CENTER MALL,LAKEWOOD,,,
224,Hideaway Country Bar & Grill,,"American (Traditional), Bars",60,3.5,$,34.289093,34.289093,CDlvBVybOATkulL3yXFVHg,HIDEAWAY,12122 KAGEL CANYON RD,SYLMAR,,,
225,Saba Saba,,"Bars, Karaoke",2,1.5,,34.0576051,34.0576051,hsoN6rzsQ8A1YbMRNzEnLw,SABA SABA,3188 W 8TH ST,LOS ANGELES,,,
226,Baja Ranch Market,,"Grocery, Farmers Market",114,3,$,34.139434,34.139434,Wks9ibN2GCKS0nsfhgKPLw,BAJA RANCH SUPERMARKET DELI,328 W HUNTINGTON DR,MONROVIA,,,
227,Wendy's,,"Burgers, Fast Food",55,2.5,$,34.428,34.428,LHseZaGuHPd5AGHQ26tS9A,WENDY'S #4556,26538 BOUQUET CANYON RD,SANTA CLARITA,,,
228,,,,,,,,,,CIRCLE K MARKET,229 W 7TH ST,LOS ANGELES,,,
229,Alameda Liquor ,,"Beer, Wine & Spirits",44,4,$$,34.16674441,34.16674441,5VNwB1AtGAyFFjL7a8yHZA,ALAMEDA MARKET & DELI,929 S VICTORY BLVD,BURBANK,,,
230,Universal Bar & Grill,,"Sports Bars, American (Traditional), Music Venues",101,3,$,34.14384,34.14384,FVM8ZmE29NHlSpLwSZFU8A,UNIVERSAL BAR & GRILL,4093 LANKERSHIM BLVD,NORTH HOLLYWOOD,,,
231,Carl's Jr,,"Fast Food, Burgers",44,1.5,$,34.24316079,34.24316079,ge_Cxrhas-orvlbO9KV4bg,CARL'S JR,9505 SEPULVEDA BLVD,NORTH HILLS,,,
232,Coffee Commissary,,"Coffee & Tea, Bakeries",114,4,$,34.09816836,34.09816836,hLR7snMMN6uQugKFzdTIHA,COFFEE COMMISSARY,6087 W SUNSET BLVD,LOS ANGELES,,,
233,Vons,,Grocery,131,2.5,$$,34.0797486,34.0797486,_l7QbQG0Garql40JBzU--Q,VONS #3263,1342 N ALVARADO ST,LOS ANGELES,,,
234,Gourmand Meat and Fish Market,,"Butcher, Grocery",18,3.5,$$,34.17263,34.17263,LM2IcbU_OwHRgjrgizPnpA,GOURMAND,11009 BURBANK BLVD STE 125,NORTH HOLLYWOOD,,,
235,Krave Dine & Lounge,,Soul Food,6,3,,33.901546,33.901546,#NAME?,KRAVE DINE AND LOUNGE INC,2222 W ROSECRANS AVE,GARDENA,,,
236,Asahi Sushi,,"Sushi Bars, Japanese, Asian Fusion",1615,4,$$,34.25867162,34.25867162,v3tHPo5p19Zs952IQd53XQ,ASAHI SUSHI,10375 BALBOA BLVD,GRANADA HILLS,,,
237,The Craftsman Bar and Kitchen,,"Lounges, Music Venues, Burgers",413,4,$$,34.01328939,34.01328939,UZy83bL2wvzkTTjQLCkQow,THE CRAFTSMAN,119 BROADWAY,SANTA MONICA,,,
238,Local Ice,,"Desserts, Ice Cream & Frozen Yogurt",264,4.5,$,34.1459558,34.1459558,I3EQA625DyJGBQsqofys2A,LOCAL ICE,12747 1/2 VENTURA BLVD,STUDIO CITY,,,
239,Red Moon Restaurant & Lounge,,"Bars, Mediterranean, Middle Eastern",440,4,$$,34.15726,34.15726,_ihFopz0w76DNWLdN_WOKw,RED MOON LOUNGE,12516 RIVERSIDE DR,VALLEY VILLAGE,,,
240,Caffe Dell'arte,,"Coffee & Tea, Sandwiches, Burgers",70,4.5,$,34.0684336,34.0684336,XNkMk2hgyfOtCCUih5dYLg,CAFFE DELL ARTE,428 N BEDFORD DR,BEVERLY HILLS,,,
241,Daikokuya - Monterey Park,,"Ramen, Noodles, Soup",1514,4,$$,34.06293483,34.06293483,_N9hlXYLYmZ0uk2ZlV1Lvw,DAIKOKUYA MONTEREY PARK,111 N ATLANTIC BLVD STE 241,MONTEREY PARK,,,
242,Ta-eem Grill,,"Mediterranean, Kosher",1128,4.5,$$,34.0834879,34.0834879,1k6hSTQO9E4iSzwyx8yTUw,TA-EEM GRILL,7422 MELROSE AVE,LOS ANGELES,,,
243,Smart & Final,,"Grocery, Wholesale Stores",52,3.5,$$,34.15992,34.15992,NVIUmBJ3wUVozRaP3SBJww,SMART & FINAL #477,16847 VENTURA BLVD,ENCINO,,,
244,Panda Express,,"Chinese, Fast Food",65,2.5,$,34.05054029,34.05054029,0fbRSugvIWX-brVfpDIbMQ,PANDA EXPRESS INC.,630 W 5TH ST,LOS ANGELES,,,
245,,,,,,,,,,LA INTERNATIONAL MEAT MARKET,4008 E GAGE AVE,BELL,,,
246,Ralphs,,Grocery,349,3.5,$$,34.150088,34.150088,qqbrT6HJrzrM0Wkw6rlEPA,RALPHS #222 STARBUCKS,14049 VENTURA BLVD,SHERMAN OAKS,,,
247,Ross Dress for Less,,"Department Stores, Women's Clothing, Discount Store",47,2.5,$,34.42859,34.42859,tlI1wzv6p0piq3lHlzP39Q,ROSS STORES #090,26558 BOUQUET CANYON RD,SANTA CLARITA,,,
248,,,,,,,,,,CHRIS AND PITTS BAR B Q,11350 E WASHINGTON BLVD,SANTA FE SPRINGS,,,
249,,,,,,,,,,GLOBAL BEER INC,12020 S CENTRAL AVE,LOS ANGELES,,,
250,Bistro Beaux,,"Japanese, Bars, Italian",154,4,$$$,33.83243,33.83243,BzGCQH9GBJgJTKnplfvKaw,BEAUX,21605 S WESTERN AVE STE A,TORRANCE,,,
251,La Sirena Azul,,"Mexican, Seafood",73,4,$$,33.94572,33.94572,b7ayKhNZH_FnopORVrZDsA,LA SIRENA AZUL,4545 W CENTURY BLVD,INGLEWOOD,,,
252,,,,,,,,,,BON APPETIT- COUGAR WALK CAFE,901 E ALOSTA AVE,AZUSA,,,
253,,,,,,,,,,SAN MIGUEL MEAT MARKET,3790 E OLYMPIC BLVD,LOS ANGELES,,,
254,Ocean Front Market,,Grocery,7,2.5,$,33.99098173,33.99098173,4wYCpqQWf6pgPixV1eAZ7w,OCEAN FRONT MARKET,825 OCEAN FRONT WALK,VENICE,,,
255,Troubadour,,Music Venues,694,4.5,$$,34.0815641,34.0815641,U0e8yD4Dn9WoCHa1iENtRA,TROUBADOUR,9083 SANTA MONICA BLVD,WEST HOLLYWOOD,,,
256,Mimi's Cafe,,"Breakfast & Brunch, American (Traditional), French",500,3,$$,33.938708,33.938708,d27mW0M-s_iXgeC7eevgGw,MIMI'S CAFE,8455 FIRESTONE BLVD,DOWNEY,,,
257,,,,,,,,,,GOOD DONUTS,6001 S VERMONT AVE STE 8,LOS ANGELES,,,
258,7-Eleven,,"Convenience Stores, Coffee & Tea",13,1.5,$,34.11370991,34.11370991,_0unDNyC2D6ARH1mBI3i9Q,7-ELEVEN #34521A,1410 S GRAND AVE,GLENDORA,,,
259,Gaby's,,Mediterranean,121,3.5,$$,34.03212,34.03212,Vx1IrNiTkl15CqMLFVegNg,GABY'S FOUR,2901 LA CIENEGA BLVD,CULVER CITY,,,
260,Which Wich?,,Sandwiches,135,3,$$,34.149067,34.149067,W7vZUdfQglRbyNbIDOsJWw,WHICH WICH?,30734 RUSSELL RANCH RD STE A,WESTLAKE VILLAGE,,,
261,Ono Hawaiian BBQ,,"Barbeque, Hawaiian, Seafood",226,3.5,$,34.07875824,34.07875824,5WVJ74sndO-Xk0TK3z45uA,ONO HAWAIIAN BBQ,810 E VALLEY BLVD STE B,ALHAMBRA,,,
262,Barney's Beanery,,"Breakfast & Brunch, Gastropubs, Sandwiches",843,3,$$,34.18120354,34.18120354,FcJz0cpHjzI6Q9iWBWbQ5w,BARNEYS BEANERY,250 N FIRST ST,BURBANK,,,
263,,,,,,,,,,CITY HALL MARKET,1043 S PALOS VERDES ST,SAN PEDRO,,,
264,Hip Hot,,"Szechuan, Seafood",240,4,$$,34.068658,34.068658,PaTBFhBRwnJEWWJtCSo08w,HIP HOT,500 N ATLANTIC BLVD UNIT 149,MONTEREY PARK,,,
265,Super Fish Market,,Seafood Markets,28,3.5,$$,33.9355199,33.9355199,4ClwEjq2IAKusgFhzkEPLw,SUPER FISH MARKET,11007 S CRENSHAW BLVD,INGLEWOOD,,,
266,,,,,,,,,,LA LUZ MARKET,10064 MILLS AVE STE E,WHITTIER,,,
267,Dos Amigos Gardunos Mexican Restaraunt,,Mexican,78,3.5,$,33.9231814,33.9231814,FWXMw-Us6Asa6_qYlDYs0Q,GARDUNO'S MEXICAN ROOD,14567 E TELEGRAPH RD,LA MIRADA,,,
268,Domenico's Jr,,"Pizza, Delis, Italian",207,3.5,$,34.1373732,34.1373732,I0q_fo902NSpYw9jujJGlQ,DOMENICO'S JR,146 N GLENDORA AVE STE #103,GLENDORA,,,
269,Wako Donkasu,,"Korean, Japanese",592,3.5,$$,34.05260481,34.05260481,JicwLizIrqIvzn7LEBpHlQ,WAKO DONKASU,2904 W OLYMPIC BLVD,LOS ANGELES,,,
270,Starbucks,,Coffee & Tea,112,3,$,34.392123,34.392123,2gzadT78lXr0EJ1WrvDUuA,STARBUCKS COFFEE # 5308,25900 THE OLD RD,STEVENSON RANCH,,,
271,,,,,,,,,,JJ FAMILY MARKET,3524 W PICO BLVD,LOS ANGELES,,,
272,Panda Express,,"Fast Food, Chinese",130,2.5,$,34.03456069,34.03456069,73e84_36WWGccwlX_4W97w,PANDA EXPRESS #2299,751 RIO RANCHO RD,POMONA,,,
273,Original Tommy's World Famous Hamburgers,,"Burgers, Breakfast & Brunch, Hot Dogs",98,3,$,33.9737624,33.9737624,PnpyTOoB_e49BWiNiIERyA,TOMMY'S HAMBURGERS,7200 SEVILLE AVE,HUNTINGTON PARK,,,
274,Kang Nam Restaurant,,"Korean, Sushi Bars, Barbeque",143,3.5,$$,34.05451202,34.05451202,qkEKJgBhcBTCu5a3lgQ0-w,KANG NAM RESTAURANT,4103 W OLYMPIC BLVD,LOS ANGELES,,,
275,Main Event-La Coliseum,,Sporting Goods,2,3,$$$,34.01367,34.01367,CnNEDnnSbSJ3XCk_JgmCjg,LA COLISEUM C11B,3911 S FIGUEROA ST,LOS ANGELES,,,
276,Mexican Riviera Restaurant,,"Mexican, Diners",370,4,$,33.808789,33.808789,cot3TBu60u-3AfFZNW0J2g,MEXICAN RIVIERA RESTAURANT,4239 PACIFIC COAST HWY,TORRANCE,,,
277,,,,,,,,,,AFC SUSHI AT VONS 2262,710 BROADWAY,SANTA MONICA,,,
278,In-N-Out Burger,,"Burgers, Fast Food",198,4,$,34.704414,34.704414,faxXTR_fypr81HagZrdoCQ,IN-N-OUT BURGER #43,2021 W AVENUE I,LANCASTER,,,
279,Honey Donuts,,"Donuts, Juice Bars & Smoothies, Sandwiches",5,3,$,34.01693,34.01693,2O3qoRkjuoKj8e0-Jytswg,HONEY DONUTS,2812 E WASHINGTON BLVD,LOS ANGELES,,,
280,Golden Bowl,,"Asian Fusion, Japanese, Burgers",449,4,$,34.079388,34.079388,7cp-fQGyd_GOJcqEgrP4Zw,GOLDEN BURGER,207 E ROWLAND ST,COVINA,,,
281,Casa Jimenez,,"Mexican, American (Traditional)",173,3.5,$$,34.02077,34.02077,U3kmAiJ-mmpQliOfIdX3WA,CASA JIMENEZ,120 N 1ST ST,LA PUENTE,,,
282,7-Eleven,,"Convenience Stores, Coffee & Tea",3,3.5,$,34.1411368,34.1411368,IfIxSPEVJnBV6NkLOrPFNA,7-ELEVEN STORE # 36874A,420 S GLENDALE AVE #1,GLENDALE,,,
283,,,,,,,,,r0_C5zFCkkzuDXqmvZIQyw,NEW BAJA EXPRESS,11339 WASHINGTON BLVD,WHITTIER,,,
284,Wi Spa,,"Day Spas, Massage, Skin Care",3056,3.5,$$,34.06078378,34.06078378,iRUwvTofOiJVOXJCkB3tvw,WI SPA,2700 WILSHIRE BLVD,LOS ANGELES,,,
285,Palermo Italian Restaurant,,"Italian, Pizza",1561,4,$$,34.10481,34.10481,gAb-NtuNbNG8p2dqUMQGjw,PALERMO RESTAURANT,1858 N VERMONT AVE,LOS ANGELES,,,
286,Holy Cow BBQ - Culver City,,Barbeque,893,4,$$,34.0065,34.0065,PpdLX3fXtbeZpHxXciccAA,HOLY COW,4130 SEPULVEDA BLVD # B,CULVER CITY,,,
287,Guatemalteca Bakery & Restaurant,,"Bakeries, Latin American",157,3.5,$,34.20939,34.20939,3BsjnUEvWcCTK8Z5ZePWHQ,GUATELMATECA BAKERY,7630 VAN NUYS BLVD,VAN NUYS,,,
288,Mangiamo Ristorante,,Italian,311,4,$$$,33.884481,33.884481,HFuPoHbaq3hrVE58QYhPzg,MANGIAMO,128 MANHATTAN BEACH BLVD,MANHATTAN BEACH,,,
289,Garnish Cafe,,"American (New), Breakfast & Brunch, Bubble Tea",165,4,$$,34.122473,34.122473,tQwdbDfdlHOMcWMBNeoBVQ,GARNISH CAFE,2277 HUNTINGTON DR,SAN MARINO,,,
290,Sayuri,,Japanese,191,4,$$,34.069016,34.069016,drfBKgrDIfNxsgk3fluP0g,SAYURI,456 N BEDFORD DR,BEVERLY HILLS,,,
291,Splash Fruit,,Juice Bars & Smoothies,4,4.5,$,34.23758946,34.23758946,gU_joDPNQTUGlkzGEjR7rw,SPLASH FRUIT,9301 TAMPA AVE # 5515,NORTHRIDGE,,,
292,USC Shop Café,,Coffee & Tea,14,3.5,$,34.0184749,34.0184749,b17gs8dxq0XpYBb0iqRoMQ,USC SHOP CAFE,823 EXPOSITION BLVD,LOS ANGELES,,,
293,Grafton On Sunset,,Hotels,142,3,$$,34.094219,34.094219,mExRxNWqIOLOwDaWY1VTNw,GRAFTON ON SUNSET - RESTAURANT,8462 W SUNSET BLVD,WEST HOLLYWOOD,,,
294,,,,,,,,,,SKAI CAFE,1159 S VERMONT AVE,LOS ANGELES,,,
295,Los Tres Pollos,,"Mexican, Chicken Shop",54,4,$,33.90363,33.90363,hLYLz0BdimQZWOD0Y9nadg,LOS 3 POLLOS RESTAURANT,525 E ROSECRANS AVE,COMPTON,,,
296,,,,,,,,,,COFFEE AND DONUTS PENA,4343 LONG BEACH AVE,LOS ANGELES,,,
297,Papa John's Pizza,,Pizza,80,2,$,34.379399,34.379399,5ghzlLC2P4m1t8eQOvFZNA,PAPA JOHN'S PIZZA,23120 LYONS AVE STE 1,SANTA CLARITA,,,
298,Munchies Water & Juice,,Juice Bars & Smoothies,5,4.5,$,34.01981,34.01981,3924rLQx6u3exvkK_c-H_g,RIO'S PURE WATER & NATURAL,16012 E MAIN ST,LA PUENTE,,,
299,Tacos Al Vapor Estilo Guadalajara,,Mexican,31,3.5,$,34.00435585,34.00435585,iIc-cOPd0RykB6IAnMPM7g,TACOS AL VAPOR EL CANELO,4711 DURFEE AVE,PICO RIVERA,,,
300,Antojitos DF,,Mexican,27,4,$,34.01908493,34.01908493,Bgs-_j_3ZJrtRA3f6w1_-Q,ANTOJITOS DEL D.F.,4003 E OLYMPIC BLVD,LOS ANGELES,,,
301,Tamaleman House,,Mexican,23,3,$,33.91740525,33.91740525,tq58idDiKosXeaTVoym9Qg,DK DONUTS TAMALEMAN HOUSE,10633 IMPERIAL HWY,NORWALK,,,
302,Wienerschnitzel,,"Hot Dogs, Fast Food, Sandwiches",48,2.5,$,33.8587599,33.8587599,cIyYhCylICP0zOgCE4bTVQ,WIENERSCHNITZEL,11615 SOUTH ST,ARTESIA,,,
303,Taqueria El Tapatio,,"Mexican, Seafood",355,4,$,34.18489,34.18489,bpo4D4y291S844tVofbJjw,TAQUERIA EL TAPATIO,2501 W VICTORY BLVD STE D,BURBANK,,,
304,L&L Hawaiian Barbecue,,"Hawaiian, Barbeque",212,3.5,$,33.91797638,33.91797638,wN_P_QjY9URciKcY1f2QTA,L & L HAWAIIAN BARBECUE,12431 S NORWALK BLVD #C,NORWALK,,,
305,,,,,,,,,,DUARTE DRIVE THRU STORE,2444 E HUNTINGTON DR,DUARTE,,,
306,Calamigos Los Angeles,,Venues & Event Spaces,110,4.5,,34.16014032,34.16014032,R8IQGW3-RzKq7bVvo7zC9A,CALAMIGOS,480 W RIVERSIDE DR,BURBANK,,,
307,Crown Palace,,Dim Sum,45,3.5,$$,34.062156,34.062156,8vA-kvVwdyKl2f89dEnaCA,CROWN PALACE,7540 GARVEY AVE,ROSEMEAD,,,
308,Vintage Grocers,,"Grocery, Beer, Wine & Spirits, Meat Shops",201,4,$$,34.0312593,34.0312593,npgTlbT7Lbt_WmoiRCpMUQ,VINTAGE GROCERS DELI,30745 PACIFIC COAST HWY # 24,MALIBU,,,
309,Woody's BBQ,,Barbeque,132,3,$$,33.97429,33.97429,VbKt7P2cbJcSFn_3rhVRpg,WOODY'S BAR-B-QUE,1958 W FLORENCE AVE,LOS ANGELES,,,
310,Carniceria Guadalajara,,Meat Shops,12,4.5,$$,33.9665801,33.9665801,afaxEXaaq1WBeYL3B0MwVw,CARNICERIA GUADALAJARA,7876 SEVILLE AVE,HUNTINGTON PARK,,,
311,Classic Pizza,,"Italian, Pizza, Sandwiches",187,3,$,34.0233764,34.0233764,d4yHBOSfyhAznILtY2iWkw,CLASSIC PIZZA,2624 PICO BLVD,SANTA MONICA,,,
312,Yogurtland Los Angeles,,Ice Cream & Frozen Yogurt,401,4,$,34.068452,34.068452,zCb-TMzLt-UEJovx1DYOfA,YOGURTLAND,310 S LA BREA AVE STE A,LOS ANGELES,,,
313,Yepremian Hall,,Venues & Event Spaces,3,4.5,,34.1374321,34.1374321,Ua_nVmrdDRSVaApaxboOog,VAHAGN YEPREMIAN BANQUET,701 S CENTRAL AVE,GLENDALE,,,
314,Wienerschnitzel,,"Hot Dogs, Fast Food, Sandwiches",44,3,$,34.12905,34.12905,fsuHBob09uwytQKczGpCjA,WIENERSCHNITZEL #24,509 W ROUTE 66,GLENDORA,,,
315,,,,,,,,,,B. W. HOTEL LLC BANQUET KTICHEN,9500 WILSHIRE BLVD,BEVERLY HILLS,,,
316,SIR Pizza'n'chicken,,"Pizza, Salad, Sandwiches",199,3.5,$,34.09137,34.09137,kFz-QXCzoer1RprOwG1B4A,SIR PIZZA N CHICKEN,10300 LOWER AZUSA RD,EL MONTE,,,
317,Fast Taco,,Mexican,104,4,$,34.02003,34.02003,6CRTusHx-wJYMy3kw6BgJA,FAST TACO,2901 OCEAN PARK BLVD STE 115,SANTA MONICA,,,
318,7-Eleven,,"Convenience Stores, Coffee & Tea",12,2,$,34.19374273,34.19374273,9sjQOJ4xVMNfPiY8JV3vpA,SEVEN ELEVEN,6780 VINELAND AVE,NORTH HOLLYWOOD,,,
319,,,,,,,,,,RICHARD'S MARKET,3757 W 107TH ST,INGLEWOOD,,,
320,Umami Burger - Burbank,,"Burgers, American (New), Gastropubs",463,3.5,$$,34.15189,34.15189,igywcHU5NmeO-5z5GOAhqA,UMAMI BURGER,4300 RIVERSIDE DR,BURBANK,,,
321,El Super Taco,,Mexican,101,4,$,34.0010589,34.0010589,tw1z2PdRWwQqK-5MauMWJg,EL SUPER TACO,5010 ROSEMEAD BLVD,PICO RIVERA,,,
322,,,,,,,,,,ARCADE LIQUOR,4431 1/2 W SLAUSON AVE,LOS ANGELES,,,
323,Victory Plaza Dental,,"General Dentistry, Pediatric Dentists, Cosmetic Dentists",66,4.5,,34.18672497,34.18672497,UGwVC1ESgIuZFRIUkcA17A,VICTORY PLAZA HEALTH,13023 VICTORY BLVD,NORTH HOLLYWOOD,,,
324,Marty's Liquorama,,"Beer, Wine & Spirits",1,1,,33.90856,33.90856,9_hKUWojJZF9G9OBi9Ah9w,MARTY'S LIQUORAMA,13510 CRENSHAW BLVD,GARDENA,,,
325,La Union Restaurante,,Latin American,2,4.5,$,34.0401573,34.0401573,j2SlqLLGc_trInSK2h-9Ig,LA UNION CAFE,1050 S BROADWAY,LOS ANGELES,,,
326,,,,,,,,,,WILSHIRE UNION CONVENIENCE,1614 WILSHIRE BLVD # #102,LOS ANGELES,,,
327,Upper Crust Sandwiches & Pizza,,"Pizza, Sandwiches",94,4,$,34.6113052,34.6113052,7MsBJg_acp1oP-9Z-m1fIQ,UPPER CRUST,40117 10TH ST W # A,PALMDALE,,,
328,Puffect Bakery Cafe,,"Desserts, Bakeries, Cafes",293,4,$,34.01022,34.01022,B1PlLTlZmKLtmBhR7Mepww,PUFFECT BAKERY CAFE,385 S LEMON AVE # B,WALNUT,,,
329,,,,,,,,,,STAND 301 - ALL IN,1111 S FIGUEROA ST,LOS ANGELES,,,
330,Kaishin Malibu,,Chinese,142,3,$$,34.0336822,34.0336822,7XJyZJZWRbEp6HsOpGPImg,KAISHIN MALIBU,23715 MALIBU RD,MALIBU,,,
331,City Kitchen Express,,"Sandwiches, Coffee & Tea, Salad",44,3.5,$,34.0294391,34.0294391,cM7Rme4RUlL264xCcMrDvQ,CITY KITCHEN EXPRESS WATER G,1620 26TH ST # 1001,SANTA MONICA,,,
332,Ham Hung Restaurant,,"Korean, Soup, Noodles",181,3.5,$,34.05293,34.05293,QM0kiOPk-1zf4Pxz_pqTMQ,HAM HUNG RESTAURANT,3109 W OLYMPIC BLVD STE #A,LOS ANGELES,,,
333,Corner Bakery,,"Sandwiches, Breakfast & Brunch, Salad",203,3,$$,34.047843,34.047843,jgkM8Wm8yFuKP2Ira3qxJA,CONRER BAKERY CAFE #185,801 S FIGUEROA ST STE 150,LOS ANGELES,,,
334,Carl's Jr,,"Fast Food, Burgers",70,2,$,34.17239787,34.17239787,rxwPGYeQ3PSkoBOy7L32Yw,CARL'S JR #263,19400 VENTURA BLVD,TARZANA,,,
335,Montage Beverly Hills,,Hotels,418,4.5,$$$$,34.06778799,34.06778799,IIi3gWDTsJJOUZFK8kzzqw,MONTAGE BEVERLY HILLS - THE CAFE,225 N CANON DR,BEVERLY HILLS,,,
336,,,,,,,,,,THE ATTIC,2320 W CARSON ST,TORRANCE,,,
337,Las Chabelas,,Bars,2,2,,33.9073016,33.9073016,g_UCOXsL_m_ld4G3RalSzw,LAS CHABELAS,12614 S ATLANTIC AVE,LYNWOOD,,,
338,Wienerschnitzel,,"Hot Dogs, Fast Food, Sandwiches",62,3.5,$,34.23520154,34.23520154,MkBzzMzGaPTZhO_IZmPqdw,WIENERSCHNITZEL,18420 NORDHOFF ST,NORTHRIDGE,,,
339,,,,,,,,,,LMU EINSTEIN BAGELS & CARIBOU COFFEE,1 LMU DR MS 8420,LOS ANGELES,,,
340,Stater Bros. Markets,,"Grocery, Delis, Butcher",97,3.5,$$,34.09800054,34.09800054,zpvZ8amewLRFYRyTzoXVbA,STATER BROS. DELI DEPT.,1023 N GRAND AVE,COVINA,,,
341,,,,,,,,,,LAX AM/PM,7370 LA TIJERA BLVD,LOS ANGELES,,,
342,Sbarro,,"Italian, Pizza",26,2.5,$,34.03623691,34.03623691,weF6d2CegpW2eHwXC6_dKA,SBARRO THE ITALIAN EATERY,1608 MONTEBELLO TOWN CTR,MONTEBELLO,,,
343,Calimex Liquor Market,,"Beer, Wine & Spirits",1,4,,34.011318,34.011318,dAzOzQ4ga_n-6Eo3ID6LUg,CALIMEX LIQUOR MARKET,6600 E OLYMPIC BLVD STE,LOS ANGELES,,,
344,Chinese Express,,Chinese,1,2,$$,33.9020649,33.9020649,M4NRrOq-5bq_2jc9naIZZA,CHINESE EXPRESS,3255 W ROSECRANS AVE,HAWTHORNE,,,
345,,,,,,,,,,SAN ANTONIO MEAT MARKET,501 S FETTERLY AVE,LOS ANGELES,,,
346,El Marinero Family Restaurant,,"Mexican, Seafood, Wine Bars",76,3,$$,33.8877349,33.8877349,m2I9EtHBI7PrXHrgQHx0xw,EL MARINERO,11025 E ALONDRA BLVD,NORWALK,,,
347,El Tepeyac Cafe,,"Mexican, Cafes, Breakfast & Brunch",2228,4,$$,34.047744,34.047744,ZefFhlg3YlP2mG0Z6WVc0A,EL TEPEYAC FOOD PREP & STORAGE,812 N EVERGREEN AVE,LOS ANGELES,,,
348,Southern California Edison,,Utilities,452,1,,34.053972,34.053972,oaLyE2HS8wKSEHHUbud4qA,SOUTHERN CAL EDISON CAFE #1,2244 WALNUT GROVE AVE,ROSEMEAD,,,
349,,,,,,,,,,RIO PETROLEUM,11675 W PICO BLVD,LOS ANGELES,,,
350,Albert's Mexican Food,,Mexican,68,3,$,34.04043198,34.04043198,u1WZZcrdaNuVuS6f4VhP6Q,ALBERT'S MEXICAN FOOD,510 S WORKMAN MILL RD,LA PUENTE,,,
351,Carl's Jr,,"Fast Food, Burgers",100,2,$,34.16447768,34.16447768,dyUBD9UrKf0-A2Q5RYTdWw,CARLS JR #7382,1124 W GLENOAKS BLVD,GLENDALE,,,
352,,,,,,,,,,NATURAL LIFE DIET CENTER,13901 AMAR RD # #5,LA PUENTE,,,
353,India Sweet And Spice,,"Indian, Grocery",53,4.5,$,34.67459,34.67459,5h6ToaIOvxAbREEvxSA1Yw,INDIA SWEET & SPICES,1832 W AVENUE K,LANCASTER,,,
354,China Red,,"Dim Sum, Cantonese, Seafood",582,3.5,$$,34.1299505,34.1299505,K-d_R1fhjWYdAdwYNFOasw,RED CHINA RESTAURANT,855 S BALDWIN AVE,ARCADIA,,,
355,Bar Chloe,,"Lounges, Cocktail Bars",457,4,$$,34.013939,34.013939,fvxYLPOIFygM52LpkAVdQQ,CHLOE,1449 2ND ST,SANTA MONICA,,,
356,Tamales House,,Mexican,129,4,$$,34.2353851,34.2353851,O7G-WvOChk1dg8wbH-yyfg,CALIFORNIA TAMALE HOUSE,15404 NORDHOFF ST,NORTH HILLS,,,
357,Noor's Indian Bistro,,Indian,346,4,$$,34.1512034,34.1512034,Q7DKIivla54idPg1S-75gw,NOOR'S INDIAN BISTRO,106 S MYRTLE AVE,MONROVIA,,,
358,N101,,Vitamins & Supplements,107,4.5,$$,34.08887504,34.08887504,SKo4cFViajR9FSaysJfMsw,N101,6252 ROMAINE ST,LOS ANGELES,,,
359,7-Eleven,,"Convenience Stores, Coffee & Tea",10,2,$,33.99021726,33.99021726,zGhD2NNpEUb3g1fxAK7XPw,7- ELEVEN STORE #25286B,4010 LINCOLN BLVD,MARINA DEL REY,,,
360,Oki Dog,,"Hot Dogs, Fast Food",234,3,$,34.08706,34.08706,pmJWaHSBQIUypQYAHx8p0A,OKI DOG 3,860 N FAIRFAX AVE,LOS ANGELES,,,
361,,,,,,,,,,"GYB LA, LLC",3435 WILSHIRE BLVD STE 123,LOS ANGELES,,,
362,Chipotle Mexican Grill,,"Mexican, Fast Food",90,3,$,34.147958,34.147958,8npRTTYjWgcEf9lnBb1VXQ,CHIPOTLE MEXICAN GRILL,155 N BRAND BLVD,GLENDALE,,,
363,Oishi Teriyaki & Sushi,,Japanese,117,4,$,33.886324,33.886324,xDbGtLHbj0Vfj6iMN-KODg,OISHI TERIYAKI & SUSHI,16289 PARAMOUNT BLVD #D,PARAMOUNT,,,
364,Louisiana Fish Market,,"Grocery, Seafood Markets",3,4,$$,33.9017551,33.9017551,I-MFWjCpEHs4qzjuLEPSnw,LOUISIANA CAJUN FISH MARKET,1024 W ROSECRANS AVE,GARDENA,,,
365,Valley Marketplace,,"Grocery, Fruits & Veggies",131,3.5,$,34.19418,34.19418,DAYyi4b1SG020bCK8opXyQ,VALLEY PRODUCE & DELI,18345 VANOWEN ST,RESEDA,,,
366,,,,,,,,,,HILTON HOTEL CAFE LA,5711 W CENTURY BLVD,LOS ANGELES,,,
367,Bombay to Beijing,,"Indian, Chinese",182,4.5,$$,34.25016392,34.25016392,0zRuJib2E_-FFBGjH6hg9A,BOMBAY TO BEIJING,20861 LASSEN ST,CHATSWORTH,,,
368,Vincitore Italian Restaurant,,"Italian, Gluten-Free, Pizza",277,4.5,$$,34.156719,34.156719,JLMs2kt6c5rN7ty6v3hn9A,VINCITORE,5869 KANAN RD,AGOURA HILLS,,,
369,Mama Terano,,"Italian, Desserts, Salad",215,4,$$,33.76926272,33.76926272,Tr6W1Ciezmy7gp11uGqgIA,MAMA TERANO,815 DEEP VALLEY DR,ROLLING HILLS ESTATES,,,
370,Jarin Thai Cuisine,,Thai,195,4,$,34.16528,34.16528,ZNqUhzYsISlo8UJC_uG6tQ,JARIN THAI CUISINE,11235 MAGNOLIA BLVD,NORTH HOLLYWOOD,,,
371,Four Points Liquor & Market,,"Beer, Wine & Spirits",5,5,$$,34.54220581,34.54220581,Hlt2CUeH2vXEyUpijom2VQ,FOUR POINT LIQUOR MARKET,5510 PEARBLOSSOM HWY,PALMDALE,,,
372,Nic's Beverly Hills,,"American (New), Cocktail Bars, Beer Bar",676,4,$$$,34.07150083,34.07150083,Fk2S8UCP2lL_qn7UQJwCHA,NIC'S,453 N CANON DR,BEVERLY HILLS,,,
373,,,,,,,,,,SILVER CREST RESIDENCE,1530 5TH ST,SANTA MONICA,,,
374,Bodhi Vegetarian Supply,,Health Markets,34,4.5,$,34.07997063,34.07997063,hy_qIni-MGvNJD6GAvPaAw,BODHI VEGETARIAN SUPPLY,8450 VALLEY BLVD STE #106,ROSEMEAD,,,
375,Five Guys Burgers and Fries,,"Burgers, Fast Food",147,3,$$,34.0612822,34.0612822,s8_cb1ArVaRypkda__Gkvg,FIVE GUYS BURGERS & FRIES,1061 BROXTON AVE,LOS ANGELES,,,
376,Open Sesame,,"Mediterranean, Lebanese, Halal",763,4,$$,34.076017,34.076017,CTFZnhYe6t2tLv_NLHiE-w,OPEN SESAME,7458 BEVERLY BLVD,LOS ANGELES,,,
377,Downey Liquor,,"Beer, Wine & Spirits",20,4.5,$,33.9462367,33.9462367,IcgeGmB_qcx_JB6uTXlvlQ,DOWNEY LIQUOR,7617 FIRESTONE BLVD # 19,DOWNEY,,,
378,,,,,,,,,,BIG FISH MARKET,6520 CRENSHAW BLVD,LOS ANGELES,,,
379,Ralphs,,Grocery,112,2.5,$$,34.165539,34.165539,KG8oidZJ85SSZ2mQa7gN-w,KIKKA-RALPHS #063,12921 MAGNOLIA BLVD,SHERMAN OAKS,,,
380,The Green Olive,,Mediterranean,99,3.5,$,33.9902372,33.9902372,Qw5TUfyY6Qx60M_NvEKPdg,THE GREEN OLIVE,4840 S EASTERN AVE,COMMERCE,,,
381,Super China Express,,Chinese,33,3.5,$,34.07829522,34.07829522,Q81t3UJ9421N2kkAY5vkUw,SUPER CHINA EXPRESS,625 S BARRANCA AVE,COVINA,,,
382,ABC Cafe,,Chinese,507,2.5,$,34.06332532,34.06332532,7PkIskFLysjoIaOKtbFNWg,A B C CAFE,100 N GARFIELD AVE,MONTEREY PARK,,,
383,Shawn Cafe,,Szechuan,46,5,$$,34.1254,34.1254,H5_QLKJzbTlXNagkSSCRug,SHAWN CAFE,1220 S BALDWIN AVE,ARCADIA,,,
384,Edible Arrangements,,"Florists, Gift Shops, Chocolatiers & Shops",124,2,$$,34.4225578,34.4225578,FanpTi40A4JpLeKydTARmg,EDIBLE ARRANGEMENTS,23023 SOLEDAD CANYON RD,SANTA CLARITA,,,
385,Mariscos Corona,,"Mexican, Seafood",183,4.5,$$,34.2013949,34.2013949,mpHuk0qkvHj7nQsGY1aNEw,MARISCOS CORONA,14901 SHERMAN WAY,VAN NUYS,,,
386,Jim's Fallbrook Market,,"Grocery, Seafood Markets, Meat Shops",250,4.5,$$,34.1787591,34.1787591,3Pk76t-9WnEoVt988vCv-g,JIM'S FALLBROOK MARKET,5947 FALLBROOK AVE,WOODLAND HILLS,,,
387,,,,,,,,,,TOP'S BURGER,3838 E COLORADO BLVD,PASADENA,,,
388,,,,,,,,,,C4 CAFE.COM,109 N YALE AVE #R,CLAREMONT,,,
389,Mint Leaf Indian Cuisine,,"Indian, Wine Bars, Halal",539,4,$$,34.16952,34.16952,ZqaKAasvK2SljvEMYfoO7w,MINT LEAF,2535 E WASHINGTON BLVD,PASADENA,,,
390,,,,,,,,,,THE WINGS,1 WASHINGTON BLVD,VENICE,,,
391,Costco Wholesale,,"Wholesale Stores, Gas Stations",469,2.5,$$,33.99482722,33.99482722,3dgZo-gMovRMJsMVJ9N_EQ,COSTCO WHOLESALE #679-BAKERY,17550 E CASTLETON ST,INDUSTRY,,,
392,Luna's Bakery,,Bakeries,1,5,,33.9711656,33.9711656,bpnzYJGuloo1zsrfnnX59g,LUNA'S BAKERY,3910 FLORENCE AVE,BELL,,,
393,Taxco Fine Mexican Restaurant,,"Mexican, Desserts, Wine Bars",205,3.5,$$,33.7636455,33.7636455,tcNMYW9_h0Z06ll0axogVA,TAXCO RESTAURANT,29050 S WESTERN AVE STE #154,RANCHO PALOS VERDES,,,
394,El Unico Pollo Taquero,,Mexican,112,4,$,34.0910034,34.0910034,XWfORlNX1pPfXDHaQRp1Mw,EL POLLO TAQUERO,4481 SANTA MONICA BLVD,LOS ANGELES,,,
395,Gate of India,,"Indian, Seafood",464,4,$$,34.09762,34.09762,_7yPnesa9uq-yqbbqoleog,GATE OF INDIA,7300 W SUNSET BLVD STE D&E,LOS ANGELES,,,
396,Bras N Things,,Lingerie,1,5,,34.156952,34.156952,BFC3pVVzDsxgt9l0DS7FSA,PRES CHARLES N HUGGINS,14006 RIVERSIDE DR STE 24B,SHERMAN OAKS,,,
397,Mr Pollo,,"Peruvian, Latin American, Chicken Shop",992,4,$$,34.07964,34.07964,35XrC464wQpkoiToMok3Ew,MR POLLO,500 N AZUSA AVE STE 107,WEST COVINA,,,
398,Hong Kong Bowl,,Chinese,22,4.5,$,33.9600151,33.9600151,cygCM1bBclo3bPTbXtRbHg,HONG KONG BOWL,1632 E FIRESTONE BLVD,LOS ANGELES,,,
399,Natas Pastries,,"Portuguese, Cafes, Desserts",864,4,$$,34.1467788,34.1467788,Z1-Sy48hV5F01IQqbZZgjg,NATAS PASTRIES,13317 VENTURA BLVD STE #D,SHERMAN OAKS,,,
400,The Bicycle Hotel & Casino,,"Casinos, Hotels",345,3.5,$$,33.966167,33.966167,KYFAXpI92pNUzeeSRJSMVA,BICYCLE CASINO COFFEE BAR,888 BICYCLE CASINO DR,BELL GARDENS,,,
401,Racer's Edge Indoor Karting,,"Go Karts, Venues & Event Spaces, Arcades",544,3,,34.1816109,34.1816109,eGIsqdgGgNUjldVu5yl7Kg,RACER'S EDGE KARTING SNACK B,960 CHESTNUT ST,BURBANK,,,
402,Little Machinsito,,"Juice Bars & Smoothies, Mexican",45,4,$,34.03136,34.03136,Bsa4bk5rB_QKvUqjDgo7ng,LITTLE MACHINCITO,2901 WHITTIER BLVD,LOS ANGELES,,,
403,Hy Mart Sandwiches,,Sandwiches,893,4.5,$,34.157356,34.157356,oIp-DNXzOlEyzEUTgHkd_A,HY MART DELI,4795 VINELAND AVE STE C,NORTH HOLLYWOOD,,,
404,Tacos Maria's,,"Seafood, Mexican",20,4.5,$,34.0073547,34.0073547,t3Hm4REEFgKtTVWrfGfZug,TACOS Y MARISCOS MARIA'S,4611 ROSEMEAD BLVD,PICO RIVERA,,,
405,WeHo Bistro,,"French, Breakfast & Brunch, Cocktail Bars",734,4,$$,34.090055,34.090055,o2A0ppvV4zyXiernTLWpEA,WEHO BISTRO,1040 N LA CIENEGA BLVD,WEST HOLLYWOOD,,,
406,Subway Restaurants,,Sandwiches,5,2,$,33.918305,33.918305,-1EfCNClrHkpyGbCBWpvRw,SUBWAY #37614,11729 IMPERIAL HWY,NORWALK,,,
407,Thai Patio,,Thai,1386,3.5,$$,34.1018894,34.1018894,YmrWRkG__OYCwWReYOA0-g,THAI PATIO RESTAURANT,5273 HOLLYWOOD BLVD,LOS ANGELES,,,
408,Shell Gas Station,,Gas Stations,5,1.5,,34.09252,34.09252,cIn9A2MRDe2ZQSZgmq6KJw,KATHLEEN SHELL STATION,4405 N MAINE AVE,BALDWIN PARK,,,
409,,,,,,,,,,DAVENPORTS CAFE,3965 WESTERN AVE,LOS ANGELES,,,
410,Iron City Tavern,,"American (Traditional), Beer Bar, Salad",145,4,$$,33.7359051,33.7359051,RpQ5qn8IiHjav1G_rcABoQ,IRON CITY,589 W 9TH ST,SAN PEDRO,,,
411,,,,,,,,,,"HACOR, INC.",8506 OSAGE AVE,LOS ANGELES,,,
412,MVP Most Valuable Pizza,,"Pizza, Sandwiches, Beer, Wine & Spirits",41,3.5,$$,33.7390625,33.7390625,GP4Q8mPXCqWVLk1nypNThw,MVP PIZZA,525 S GAFFEY ST,SAN PEDRO,,,
413,Mid Town Market,,Grocery,2,4,$,34.05609276,34.05609276,0qB-PIKUoXfOG_bOjslpNw,MIDTOWN MARKET,2825 W JAMES M WOOD BLVD,LOS ANGELES,,,
414,Vons,,"Grocery, Pharmacy",48,3,$$,34.3774419,34.3774419,d8zudUHMbUakkpmamUEjMA,VONS DELI #2111,24160 LYONS AVE,NEWHALL,,,
415,Mendocino Farms,,"Sandwiches, Salad",583,4.5,$$,34.052725,34.052725,p--FkpK0aMeXKoMHVp1dQw,MENDOCINO FARMS,300 S GRAND AVE STE #LP41,LOS ANGELES,,,
416,Subway,,Sandwiches,49,3.5,$,34.05364644,34.05364644,EqwoBqZrNbzUDTr45e0z7A,SUBWAY -52105,255 S GRAND AVE STE 101,LOS ANGELES,,,
417,Lido Di Manhattan,,"Italian, American (New)",429,4,$$,33.90102,33.90102,yOMVkVbCLEfQfvURR4zCUg,LIDO DI MANHATTAN,1550 ROSECRANS AVE STE #G,MANHATTAN BEACH,,,
418,Thai's B B Q Express,,Barbeque,36,4,$,34.22104,34.22104,ELrjfIRgMaD5PvvIx3pjww,THAI BBQ EXPRESS,18455 ROSCOE BLVD,NORTHRIDGE,,,
419,Nokia Plaza,,Venues & Event Spaces,6,3.5,,34.04489,34.04489,qQLFumJtvPZfbS6XoEp9lw,CLUB NOKIA LEVEL 5 BAR,800 W OLYMPIC BLVD STE A335,LOS ANGELES,,,
420,Donut House,,Donuts,9,4,$,34.68917084,34.68917084,oSqTLbxq1jPe4mkZ6rL-ew,WIN'S DONUT HOUSE,132 E AVENUE J,LANCASTER,,,
421,House Of Kabob,,"Middle Eastern, Mediterranean",247,4,$$,34.599506,34.599506,v2GNtUt7NNGLW8C3ZUCxZQ,HOUSE OF KABOB,422 W RANCHO VISTA BLVD # B20,PALMDALE,,,
422,The Kickin' Crab- Lynwood,,"Cajun/Creole, Seafood",600,3.5,$$,33.929895,33.929895,ikEn56ZSpsEtst8jz32mMg,THE KICKIN CRAB,3170 E IMPERIAL HWY # B4,LYNWOOD,,,
423,Bionicos La Puente,,"Desserts, Juice Bars & Smoothies",13,4,$,34.039341,34.039341,Pv0InjufqYiExZ0bLezxQQ,BLONICOS LA PUENTE,1078 N HACIENDA BLVD,LA PUENTE,,,
424,Terikiss,,Japanese,31,3,$$,34.06317139,34.06317139,x89I5s_JYhJvtEdlCWyalw,TERIKISS,3500 W 6TH ST STE 228,LOS ANGELES,,,
425,WingStop,,Chicken Wings,232,2.5,$,,,,WING STOP #296,15211 HAWTHORNE BLVD,LAWNDALE,,,
426,Spires Restaurant,,"Breakfast & Brunch, American (Traditional), Desserts",113,3.5,$,33.8879491,33.8879491,E_ndZAFWyBs__cTW015Erw,SPIRES,15733 HAWTHORNE BLVD,LAWNDALE,,,
427,McDonald's,,"Fast Food, Burgers, Coffee & Tea",35,1.5,$,34.69330324,34.69330324,mbgm8P0irRkG1tnbNqWH9A,MCDONALD'S RESTAURANT,44665 VALLEY CENTRAL WAY,LANCASTER,,,
428,H Mart - Diamond Bar,,"Grocery, Korean, Food Court",464,4,$$,33.97432,33.97432,S52d6M9nRjZ9RtdPzgIlmA,SUPER H MART (MEAT DEPT),2825 S DIAMOND BAR BLVD,DIAMOND BAR,,,
429,,,,,,,,,,GENERAL NUTRITION CENTER#268,1600 S AZUSA AVE UNIT #134,INDUSTRY,,,
430,,,,,,,,,,BOAT ADVENTURE-BOAT,77 BERTH PORTS O CALL,SAN PEDRO,,,
431,McDonald's,,"Fast Food, Burgers, Coffee & Tea",81,2,$,34.071938,34.071938,BkWl3JIHxrkV5hIrwcKduA,MCDONALD'S,2145 MURCHISON AVE,POMONA,,,
432,Panda Express,,"Fast Food, Chinese",27,2.5,$,34.6898195,34.6898195,p4H5QwWoByep2lqG8GkCZA,PANDA EXPRESS #207,44411 VALLEY CENTRAL WAY,LANCASTER,,,
433,,,,,,,,,,MEAT DEPARTMENT,16940 DEVONSHIRE ST,GRANADA HILLS,,,
434,McDonald's,,"Burgers, Fast Food, Coffee & Tea",81,1.5,$,34.66062,34.66062,AcXKImdQ2yjoE764etbN-g,MCDONALD 12937,3015 W AVENUE L,LANCASTER,,,
435,Sprouts Farmers Market,,"Grocery, Health Markets, Organic Stores",216,3.5,$$,33.8067,33.8067,58r-SPdTFk-vafwHJlFLlg,SPROUTS MKT #204 (MEAT DEPT),4230 PACIFIC COAST HWY,TORRANCE,,,
436,HMS Bounty,,"Bars, American (Traditional)",566,4,$$,34.0619049,34.0619049,3XPZ8FhWuCFY8KJANpZ8jg,HMS BOUNTY,3357 WILSHIRE BLVD,LOS ANGELES,,,
437,Petrossian Restaurant & Boutique,,"Russian, French, American (New)",616,4.5,$$$,34.07776,34.07776,UCIxkz2Yd7DdN-Pw24W74A,PETROSSIAN,321 N ROBERTSON BLVD,WEST HOLLYWOOD,,,
438,Baskin-Robbins,,"Ice Cream & Frozen Yogurt, Desserts, Custom Cakes",41,3.5,$,34.39261046,34.39261046,KEYjSougJjE4fhCf8ECEzQ,BASKIN ROBBINS,25884 THE OLD RD,STEVENSON RANCH,,,
439,,,,,,,,,,S & J LIQUOR,925 CYPRESS AVE,LOS ANGELES,,,
440,Big Lots,,"Department Stores, Discount Store",25,3,$,34.14059169,34.14059169,pZh2MMq6RhiPiBc7LgFM6Q,BIG LOTS #4170,1325 E HUNTINGTON DR,DUARTE,,,
441,Vallarta Supermarkets,,Grocery,76,3,$,34.220364,34.220364,f2T-6oftt6dorXFyyXIZTw,VALLARTA SUPERMARKET #12,21555 ROSCOE BLVD,CANOGA PARK,,,
442,,,,,,,,,,CARNITAS MICHOACAN,13947 FOOTHILL BLVD STE #104,SYLMAR,,,
443,Ensenada Markets,,"Grocery, Check Cashing/Pay-day Loans, Mexican",23,3.5,$$,34.0364901,34.0364901,HA53ni_7oLf1vFhyi75mjw,ENSENADA MEAT MARKET #2,16047 E AMAR RD,LA PUENTE,,,
444,La Mas Live Poultry #3,,Butcher,2,5,$$,34.01899031,34.01899031,Di4iR-yT51EuV0aOs4ndRQ,LA MAS LIVE POULTRY #3,3659 E OLYMPIC BLVD,LOS ANGELES,,,
445,Raspados Y Churros Frutal,,Mexican,59,3,$,34.20136,34.20136,neS1ZURY9ljPmJFdR5ZpZA,FRUTAL Y SU COCINA,20849 SHERMAN WAY,WINNETKA,,,
446,Taron Bakery,,Bakeries,99,4,$,34.1327799,34.1327799,bMvq6Wvo3UuGQ9X0C5dm_Q,TARON BAKERY,1117 S GLENDALE AVE STE #D,GLENDALE,,,
447,J C Farm,,Fruits & Veggies,1,4,$,34.22481,34.22481,qUOTRuJaqCvsiddCAKno6w,JC FARM MARKET,8505 RESEDA BLVD,NORTHRIDGE,,,
448,Fish Outlet,,Outlet Stores,3,2.5,,33.8888349,33.8888349,6ZN88E18Rem5obycMIGYrw,FISH OUTLET,1703 E ALONDRA BLVD,COMPTON,,,
449,Chatime,,"Coffee & Tea, Bubble Tea, Juice Bars & Smoothies",391,4,$,34.107483,34.107483,HW-EmLlO4HHleDY43WHjAg,CHATIME,168 LAS TUNAS DR #103,ARCADIA,,,
450,Troy Burgers #8,,"Burgers, Breakfast & Brunch, Mexican",196,3.5,$,34.12215,34.12215,Cy1xvOG66kPxJcZeJ65Jrw,TROY DRIVE IN #8,4738 YORK BLVD,LOS ANGELES,,,
451,,,,,,,,,,LITTLE N.Y. GOURMET,4109 BEVERLY BLVD,LOS ANGELES,,,
452,Circle K,,Convenience Stores,9,3.5,$$,33.91727377,33.91727377,wyUYPszABGyuJNjuEn906w,CIRCLE K,9809 IMPERIAL HWY,DOWNEY,,,
453,Casa De Soria,,"Mexican, Sports Bars",390,4,$$,34.21986098,34.21986098,6i_RByAj7niYCSVubv1zlw,CASA DE SORIA #2,21911 ROSCOE BLVD,CANOGA PARK,,,
454,Main Event-La Coliseum,,Sporting Goods,2,3,$$$,34.01367,34.01367,CnNEDnnSbSJ3XCk_JgmCjg,LA COLISEUM UC22,3911 S FIGUEROA ST,LOS ANGELES,,,
455,City Xpress,,"Delis, Sandwiches",33,2.5,$,34.0585793,34.0585793,SmUkdp_3i1X0wQyzdnmajA,CITY EXPRESS,2049 CENTURY PARK E # DLC11,LOS ANGELES,,,
456,Hoa Viet Market,,International Grocery,47,4,$$,34.20187,34.20187,lgWGuu2sGbEd_1kpiOAJ-w,HOA VIET ORIENTAL MARKET,21001 SHERMAN WAY # 1-4,CANOGA PARK,,,
457,,,,,,,,,,WENDY'S 99~ STORE,4752 E CESAR E CHAVEZ AVE,LOS ANGELES,,,
458,Lucifers Pizza,,Pizza,549,4,$$,34.08365022,34.08365022,y0biTABmV6UmfFe2rOxYXA,LUCIFERS PIZZA,7123 W MELROSE AVE,LOS ANGELES,,,
459,,,,,,,,,,ZEENAS NUTRITION,2120 E 1ST ST,LOS ANGELES,,,
460,Ralphs,,"Grocery, Drugstores, Delis",100,3,$$,34.1543158,34.1543158,AeyJn-FCck34Sk_L0TZrMQ,RALPHS #205,4754 COMMONS WAY,CALABASAS,,,
461,Hercules Market,,Grocery,1,3,,33.9890058,33.9890058,RJG5kdznSpFIbFBPpNEoqA,HERCULES MARKET,726 SLAUSON AVE,LOS ANGELES,,,
462,AMC Marina Marketplace 6,,Cinema,171,3,,33.986036,33.986036,78xBET2ggEk2jYHRftRnUA,AMC THEATERS MARINA MARKETPLACE 6,4335 GLENCOE AVE,MARINA DEL REY,,,
463,,,,,,,,,,BABY NUTRITIONAL CENTER,6526 CRENSHAW BLVD,LOS ANGELES,,,
464,Los Equipales,,Mexican,93,4.5,$,34.32191467,34.32191467,XzHjh7-iv3odYco9UoEDdA,LOS EQUIPALES RESTAURANT,15963 YARNELL ST,SYLMAR,,,
465,Heaven Market,,Grocery,1,4,$$,34.06650222,34.06650222,WVyWSdlSR3gO-Fxxh1Banw,HEAVEN MARKET,266 S RAMPART BLVD,LOS ANGELES,,,
466,Ham Hung Korean Restaurant,,Korean,90,3.5,$$,33.997618,33.997618,pZzGtaYYCoBP7xASsnpjqw,HAM HUNG KOREAN RESTAURANT,20627 GOLDEN SPRINGS DR # #2A,DIAMOND BAR,,,
467,Subway,,Sandwiches,20,2.5,$,34.02496412,34.02496412,67zBQ4FEFpb2GjPwBK8nMA,SUBWAY #26899,1000 E WASHINGTON BLVD STE 118,LOS ANGELES,,,
468,China Grill Express,,Chinese,51,4,$,34.203094,34.203094,0lydZbzYocA3Q4O3KtNpDA,CHINA GRILL EXPRESS,7239 VAN NUYS BLVD,VAN NUYS,,,
469,El Rey Market,,Grocery,5,4,$,34.02574921,34.02574921,GAU9lkLW0xrDVJezIYCQ3g,EL REY MARKET,1471 W JEFFERSON BLVD,LOS ANGELES,,,
470,Mother's Nutritional Centers,,"Grocery, Health Markets",4,5,,33.9755644,33.9755644,KWXJ6j6YWniWNmy2o4wG1w,MOTHERS NUTRITIONAL CTR #412,7026 RUGBY AVE,HUNTINGTON PARK,,,
471,La Bamba,,"Salvadoran, Mexican",10,2.5,$$,34.30146027,34.30146027,QxxM6knvX1iUVCqwD3UDAw,LA BAMBA RESTAURANT,12777 SAN FERNANDO RD # 14-15,SYLMAR,,,
472,Sunset Plaza Liquors,,"Beer, Wine & Spirits",6,1.5,$$,34.09835,34.09835,qS2dbb2YbRCr-UaR78-dlA,SUNSET PLAZA LIQUOR,7365 W SUNSET BLVD,LOS ANGELES,,,
473,Jamba,,Juice Bars & Smoothies,95,3,$,34.005764,34.005764,q4t80K7o68i-QRjAwjDKyA,JAMBA JUICE #1407,100 CITADEL DR #203,COMMERCE,,,
474,Golden Eagle Venue and Catering,,"Venues & Event Spaces, Caterers",1,5,,34.06245,34.06245,EpoD7qL2yX1pR0g1jenFOA,GOLDEN EAGLE UNIVERSITY CLUB,5151 E STATE UNIVERSITY DR,LOS ANGELES,,,
475,Dyllan's Deli,,"Delis, Coffee & Tea, Juice Bars & Smoothies",13,4.5,$,34.05885156,34.05885156,iNd5um_yfFw2pSF1-E1GFg,DYLLAN'S DELI,10866 WILSHIRE BLVD,LOS ANGELES,,,
476,Thai Cuisine,,Thai,88,3.5,$$,33.83126255,33.83126255,EiyDpFiMXlZ3kDOCILv6Hg,THAI CUISINE,1756 E CARSON ST,CARSON,,,
477,Domino's Pizza,,Pizza,57,2.5,$,34.2178032,34.2178032,cbcD-t9u7pNZBDLMI9Na5A,DOMINO'S PIZZA,8126 SUNLAND BLVD,SUN VALLEY,,,
478,Philly Pizza & Grill,,"Pizza, Italian, Burgers",171,3.5,$,34.05907822,34.05907822,QkvSSeZy6YyCzqx2KRZR9w,PHILLY'S PIZZA & GRILL #1,8500 W OLYMPIC BLVD STE D,LOS ANGELES,,,
479,Lee's Kitchen,,Chinese,107,3.5,$$,33.79503289,33.79503289,IwdTkRq_DwrfA378vG8b0g,LEE'S KITCHEN,2880 PACIFIC COAST HWY,TORRANCE,,,
480,Shell Station,,Gas Stations,21,2,,34.79394,34.79394,jGRcIzz-kytKIRWRid_ukg,SHELL,49715 GORMAN SCHOOL RD,LEBEC,,,
481,,,,,,,,,,HANAMI,310 E GRAND AVE STE #111,EL SEGUNDO,,,
482,San Marco Coffee Roasting,,Coffee Roasteries,162,4,$,34.1853821,34.1853821,WgWDViA1ttDm2K6J8oyP8A,SAN MARCO ROASTING HOUSE,401 N GLENOAKS BLVD # A,BURBANK,,,
483,Winchell's Donuts,,"Donuts, Coffee & Tea, Sandwiches",37,3,$,34.04249,34.04249,g3xxu6evQTvRfvYUBS7IHA,WINCHELL'S DONUTS #9259,1700 S WESTERN AVE,LOS ANGELES,,,
484,Hot Spot Cafe & Pizza,,"Pizza, Sandwiches, Burgers",101,4,$,34.14660645,34.14660645,dKil1FUnzT5_0_GDiAmb2w,HOT SPOT CAFE & PIZZERIA,509 E BROADWAY,GLENDALE,,,
485,Sugar Rush Cafe,,"Breakfast & Brunch, Coffee & Tea, American (Traditional)",873,3.5,$$,34.04016101,34.04016101,sQcKe69dfH46fBYl0Hwslg,SUGAR RUSH CAFE,3900 VALLEY BLVD STE #A,WALNUT,,,
486,Sprouts Farmers Market,,"Grocery, Health Markets, Organic Stores",285,3.5,$$,33.868546,33.868546,CY5I7BrcpYP1pX4DRrgenA,SPROUTS DELI,1515 HAWTHORNE BLVD,REDONDO BEACH,,,
487,,,,,,,,,,SUPER HEALTH,21515 S WESTERN AVE # 177,TORRANCE,,,
488,,,,,,,,,,TRIMANA EXPRESS,1139 S HILL ST #AU- 140,LOS ANGELES,,,
489,Little Sister,,Vietnamese,1590,4,$$,34.04721535,34.04721535,gjPZZzmkVANey4vGFYmC7A,LITTLE SISTER @ DTLA,523 W 7TH ST,LOS ANGELES,,,
490,Subway,,Sandwiches,42,2,$,33.91668376,33.91668376,AlrelQ4dySG0jl7BaKT2jg,SUBWAY #24090,13238 IMPERIAL HWY,SANTA FE SPRINGS,,,
491,Wing Hop Fung,,"Tea Rooms, Beer, Wine & Spirits, Herbs & Spices",138,4,$$,34.06333,34.06333,-0jDeh02772CUQ-snseNpQ,WING HOP FUNG,725 W GARVEY AVE,MONTEREY PARK,,,
492,,,,,,,,,,MARISELA MINI MARKET,2146 W VENICE BLVD,LOS ANGELES,,,
493,,,,,,,,,,THE ZLICIOUS CATERING,1871 VENICE BLVD,LOS ANGELES,,,
494,Pizza Hut,,Pizza,104,3,$,34.04339087,34.04339087,8lQQT0nUv-sirt8R8FTzhg,PIZZA HUT,1251 N HACIENDA BLVD,LA PUENTE,,,
495,Jamba Juice,,Juice Bars & Smoothies,148,3,$,34.12677311,34.12677311,fKOxE-ZkWgLYD9qCKamk0Q,JAMBA JUICE #527,2919 LOS FELIZ BLVD STE 2,LOS ANGELES,,,
496,Tacos El Zorro,,Mexican,17,4,$,34.2014713,34.2014713,kj_AJ0gqRxGHi9MWp5_yPg,TACOS EL ZORRO,7207 VAN NUYS BLVD,VAN NUYS,,,
497,,,,,,,,,,COUNTRY LIQUOR MARKET,8109 GARFIELD AVE,BELL GARDENS,,,
498,Mama Petrillo's,,"Italian, Pizza",282,3.5,$$,34.10437,34.10437,BLPLOHcHnB42QYTfO4qbSg,MAMA PETRILLO'S,9082 LAS TUNAS DR,TEMPLE CITY,,,
499,Osborne Market,,"Beer, Wine & Spirits, Convenience Stores",4,4,,34.24212646,34.24212646,Wr9LUzsirN51-9tusVBuPA,OSBOURNE MARKET,13426 OSBORNE ST,PACOIMA,,,
500,Ralphs,,Grocery,149,3,$$,34.14418,34.14418,bpjhA4_xvhjb2LGlKVrfBw,RALPHS #701 - MEAT DEPT,12842 VENTURA BLVD,STUDIO CITY,,,
501,,,,,,,,,,CAFFE MODERNA,7607 S MAIN ST,LOS ANGELES,,,
502,Azteca Market,,Grocery,9,4,$$,33.95381437,33.95381437,DX5XZffUj4cmMukPpL_FVA,AZTECA MARKET,9020 LONG BEACH BLVD,SOUTH GATE,,,
503,McDonald's,,"Burgers, Fast Food, Coffee & Tea",148,1.5,$,34.051055,34.051055,CrV4-raupoRaN5bD2Guk4w,MCDONALD'S #682,1830 N HACIENDA BLVD,LA PUENTE,,,
504,Maggiano's Little Italy,,"Italian, Bars, Venues & Event Spaces",1895,4,$$,34.07353573,34.07353573,Kx_d7X7qjj9EoX-A7eC3gA,MAGGIANO'S 2ND FLOOR KITCHEN & BAR,189 THE GROVE DR STE Z-80,LOS ANGELES,,,
505,San Antonio Winery,,Wineries,1366,4,$$,34.0636861,34.0636861,HlKxlisBOQ80uO6vcetlBA,SAN ANTONIO WINERY,737 LAMAR ST,LINCOLN HEIGHTS,,,
506,Downey Supermarket,,Grocery,20,3,$,33.91044617,33.91044617,2xpkmPHnxxMC_ueI9mGyeQ,DOWNEY SUPER MARKET,13240 WOODRUFF AVE,DOWNEY,,,
507,,,,,,,,,,BISMILLAH MARKET,24400 WALNUT ST # E,NEWHALL,,,
508,Grey Block Pizza,,Pizza,335,3.5,$,34.0187471,34.0187471,W4KL3Q_AVGfRrWcwR60gKw,GREY BLOCK PIZZA-SANTA MONIC,1811 PICO BLVD,SANTA MONICA,,,
509,Vanessa's Bakery,,Bakeries,6,5,$,34.070591,34.070591,gOLp5SxP_Z9zb-dCFRUDYw,VANESSA'S BAKERY,2747 BEVERLY BLVD,LOS ANGELES,,,
510,Los Angeles Convention Center,,"Venues & Event Spaces, Party & Event Planning",364,3.5,,34.040329,34.040329,wFxDli2tlPCRbPU42S-o1g,LA CONVENTION CENTER MAIN KITCHEN - LACC,1201 S FIGUEROA ST,LOS ANGELES,,,
511,Wahoo's Fish Tacos,,"Seafood, Mexican",158,4,$,34.1719237,34.1719237,Ype7xIel-QIFpEyHuJRMoA,WAHOO'S FISH TACO,19960 VENTURA BLVD,WOODLAND HILLS,,,
512,Sacred Grounds,,"Coffee & Tea, Art Galleries",135,3.5,$,33.7389049,33.7389049,oz72MBfEPEWc28j1_RKUMQ,SACRED GROUNDS,468 W 6TH ST,SAN PEDRO,,,
513,Family Market,,Grocery,1,2,,34.043918,34.043918,2vZCEOm6FOTlxwICOaV7fg,FAMILY MARKET,4304 FLORAL DR,LOS ANGELES,,,
514,,,,,,,,,,GRAVITE' EAT HEAL LOVE,9107 W SUNSET BLVD,WEST HOLLYWOOD,,,
515,Sanzab Thai,,Thai,119,3.5,$$,34.0981449,34.0981449,7ginr1Hok61T8G6Ir4LXmA,SANZAB,7363 W SUNSET BLVD,LOS ANGELES,,,
516,Beni Kosher Market,,"Fruits & Veggies, International Grocery, Meat Shops",36,3.5,$$,34.17945784,34.17945784,Ruw9sAH6Ev3o1DZt4hacQg,BENI KOSHER MARKET,6003 FALLBROOK AVE,WOODLAND HILLS,,,
517,,,,,,,,,,DOLLAR FAMILY,4201 MONTCLAIR ST,LOS ANGELES,,,
518,,,,,,,,,,CHOICE CATERING,12548 CENTRALIA ST,LAKEWOOD,,,
519,,,,,,,,,,TAJABAN BAR,1338 S GAREY AVE # #B,POMONA,,,
520,Julian's Tortilleria,,Mexican,356,4,$,33.83181381,33.83181381,ztm3t2M127fSXHisK2z1vw,JULIAN'S MEXICAN FOOD PROD,12321 E CARSON ST STE 10,HAWAIIAN GARDENS,,,
521,Ganache Patisserie & Cafe By Nicol,,"Cafes, Desserts",398,3.5,$$,34.06422424,34.06422424,aigjHWVhkyERgoIeZqhltg,GANACHE PATISSERIE AND CAFE,141 N ATLANTIC BLVD STE 102,MONTEREY PARK,,,
522,L.A. Water/ Balut-Hot Vit Lon,,Specialty Food,10,3.5,$$,34.0811462,34.0811462,XqXZ078vDbL__P7eR1Z_yQ,L.A. WATER & DUCK EGGS,9241 VALLEY BLVD STE #106,ROSEMEAD,,,
523,Black And White Tobacco,,Tobacco Shops,1,5,,33.81338462,33.81338462,xaOo036QiUJW2pAHsN2BnA,BLACK & WHITE TOBACCO AND MERCHANDISE,23415 AVALON BLVD,CARSON,,,
524,Pho 75,,Vietnamese,35,3.5,$,34.1193272,34.1193272,Gdq09uiGrg9lMeKkuAkt2Q,PHO 75 INC,5528 YORK BLVD,LOS ANGELES,,,
525,Tacos El Patron,,Food Trucks,32,4,$,34.28797342,34.28797342,vfrs2MrX-fptHCsCJzEU3A,TACOS EL PATRON RESTAURANT,527 N MACLAY AVE,SAN FERNANDO,,,
526,San Carlo Italian Deli,,"Delis, Pizza, Sandwiches",669,4.5,$$,34.25507136,34.25507136,K8THNIocx7LXuVMI7ifykw,SAN CARLO DELI,10178 MASON AVE,CHATSWORTH,,,
527,Temple Beth Am,,Synagogues,5,5,,34.05828478,34.05828478,I6WHRTtglYW2kWPbNodKHA,TEMPLE BETH AM,1039 S LA CIENEGA BLVD,LOS ANGELES,,,
528,Lemon Tree Kids and Family Restaurant,,"Italian, Korean, Venues & Event Spaces",270,4,$$,34.06298808,34.06298808,8XinGGRqxXrMHmpZvl5iRA,LEMON TREE,621 S WESTERN AVE #111,LOS ANGELES,,,
529,Hannam Chain Market World,,"Grocery, Fruits & Veggies, Seafood Markets",99,2.5,$$,33.9995264,33.9995264,LwRKHd7FZ2JsByQ1_Ur2Og,MARKET WORLD,21080 GOLDEN SPRINGS RD,WALNUT,,,
530,,,,,,,,,,N. Y. B. D,11700 W NATIONAL BLVD #G,LOS ANGELES,,,
531,Matthew's Garden Cafe,,"Cafes, Breakfast & Brunch, Caterers",294,4,$$,34.046441,34.046441,Wv_nDEQBDJSRIw87REs6Rg,MATTHEW'S GARDEN CAFE,859 1/2 SWARTHMORE AVE,PACIFIC PALISADES,,,
532,,,,,,,,,,CAFE EXPRESS,15012 PIONEER BLVD,NORWALK,,,
533,Shan Social House,,"Japanese, Asian Fusion, Sushi Bars",135,4.5,$$$$,34.06840211,34.06840211,fQ0zUiBfgZ9wyu1O4jHv9w,SHAN RESTAURANT,134 N LA CIENEGA BLVD,BEVERLY HILLS,,,
534,Lynwood Farmers Market,,Meat Shops,9,3,$,33.910854,33.910854,ZK_JmEsLv_Sj7JdsFZ9tiw,LYNWOOD FARMERS MEAT MARKET,12301 S ATLANTIC AVE,LYNWOOD,,,
535,,,,,,,,,,MARSHALL STORE #292,6221 BRISTOL PKWY,CULVER CITY,,,
536,Carl's Jr,,"Fast Food, Mexican",36,2,$,33.75901904,33.75901904,2TqYZNga-WtofU19OSqiaA,CARL'S JR. #372,28619 S WESTERN AVE,RANCHO PALOS VERDES,,,
537,Pho Ngoon,,Vietnamese,504,4,$,34.08036815,34.08036815,z14-yNZHvSzz5VqLUpALoQ,PHO NGOON,741 E VALLEY BLVD,SAN GABRIEL,,,
538,The Bigg Chill Frozen Yogurt,,Ice Cream & Frozen Yogurt,705,4,$,34.04372738,34.04372738,skwycJSHgMmxRK8plNOiLQ,THE BIG CHILL,10850 W OLYMPIC BLVD,LOS ANGELES,,,
539,Malibu Ranch Market,,"Beer, Wine & Spirits, Sandwiches, Convenience Stores",29,4,$,34.0170701,34.0170701,DXmCqKhmKuVRVHumKCP4dg,MALIBU RANCH MARKET,29575 PACIFIC COAST HWY STE #H,MALIBU,,,
540,Hunan Spicy Taste Restaurant,,Chinese,96,3,$$,34.10413742,34.10413742,_jfLCyqnWqcjrEYzRmLu3w,HUNAN SPICY TASTE,120 N SAN GABRIEL BLVD STE C&D,SAN GABRIEL,,,
541,Sushi Boy,,"Japanese, Sushi Bars",33,3,$,33.8720799,33.8720799,aD6VyM7ZCD-NCOncCnI6kA,SUSHI BOY/UNCLE,1740 W ARTESIA BLVD STE B,GARDENA,,,
542,J & J Liquor,,"Beer, Wine & Spirits",1,1,$$,33.8891651,33.8891651,AVngnwIk_uwUYXZlWkdRlw,J & J LIQUOR,9402 ALONDRA BLVD,BELLFLOWER,,,
543,Mariscos La Paz,,Mexican,41,3,$,33.78751,33.78751,#NAME?,LA PAZ MARISCOS,1227 N AVALON BLVD,WILMINGTON,,,
544,Sunrise Café,,"American (Traditional), Diners, Breakfast & Brunch",1001,4,$$,33.83256304,33.83256304,xv86w7JMIk-XCI4GK22jJA,SUNRISE CAFE,4101 N LAKEWOOD BLVD,LAKEWOOD,,,
545,,,,,,,,,,KIKKA SUSHI,1 LMU DR,LOS ANGELES,,,
546,Palace Surplus,,Convenience Stores,8,4.5,$,33.93145479,33.93145479,CkY0FW79mQJqGeImCsiu7Q,PALACE SURPLUS INC,11312 S PRAIRIE AVE,INGLEWOOD,,,
547,Apollo Super Burgers,,Burgers,87,3,$,34.10663,34.10663,r2vUSLcPh_IY-Irex5_7dQ,APOLLO SUPERBURGERS,9644 LAS TUNAS DR,TEMPLE CITY,,,
548,Mendocino Farms,,"Salad, Sandwiches",479,4.5,$$,34.02123182,34.02123182,8m7LfA9274dVS1wFkcEg2A,MENDOCINO FARMS,631 WILSHIRE BLVD STE E,SANTA MONICA,,,
549,Grove Dog,,Hot Dogs,26,1.5,$$,34.072094,34.072094,QZxSA5d9j95Wc-3YT6bvUA,THE GROVE DOG,189 THE GROVE DR #K4,LOS ANGELES,,,
550,Sunny Grill,,American (Traditional),319,4,$,34.00594,34.00594,j1FFB3WnLc09H8YR0N1jkQ,SUNNY GRILL,12035 VENICE BLVD,LOS ANGELES,,,
551,Shell,,"Auto Repair, Gas Stations, Convenience Stores",9,1.5,$$,34.13397,34.13397,p60qcd7dCtCUZvzDlUMW4g,EVA'S SHELL,1195 W FOOTHILL BLVD,AZUSA,,,
552,Pick Up Stix,,"Chinese, Asian Fusion",112,3.5,$,33.8649142,33.8649142,UUw3itVlMXPrH8rWvXQOig,PICK UP STIX 7308,703 PIER AVE STE A,HERMOSA BEACH,,,
553,Arde's Bistro,,Mediterranean,160,4,$$,34.15252,34.15252,fdPuQ9hUVAlZHS9uFU804A,ARDE'S BISTRO,4315 W RIVERSIDE DR,BURBANK,,,
554,Wok Inn,,Chinese,6,4,,34.06267239,34.06267239,Lvew_JKcfLyhCpAg4O_cPQ,WOK-INN,10472 GARVEY AVE,SOUTH EL MONTE,,,
555,Furusato Bbq Restaurant,,"Korean, Barbeque, Do-It-Yourself Food",967,2.5,$$,33.88165,33.88165,bO0UG8mK-zgW5Nchz8SekA,FURUSATO BBQ RESTAURANT,16410 S WESTERN AVE,GARDENA,,,
556,J's Kitchen,,Vegan,22,3,$$,33.99140351,33.99140351,yDBSBAL6TFPbyvKgzDSLgg,BOOST KITCHEN RESTAURANT/BAR,1239 ABBOT KINNEY BLVD,VENICE,,,
557,Mariscos 4 Vientos,,"Seafood, Mexican, Beer Bar",175,4,$,34.01821,34.01821,r_o3jhOoXSp33fvb8cXJ5g,MARISCOS & VIENTOS #4,1412 S LORENA ST,LOS ANGELES,,,
558,Badang,,Sushi Bars,2,4,$,33.832928,33.832928,tt4EHKm7xsD3-lFZgdz2BA,ZION BADANG SUSHI,12565 CARSON ST,HAWAIIAN GARDENS,,,
559,Adelita Bakery,,Bakeries,9,4.5,$,33.89682,33.89682,qjpcc6Kq5pRwh_8-F6bySw,LA NUEVA ADELITA,14807 S WESTERN AVE,GARDENA,,,
560,Boardwalk 11 Karaoke Bar and Grill,,"Karaoke, American (New), Gastropubs",398,4,$$,34.029245,34.029245,QeitU_aZKObsps3RBDmfUQ,BOARDWALK 11,10433 NATIONAL BLVD,LOS ANGELES,,,
561,Swork Coffee,,Coffee & Tea,748,4,$$,34.138875,34.138875,qxP8rV9VbmWU_jEdewb34Q,SWORK,2160 COLORADO BLVD,LOS ANGELES,,,
562,Coover Pharmacy,,Drugstores,9,4,$$,33.7358577,33.7358577,XgOkU283FjcpEF4ayhyP9A,COOVER PHARMACY,891 W 9TH ST,SAN PEDRO,,,
563,Olympic Spa,,"Massage, Day Spas, Skin Care",1038,4,$$,34.05389,34.05389,mVbyp6sRLgjO4_uwXn4lgw,OLYMPIC SPA,3915 W OLYMPIC BLVD,LOS ANGELES,,,
564,Berry Bowl,,"Juice Bars & Smoothies, Coffee & Tea, Acai Bowls",501,4,$,34.12096453,34.12096453,HA3ZONFJZ5pfg93lxCAqUQ,BERRY BOWL,5056 YORK BLVD,LOS ANGELES,,,
565,,,,,,,,,,HAWK II ENVIROMENTAL CORP,2321 S HACIENDA BLVD,HACIENDA HEIGHTS,,,
566,Tasty Choice,,"Burgers, Fast Food",135,3.5,$,34.02731,34.02731,DXvus_QqPQRHoBzY5pZEng,TASTY CHOICE,551 N AZUSA AVE,LA PUENTE,,,
567,Panaderia Las Americas,,Bakeries,5,4.5,,34.2215949,34.2215949,ZR1_oNPLlwyst2bfFR1PBw,LAS AMERICAS 2,15047 ROSCOE BLVD,PANORAMA CITY,,,
568,La Sirena Grill,,"Mexican, Bars",591,4,$$,33.9067136,33.9067136,rKTzlZZK_So1t2B-8pkC9A,LA SIRENA GRILL & CANTINA,710 S ALLIED WAY UNIT UNIT,EL SEGUNDO,,,
569,Neiman Marcus,,"Shoe Stores, Men's Clothing, Women's Clothing",305,3.5,$$$$,34.06675,34.06675,BDi9Xgyb4r56Jzo5xIvjgQ,NEIMAN MARCUS MARIPOSA,9700 WILSHIRE BLVD,BEVERLY HILLS,,,
570,Steve's Bigger Subs,,Sandwiches,110,4,$,34.152402,34.152402,eoU9BarybWQ41iMqxh1Wxw,STEVE'S BIGGER SUBS,4533 SEPULVEDA BLVD,SHERMAN OAKS,,,
571,,,,,,,,,,WEST BEER STAND,5550 PEARBLOSSOM HWY,PALMDALE,,,
572,Blue Hen,,"Vegetarian, Vietnamese, Gluten-Free",333,3.5,$$,34.1395697,34.1395697,RxwQOU_jQgyE7biYi1aZZg,BLUE HEN RESTAURANT,1743 COLORADO BLVD,LOS ANGELES,,,
573,Durango Burger 2,,"Burgers, American (Traditional)",22,4,$,33.93695132,33.93695132,qFZxdhUYzZHN2Ztu0UdKww,DURANGO BURGERS,10810 S PRAIRIE AVE UNIT #A,INGLEWOOD,,,
574,India Sweets & Spices,,Indian,288,4,$,34.2011549,34.2011549,IU9cJp-dTD2lnpR8_Swfow,INDIA SWEETS & SPICES,22009 SHERMAN WAY,CANOGA PARK,,,
575,Focus Room Cafe,,"Breakfast & Brunch, Sandwiches",2,3,$$,34.15810308,34.15810308,mvw8D8707_Clo2EQuTUBbQ,FOCUS ROOM CAFE,4001 W OLIVE AVE,BURBANK,,,
576,Maria's Grill,,"Mexican, Bars",81,4,$$,33.910753,33.910753,WbiuIfLwhMNIC6xd4JkPeg,MARIA'S GRILL,13232 1/2 WOODRUFF AVE,DOWNEY,,,
577,Dilliwala Indian Kitchen,,Indian,515,4.5,$$,34.019494,34.019494,bWL-tYADpljo8pjgH7Ho4A,DILLIWALA,303 S DIAMOND BAR BLVD STE G,DIAMOND BAR,,,
578,Hook Burger,,Burgers,314,4,$$,34.14773642,34.14773642,MmOQUcP7nrjWxNqQDRf-IA,HOOK BURGER,30768 RUSSELL RANCH RD UNIT A,WESTLAKE VILLAGE,,,
579,,,,,,,,,,CAFE X20,2445 FOOTHILL BLVD STE #A,LA VERNE,,,
580,Wingstop,,Chicken Wings,184,3,$,34.20551766,34.20551766,uGKXwAVud2pTZffyB_-WKA,WINGSTOP,1975 VERDUGO BLVD #C,LA CANADA FLINTRIDGE,,,
581,Dollar Dollar,,Discount Store,1,2,,34.2170105,34.2170105,8GhbmF85RsTkTLDGd59sjg,DOLLAR DOLLAR,8045 VINELAND AVE,SUN VALLEY,,,
582,,,,,,,,,,STARBUCKS COFFEE #5502,530 N PACIFIC COAST HWY,EL SEGUNDO,,,
583,Burger Lounge,,Burgers,398,4,$$,34.0623713,34.0623713,EVsU4h2dAaLAyuYKScwDSw,BURGER LOUNGE,281 S BEVERLY DR,BEVERLY HILLS,,,
584,Kristy's Roadhouse Malibu,,"Barbeque, American (Traditional)",11,4,$$,34.11794,34.11794,ojnJqMUkuMe1KTLbnAL7-g,KRISTY'S MARKET & GRILL GRILL,2598 SIERRA CREEK RD,AGOURA HILLS,,,
585,Courtyard by Marriott,,"Hotels, Venues & Event Spaces",142,3,$$,34.15486,34.15486,5-TskkGrSErc5cJrAEIAdA,COURTYARD BY MARRIOTT,15433 VENTURA BLVD,SHERMAN OAKS,,,
586,Produce Patch,,Fruits & Veggies,2,5,$,33.96379852,33.96379852,p-NmB5ozWGyYIQ_l-QgzvQ,THE PRODUCE PATCH,8542 NORWALK BLVD,LOS ANGELES,,,
587,,,,,,,,,,JACK'S SNACK SHOP,6230 SYLMAR AVE,VAN NUYS,,,
588,McDonald's,,"Burgers, Fast Food, Coffee & Tea",103,2,$,33.90250332,33.90250332,I0h20lNDpGi-uTANA79Upg,MCDONALD'S RESTAURANT,11053 ROSECRANS AVE,NORWALK,,,
589,Sushi Koo,,Sushi Bars,394,3.5,$,34.0729904,34.0729904,kXe4_Syy3qwwFDbrDeOPeQ,SUSHI KOO,8474 W 3RD ST STE #106,LOS ANGELES,,,
590,,,,,,,,,,OUMI SUSHI @ SPROUTS 257,4253 WOODRUFF AVE,LAKEWOOD,,,
591,Utro's Cafe,,"Seafood, Burgers, Dive Bars",105,3.5,$$,33.73179927,33.73179927,CKrNpxXvQaiwTnGGtwD0-w,UTRO'S AT THE WHARF,73 BERTH PORTS O CALL,SAN PEDRO,,,
592,,,,,,,,,,BONJUK,3551 WILSHIRE BLVD,LOS ANGELES,,,
593,Tutti Frutti,,Ice Cream & Frozen Yogurt,4,2.5,$,33.97746,33.97746,PA8jWkdJUJGW5_KtRyx1ag,TUTTI FRUTTI,6811 PACIFIC BLVD,HUNTINGTON PARK,,,
594,,,,,,,,,,TARGET TERRACE SOUTH BAR,800 W OLYMPIC BLVD STE A335,LOS ANGELES,,,
595,Golden Wok Chinese,,Chinese,20,3.5,$,34.0867929,34.0867929,ZUhnoSHYMY5Fo8wvkhCr_Q,GOLDEN WOK CHINESE FOOD,119 N VINCENT AVE,COVINA,,,
596,Ensenada Restaurant,,Restaurants,1,5,,33.8818779,33.8818779,qh0voKoOix9PHl5lB-ke9Q,ENSENADA RESTAURANT,853 W GARDENA BLVD,GARDENA,,,
597,Hierve El Agua,,"Mexican, Diners, Breakfast & Brunch",15,5,,34.05459192,34.05459192,resFgRfDM_G07ekamoUHXw,HIERVE EL AGUA,2005 W 8TH ST,LOS ANGELES,,,
598,Mian Yuan,,"Coffee & Tea, Dim Sum, Bakeries",5,5,$$,33.9884071,33.9884071,n_QTcyHwBP6T-iD7sB-ovw,MIAN YUAN FOOD STATION,18475 COLIMA RD,ROWLAND HEIGHTS,,,
599,Boba Ya,,"Coffee & Tea, Bubble Tea, Shaved Ice",183,3.5,$,33.8976602,33.8976602,5Eie_Ur15XLkEvddv9vnXw,BOBA YA,14748 S BEACH BLVD,LA MIRADA,,,
600,Pho Ever Restaurant,,"Vietnamese, Sandwiches, Soup",1062,4,$,33.901477,33.901477,BE9n1NGLQGoz9bBOgi0b7g,PHO EVER BISTRO BANH MI EVER,2228 W ROSECRANS AVE,GARDENA,,,
601,Cafe Touba,,Juice Bars & Smoothies,1,5,,34.05966568,34.05966568,Coc5G_wReRvHNyzAGUKUWg,CAFE TOUBA,2065 W 6TH ST STE 115,LOS ANGELES,,,
602,Las Coronas Grill,,Mexican,58,3.5,$,33.97991549,33.97991549,YLzM7Bw1PzFDz1y01fODMA,LAS CORONAS GRILL,3340 GAGE AVE,HUNTINGTON PARK,,,
603,Bailey's Liquor Beverage,,"Beer, Wine & Spirits",9,4,$$$$,33.98514938,33.98514938,H9YvdGKz47nQqcTD8Fhc1A,BAILEY'S BEVERAGE CORNER,11415 WHITTIER BLVD,WHITTIER,,,
604,Yoshinoya,,Japanese,68,2.5,$,34.23804547,34.23804547,BB0MMlGKfjrJsljb9g-_PA,YOSHINOYA,9157 DE SOTO AVE STE A,CHATSWORTH,,,
605,The Habit Burger Grill,,"Burgers, Salad, Sandwiches",159,3.5,$,34.111743,34.111743,OVgYuW-EDwW6WEItODiIbg,THE HABIT BURGER GRILL,470 N LONE HILL AVE,SAN DIMAS,,,
606,,,,,,,,,,LONG'S MARKET,4876 W ADAMS BLVD,LOS ANGELES,,,
607,Mariscos El Viejito,,"Mexican, Seafood",84,4,$$,34.23772049,34.23772049,HguVGHi-FAxjVs08fpamuQ,MARISCO EL VIEJITO #2,9311 SAN FERNANDO RD # 109,SUN VALLEY,,,
608,,,,,,,,,,WING LI RESTAURANT INC.,636 E COMPTON BLVD,COMPTON,,,
609,Plum Tree Inn,,Chinese,457,4,$$,34.0644533,34.0644533,NYOnYqs9pj8rGq-1OwyDWg,PLUM TREE INN,913 N BROADWAY,LOS ANGELES,,,
610,Danny's Fresh Meat Produce,,"Meat Shops, Butcher",95,4.5,$$,34.19338289,34.19338289,s2fbL-sTerC9lh8WlZHUtw,DANNY'S FRESH MEAT & PRODUCE,17648 VANOWEN ST,VAN NUYS,,,
611,Xen Lounge,,"Lounges, Southern, American (New)",331,3,$$,34.13763,34.13763,dyQ31oG_KGNC9gGTT84qzQ,XEN RESTAURANT,10628 VENTURA BLVD,STUDIO CITY,,,
612,It's Boba Time,,"Juice Bars & Smoothies, Bubble Tea, Acai Bowls",390,3,$,34.073732,34.073732,mADMsgD7sfrAO2ua5C1rWQ,BOBA TIME,125 N WESTERN AVE STE 103,LOS ANGELES,,,
613,Gyu-Kaku Japanese BBQ,,"Japanese, Barbeque, Asian Fusion",938,3.5,$$,34.19099499,34.19099499,a2RYTS9dc0-jsjSTWIaWmA,GYU-KAKU RESTAURANT,6600 TOPANGA CANYON BLVD UNIT 1010,CANOGA PARK,,,
614,Lucky Noodle King,,"Noodles, Szechuan, Soup",217,3.5,$,34.07966,34.07966,uXii3kHq8HdzQU3vGV_lAA,LUCKY NOODLE KING CO,534 E VALLEY BLVD STE 10,SAN GABRIEL,,,
615,,,,,,,,,,PHAROS,2999 W 6TH ST 105,LOS ANGELES,,,
616,Daiso Japan,,Discount Store,144,4,$,34.24192706,34.24192706,WO_VdgqRjzmwi1BWZO_RWQ,DAISO JAPAN,19500 PLUMMER ST # A4,NORTHRIDGE,,,
617,Stater Bros. Markets,,"Grocery, Butcher, Delis",51,2.5,$$,34.068241,34.068241,OSpm1QQsL2GEKGwKMb_WvQ,STATER BROS #19 DELI,1045 N GAREY AVE,POMONA,,,
618,Sabzee Market,,Fruits & Veggies,1,5,,34.16156013,34.16156013,Z_Z2Vg0JmiK6lzATSDMLfA,SABZEE MARKET - BAKERY & DELI,17461 VENTURA BLVD,ENCINO,,,
619,Pupuseria Roxy,,Latin American,40,3.5,$,34.1298962,34.1298962,An0X2NTmhMX4uIlNIwPgHg,PUPUSERIA ROKY,790 E ALOSTA AVE,AZUSA,,,
620,Baja Ranch Market,,"Grocery, Bakeries, Mexican",126,2.5,$,34.0816274,34.0816274,7yHokuWLCUcMXIAPpFriFw,BAJA RANCH MARKET TORTILLIER,425 S CITRUS AVE,COVINA,,,
621,Ramen Shack Takumiya-Gardena,,Ramen,249,4,$$,33.8888195,33.8888195,ckJxs74Fk5EZiIXMMzzQAg,RAMEN SHACK TAKUMIYA,1721 REDONDO BEACH BLVD,GARDENA,,,
622,The New York Deli,,"Delis, Burgers, Sandwiches",531,4,$$,33.82106,33.82106,8mcVV8f084IQuzxXIjnAUg,NEW YORK DELI #2,2424 SEPULVEDA BLVD STE M,TORRANCE,,,
623,Subway,,Sandwiches,8,3.5,$,34.68854161,34.68854161,0adISAZujsF46Uii3GCl-g,SUBWAY #10086,1042 E AVENUE J,LANCASTER,,,
624,Drug Works Cafe,,"Coffee & Tea, Macarons, Juice Bars & Smoothies",237,4,$,33.8317949,33.8317949,eBLcLc5nE_ds85tixiZxLA,DRUG WORKS CAFE,12567 E CARSON ST,HAWAIIAN GARDENS,,,
625,El Taquito,,"Mexican, Breakfast & Brunch",174,4.5,$,34.07726,34.07726,MfFcsnSy4HFkTaHvjsIpdw,EL TAQUITO,10217 E VALLEY BLVD # 131,EL MONTE,,,
626,Chef Wangs Kitchen,,Chinese,51,3.5,$,33.86361,33.86361,qqNgi6UG5im3uS_vBdj_qw,CHEF WANG'S KITCHEN,308 PIER AVE,HERMOSA BEACH,,,
627,Little Pine,,"Vegan, Bars, American (New)",949,4.5,$$,34.10768,34.10768,4B_hWagBKAMcsotnnoH30Q,LITTLE PINE,2870 ROWENA AVE,LOS ANGELES,,,
628,Poke Bar,,"Sushi Bars, Seafood, Japanese",553,4,$$,34.124976,34.124976,X75cySFk3FkAireu6Y9Pzw,POKE BAR,733 W NAOMI AVE STE H,ARCADIA,,,
629,Vons,,Grocery,107,2.5,$$,34.0200927,34.0200927,TfwITomdR7KrTDSaK7DUyg,VONS #3258 BAKERY & DELI,804 W BEVERLY BLVD,MONTEBELLO,,,
630,Windsor Liquor,,"Beer, Wine & Spirits",6,3,$$,34.13686,34.13686,uxLyLTjDnCQsxjIm8sF94g,WINDSOR LIQUOR,801 S GLENDALE AVE,GLENDALE,,,
631,Happy Tasty,,Chinese,32,4,$$,34.07763,34.07763,KY7znnMupwqkKHFWqpK83w,HAPPY TASTY,140 W VALLEY BLVD # 209,SAN GABRIEL,,,
632,Super Pizza Veloz,,"Pizza, Chicken Wings",118,4.5,$,33.9768747,33.9768747,fc0uUUpsE7OubJ1UfJTj4w,SUPER PIZZA VELOZ,5029 E GAGE AVE,BELL,,,
633,,,,,,,,,,MEAT DEPT,1010 N GLENDALE AVE #100,GLENDALE,,,
634,Bobo Chinese Deli,,"Delis, Chinese",144,3,$,33.8916415,33.8916415,a6iOuBQaVLiXqiMSLXmtsQ,BO BO CHINESE DELI,2114 HIGHLAND AVE,MANHATTAN BEACH,,,
635,Blue Lotus Vietnamese Cuisine,,"Vietnamese, Noodles",502,3.5,$,33.83138294,33.83138294,nCEzlWQF5VTtfSB5h5yk6g,BLUE LOTUS VIETNAMESE CUISINE,21705 S MAIN ST,CARSON,,,
636,Maui Style Hawaiian B-B-Q & Roll,,"Hawaiian, Japanese",105,1.5,$,34.00497615,34.00497615,B78p0u7VndKp45aVJtWI0Q,MAUI STYLE HAWAIIAN BBQ & ROLL,150 CITADEL DR #E,COMMERCE,,,
637,Manna Korean BBQ,,"Korean, Barbeque, Asian Fusion",1316,3.5,$$,34.045352,34.045352,St_AKM1HEDyopN-nbbuIaw,MANNA KOREAN BBQ,333 S ALAMEDA ST STE 305,LOS ANGELES,,,
638,GoodFellow market,,Pizza,1,5,,34.1461251,34.1461251,Ggehp4JPDNQmLsEe5Ok21w,GOODFELLOW MARKET,1010 E BROADWAY,GLENDALE,,,
639,Lone Hill Liquor,,"Beer, Wine & Spirits",42,4,$$,34.1285558,34.1285558,pves_xNh9wJsMZHus6lA8Q,LONE HILL LIQUOR,1828 E ROUTE 66,GLENDORA,,,
640,Haggen Food & Pharmacy,,"Bakeries, Grocery, Delis",12,1.5,$$,34.427823,34.427823,IcIUOjvkoY1IDHwjjcnIrA,HAGGEN 2167 - BAKERY,26518 BOUQUET CANYON RD,SAUGUS,,,
641,Victory Donuts,,Donuts,41,4.5,$,34.1868149,34.1868149,Tp9xC6T4lSSm2CyrYFCD-A,VICTORY DONUTS,13301 VICTORY BLVD,VAN NUYS,,,
642,Casa Calderon,,Mexican,114,4,$$,34.1022942,34.1022942,g6vEVCiTsLopNHJSkThLWA,CASA CALDERON,622 W LAS TUNAS DR,SAN GABRIEL,,,
643,Rayhun Sandwiches & Salads,,"Sandwiches, Salad, American (New)",144,4.5,$,34.1471184,34.1471184,GNKf56Bj3QReDw2rEaPrbA,RAYHUN,120 N BRAND BLVD,GLENDALE,,,
644,Oki Japan,,"Japanese, Sushi Bars",30,3.5,$,34.04012,34.04012,6gSDe_HjIQask8relwGlzQ,OKI JAPAN,10800 W PICO BLVD,LOS ANGELES,,,
645,Subway,,Sandwiches,18,2,$,33.9723922,33.9723922,64_0WoDRf6h90r8lXbZMtA,SUBWAY #23985,3126 E FLORENCE AVE,HUNTINGTON PARK,,,
646,Angelini Osteria,,"Italian, Wine Bars, Pizza",1791,4.5,$$$,34.07642,34.07642,P9Dt_kkU5BTe1v0tJ4KFNw,ANGELINI OSTERIA,7313 BEVERLY BLVD,LOS ANGELES,,,
647,Three Travellers Bone Hot Pot Restaurant,,"Hot Pot, Shanghainese",41,3.5,$$,34.063536,34.063536,MR6tcptPbjcaobNDr9fUew,THREE TRAVELLERS HOT POT RESTAURANT,128 N GARFIELD AVE STE B,MONTEREY PARK,,,
648,Pico Glatt Mart,,Grocery,38,4,$$,34.0554049,34.0554049,DgVfpQRtR2XP3TMMIwfCCQ,PICO GLATT KOSHER MEAT,9427 W PICO BLVD,LOS ANGELES,,,
649,Sonia's Bakery,,Bakeries,30,4,$,34.0320379,34.0320379,aQCGbnFmCOCvb7YsSLT40A,SONIA'S BAKERY,744 N GLENDORA AVE,LA PUENTE,,,
650,Depot Restaurant,,"American (New), Seafood",305,4,$$$,33.835952,33.835952,erkRcYthN1pM3RwJOudOlA,DEPOT,1250 CABRILLO AVE,TORRANCE,,,
651,KFC,,"Fast Food, Chicken Wings",33,2,$,34.1588,34.1588,zvJ985VZ7T5fcKLe5zX_AA,KFC,4853 LANKERSHIM BLVD,NORTH HOLLYWOOD,,,
652,The Coffee Bean & Tea Leaf,,Coffee & Tea,9,3.5,$,34.07025,34.07025,oXPFsfVr5sYQx2fz2yK4fA,COFFEE BEAN & TEA LEAF,574 HILGARD AVE,LOS ANGELES,,,
653,Smoke 4 Less,,Tobacco Shops,11,2.5,$,34.6604149,34.6604149,BFvzROcSR3rAeaU4M2lCSg,THE SMOKE SHOP,2839 W AVENUE L,LANCASTER,,,
654,Crimson,,"Mediterranean, Coffee & Tea, Salad",936,4,$$,34.02007782,34.02007782,t3MMLXxaC-ln2kW9RUyDLQ,CRIMSON MEDITERRANEAN COOKHOUSE,2901 OCEAN PARK BLVD #127,SANTA MONICA,,,
655,Old Fashion Deli,,"Delis, Grocery",28,4,$$,34.1641083,34.1641083,H22lInJPGT1LQElU0Tkpqg,OLD FASHION DELI,1225 N PACIFIC AVE,GLENDALE,,,
656,,,,,,,,,,THE GREENROOM,6250 HOLLYWOOD BLVD,LOS ANGELES,,,
657,DOS Aguilas Bakery,,"Mexican, Imported Food",18,4,$$,34.0176299,34.0176299,GqxZgKAImcJV0bO1ea8Afw,DOS AGUILAS BAKERY,5945 WHITTIER BLVD,LOS ANGELES,,,
658,Tommy's Burgers & Steak,,"Burgers, Steakhouses, Mexican",32,4,$,34.10637,34.10637,mp-Va1L2JsOBpTNPTrQuiw,TOMMY'S BURGERS BY CHRIS,154 E ARROW HWY,COVINA,,,
659,,,,,,,,,,DRUZUBA MEAT MARKET,5222 W SUNSET BLVD # #A,LOS ANGELES,,,
660,Mexico 1900 Restaurant,,Mexican,212,3.5,$$,33.9263602,33.9263602,A-SiEM9Ri_NqJPT5qNa5KQ,MEXICO 1900 RESTAURANT,11531 S LA MIRADA BLVD,LA MIRADA,,,
661,The Back Abbey,,"Burgers, Gastropubs, Sandwiches",1922,4,$$,34.0949391,34.0949391,81IjU5L-t-QQwsE38C63hQ,THE BACK ABBEY,128 N OBERLIN AVE,CLAREMONT,,,
662,Mediterranean Delight,,"Greek, Mediterranean",374,4.5,$,34.145537,34.145537,Wrz_e8wJbRb9K1QObKl9Og,MEDITERRANEAN DELIGHT,126 S BRAND BLVD,GLENDALE,,,
663,,,,,,,,,,HUARACHES AZTECAS RESTAURANT,5223 YORK BLVD,LOS ANGELES,,,
664,,,,,,,,,,OLDENBORG CENTER,350 N COLLEGE WAY,CLAREMONT,,,
665,McDonald's,,"Burgers, Fast Food, Coffee & Tea",63,2,$,34.04631682,34.04631682,woE58cGOphYGjpkyj4x0sg,MCDONALD'S RESTAURANT,245 N SOTO ST,LOS ANGELES,,,
666,El Compadre,,"Mexican, Cocktail Bars, Seafood",1657,3.5,$$,34.09769,34.09769,1ZzhJds84q831qpnJC-ZFA,EL COMPADRE RESTAURANT,7408 W SUNSET BLVD,LOS ANGELES,,,
667,7-Eleven,,"Convenience Stores, Coffee & Tea",4,3,$,34.04250747,34.04250747,ZLKpc7aBzjSyxHUjn5mFuA,7-ELEVEN #16588G,8147 E ARROYO DR,ROSEMEAD,,,
668,Treasure Banquet Restaurant,,Venues & Event Spaces,3,5,,34.1911661,34.1911661,EI7i2hTZyMb9YXAuW0Sy6w,TREASURE BANQUET HALL RESTAURANT MARKET,6631 LAUREL CANYON BLVD,NORTH HOLLYWOOD,,,
669,Melados,,"Ice Cream & Frozen Yogurt, Acai Bowls, Creperies",87,4,$,34.29856,34.29856,8tODh7rJ3qOpGvnCvkhOEA,MELADOS,14117 HUBBARD ST STE C,SYLMAR,,,
670,IHOP,,"Breakfast & Brunch, American (Traditional), Burgers",63,3,$$,33.89625,33.89625,tdP3qyB1mfodmDUbhQtwSg,IHOP RESTAURANT,249 E COMPTON BLVD,COMPTON,,,
671,Subway,,Sandwiches,29,3.5,$,33.8380889,33.8380889,qiROCfDCleVJutWA21myMA,SUBWAY #338,5035 TORRANCE BLVD,TORRANCE,,,
672,China Cook Express,,Chinese,29,2,$,33.73851,33.73851,eCG1E8nujB3_GGZbVhY-Ag,CHINA COOK EXPRESS,683 W 6TH ST,SAN PEDRO,,,
673,,,,,,,,,,HK-2 SEAFOOD MARKET,987 S GLENDORA AVE,WEST COVINA,,,
674,Ralphs,,"Grocery, Drugstores, Delis",80,3,$$,34.26037181,34.26037181,7go2tLhRJAVI_C_Q3iD8XQ,RALPHS GROCERY COMPANY #49,10455 SUNLAND BLVD,SUNLAND,,,
675,Creamistry,,"Ice Cream & Frozen Yogurt, Desserts",223,3.5,$$,34.06305,34.06305,UBNL0faRIvjaQMB827oxCw,CREAMISTRY,253 S BEVERLY DR,BEVERLY HILLS,,,
676,Toast Bakery Cafe,,"American (New), Breakfast & Brunch, Bakeries",1777,3.5,$$,34.0728,34.0728,TI69qo540j-2neY0XWgN2Q,TOAST BAKERY CAFE,8221 W 3RD ST,LOS ANGELES,,,
677,Don Ramirez Liquor,,"Beer, Wine & Spirits",2,5,$$,34.05112,34.05112,ahhsK60KvkWvdjWGFE6oPA,DON RAMIREZ  LIQUOR,2401 DURFEE AVE,EL MONTE,,,
678,El Pollo Loco,,"Fast Food, Mexican",296,2,$,34.08751678,34.08751678,gJ1yEfhKjMF87bBw2N2ovw,EL POLLO LOCO #5917,2528 W COMMONWEALTH AVE,ALHAMBRA,,,
679,Circa 55,,"Bars, American (New)",241,3.5,$$$,34.06608681,34.06608681,1JYtqWdJobz4sxH8ZJ4ATA,THE BEVERLY HILTON HOTEL CIRCA 55,9876 WILSHIRE BLVD,BEVERLY HILLS,,,
680,Bento Ya,,Japanese,170,3,$,34.05088,34.05088,R1LQnALS6rJZY8NVNaaZkw,BENTO YA,317 S BROADWAY #D-8,LOS ANGELES,,,
681,1st Street Burgers,,Burgers,89,3.5,$,34.036153,34.036153,KVkkRqsg6AW--s8uVepHwA,1ST STREET BURGERS,3737 E 1ST ST,LOS ANGELES,,,
682,Velag,,Middle Eastern,8,4,$$,34.25124359,34.25124359,xka6an1dixwdLhxVBLJ2Xg,VELAG KABAB HOUSE,7400 FOOTHILL BLVD,TUJUNGA,,,
683,The Great White Hut,,"Burgers, Mexican, Breakfast & Brunch",1049,4,$,34.150048,34.150048,OFxTGCKDyHBQkMkprwDkHQ,THE GREAT WHITE HUT,121 W CALIFORNIA AVE,GLENDALE,,,
684,Wetzel's Pretzels,,Pretzels,18,2,$$$,34.03552786,34.03552786,MS69M-Mi3x61jPuvJPPwaw,WETZEL'S PRETZELS,2159 MONTEBELLO TOWN CTR,MONTEBELLO,,,
685,Grand Buffet,,"Buffets, Chinese, Japanese",254,3,$$,34.02778,34.02778,fiiAskljG7g0UliV1IXYPA,GRAND BUFFET,12 RANCHO CAMINO DR STE 103,POMONA,,,
686,El Pollo Loco,,"Fast Food, Mexican",153,1.5,$,34.1025449,34.1025449,AEqK6D-Pp-WVlRN8XGfkyw,EL POLLO LOCO #5391,729 W LAS TUNAS DR,SAN GABRIEL,,,
687,Lemonade,,"American (New), Salad, Sandwiches",687,4,$$,33.885906,33.885906,tSAIBoZnKW6sI1Q5NCVk3g,LEMONADE RESTAURANT,451 MANHATTAN BEACH BLVD,MANHATTAN BEACH,,,
688,Spice Restaurant,,"Italian, Breakfast & Brunch, Bars",101,4,$$,34.107196,34.107196,kg8D1cfFSOuPle2CvGHraA,SPICE ON HOLLYWOOD,2011 N HIGHLAND AVE,LOS ANGELES,,,
689,Hart's Cafe,,"Coffee & Tea, Breakfast & Brunch, American (Traditional)",145,4,$,34.1017153,34.1017153,T6WhH46BzRdzR_8GrkcMXw,HARTS CAFE,6655 HOLLYWOOD BLVD # 3,LOS ANGELES,,,
690,Lenny's Deli,,"Delis, Burgers, Sandwiches",1082,3.5,$$,34.04063,34.04063,Szp5hPm0jfU2M535O-UAYA,LENNY'S BAKERY,2379 WESTWOOD BLVD,LOS ANGELES,,,
691,,,,,,,,,VSpezPM3r7GykITuTIpUYg,EL BORREGO DE ORO #2,2808 E WASHINGTON BLVD,LOS ANGELES,,,
692,Gamela Grill,,Brazilian,37,4,$$,34.20226268,34.20226268,bEJQPzQvXIw9wq9YkTKVDg,CHAMPS HOT GRILL,7250 CANOGA AVE,CANOGA PARK,,,
693,Chana Thai Cuisine,,Thai,199,4,$,33.96044,33.96044,X2TMRORGEX2-JMqE-KnE6A,CHANA THAI CUISINE,1117 W MANCHESTER BLVD STE F,INGLEWOOD,,,
694,Mujinjang,,Korean,11,4.5,$$,33.89209,33.89209,ijcoDKhk5eGazz-0mWAwjQ,MUJINJANG,15351 S WESTERN AVE,GARDENA,,,
695,Jimmy John's,,"Sandwiches, Fast Food, Delis",79,2.5,$,34.403374,34.403374,XgHc8BVRNRyilukKHa9u5w,JIMMY JOHN'S GOURMET SANDWICHES,25864 MCBEAN PKWY,SANTA CLARITA,,,
696,Pompeii Pizza Parlor,,"Pizza, Italian, Sandwiches",116,3.5,$$,34.0443468,34.0443468,4ygQZx1FRBmYBj_XulabUg,POMPEII PIZZA PARLOR,1425 VALINDA AVE,LA PUENTE,,,
697,La Bodega Market 3,,Grocery,9,5,$,34.03041,34.03041,tetxmcTJkXYJVIfA4e9UOA,LA BODEGA MARKET #3,2715 S WESTERN AVE # D,LOS ANGELES,,,
698,Panini Palace,,"Salad, Sandwiches, Vegetarian",210,4.5,$,34.37938,34.37938,pebnrTxbJH1f6sx4M8p4-g,PANINI PALACE,23120 LYONS AVE # 6/7/,NEWHALL,,,
699,Penmar Golf Course Coffee Shop,,Coffee & Tea,11,4.5,$,34.0063395,34.0063395,IvM-8pkG6Uyy-zSkuIJYVg,PENMAR COFFEE,1233 ROSE AVE,VENICE,,,
700,Grain Lab,,"Sandwiches, American (New)",643,4,$$,34.1911423,34.1911423,_XPr2FDPSt3JqP3Q3zcavg,GRAIN LAB DELI & KITCHEN,1737 N VICTORY PL,BURBANK,,,
701,,,,,,,,,,LITTLE MEAT MARKET,1164 E HYDE PARK BLVD,INGLEWOOD,,,
702,Carnitas Michoacan,,Mexican,78,3.5,$,34.22836,34.22836,gwFTmPFIEl4QHsQYI90yTA,CARNITAS MICHOACAN,8729 SUNLAND BLVD,SUN VALLEY,,,
703,Marysol Restaurant Y Pupuseria,,Latin American,37,3,$,33.962112,33.962112,C8RqnV8A2Wa9eT3j8KqgHg,MAR & SOL RESTAURANT PUPUSERIA,7940 ATLANTIC AVE STE B,CUDAHY,,,
704,Avon Street Grill,,Fast Food,14,3,$,34.14817429,34.14817429,BolQS-DTWqeI1zO0ZHHh1A,THE GRILL ON AVON STREET,4000 WARNER BLVD,BURBANK,,,
705,Food 4 Less,,Grocery,9,2.5,$$,33.943328,33.943328,BgU_tOGm2tAxGJRTadlBJg,FOOD 4 LESS MEAT DEPT,1651 E 103RD ST,LOS ANGELES,,,
706,The Gumbo Pot,,"Cajun/Creole, Southern, Seafood",802,2.5,$$,34.07195106,34.07195106,OSri3nt9p42pzK2gCNNTqw,THE GUMBO POT,6333 W 3RD ST #312,LOS ANGELES,,,
707,Little Caesars Pizza,,"Pizza, Fast Food",42,2,$,33.966102,33.966102,fiLLTpGviNWLv-IKtmIpag,LITTLE CAESARS #5948,259 N LA BREA AVE # #4,INGLEWOOD,,,
708,Fix Coffee,,"Coffee & Tea, Breakfast & Brunch, Wine Bars",310,4,$,34.089914,34.089914,9NC4j9OIVxcNN5qyA1GZ3A,FIX COFFEE CAFE,2100 ECHO PARK AVE,LOS ANGELES,,,
709,,,,,,,,,,EDWARDS THEATERS,1950 E FOOTHILL BLVD,LA VERNE,,,
710,Bread & Barley,,"Gastropubs, Breakfast & Brunch, Sandwiches",758,4,$$,34.0870159,34.0870159,ENlgJ2UmgNYcJhLiedcH9Q,BREAD & BARLEY,130 N CITRUS AVE,COVINA,,,
711,,,,,,,,,,BENCES TACO MEXICO,12730 SHERMAN WAY,NORTH HOLLYWOOD,,,
712,Daily Grill,,"American (Traditional), Wine Bars, Cocktail Bars",356,3.5,$$,33.94464366,33.94464366,oyQ6pP-3du-CgvzF4XZNfg,DAILY GRILL,5400 W CENTURY BLVD,LOS ANGELES,,,
713,Bank's Thai Chinese Food & Bar-B-Q Restaurant,,"Thai, Seafood, Noodles",2,1.5,,34.194228,34.194228,#NAME?,BANK'S THAI CHINESE FOOD & BAR-B- Q RESTAURANT,16449 VANOWEN ST,VAN NUYS,,,
714,Whole Foods Market,,Grocery,219,3,$$,34.0537,34.0537,nSt5AY1cpILplhqqMASzyQ,WHOLE FOODS MARKET,11737 SAN VICENTE BLVD,LOS ANGELES,,,
715,Julie's Pizzeria,,"Pizza, Italian, Vegan",206,3.5,$,34.01920444,34.01920444,4_Ue_Oq8LbxbvtekmSgn2A,JULIE'S PIZZERIA,11140 PALMS BLVD,LOS ANGELES,,,
716,Croft Alley,,"French, Breakfast & Brunch, Vietnamese",155,4.5,$$,34.0833724,34.0833724,o9iweKZp1R6PN7ygqHzMcA,CROFT ALLEY THE PROSCUITTO PROJECT,8428 MELROSE PL,LOS ANGELES,,,
717,Get Bbul,,"Korean, Seafood, Barbeque",192,4,$$,,,,GETBBUL RESTAURANT,3189 1/2 W OLYMPIC BLVD,LOS ANGELES,,,
718,Mimo's Cafe,,"Diners, Breakfast & Brunch",278,4,$,33.9798394,33.9798394,89w8Pg1PqLzjfAndr_ub4A,MIMO'S,6735 GREENLEAF AVE,WHITTIER,,,
719,Elysian,,"Venues & Event Spaces, American (New), Cocktail Bars",57,4,$$,34.1072,34.1072,V1SSu6eBBfEDoXrg771LzA,ELYSIAN RESTAURANT,2806 CLEARWATER ST,LOS ANGELES,,,
720,7-Eleven,,"Convenience Stores, Coffee & Tea",17,2,$,34.063071,34.063071,RoqUXGpnlk7UmgCfw23bMA,7-ELEVEN,9327 E GARVEY AVE E,SOUTH EL MONTE,,,
721,Juan Great Fiesta,,Mexican,49,3.5,$,33.9721965,33.9721965,hrHpBxPKmB3LSiGqw7Lh-g,JUAN GREAT FIESTA,11116 E WASHINGTON BLVD,WHITTIER,,,
722,Kanom Thai Ram 2,,"Desserts, Thai",13,4.5,$,34.10201263,34.10201263,NA9aMSQVEVSSuYGCbWFBfQ,KANOM THAI RAMSONG,5185 HOLLYWOOD BLVD,LOS ANGELES,,,
723,Sanuki Sandou,,"Japanese, Noodles",168,3.5,$,34.0049599,34.0049599,JtZizgPExO-upQSfQIpVMw,SANUKI SANDOU,3760 S CENTINELA AVE # 115,LOS ANGELES,,,
724,The Backroom,,Lounges,23,4.5,$$,34.09102879,34.09102879,Lndm8I3sfckGiZ4LopJ8WQ,THE BACK ROOM,8788 W SUNSET BLVD,WEST HOLLYWOOD,,,
725,Louisiana Famous Fried Chicken,,"Chicken Wings, Southern, Fish & Chips",8,3.5,$,34.01037858,34.01037858,Pd-hjBh_eQwqLhdoS8QIOA,LOUISIANA FRIED CHICKEN,1030 W MLK BLVD,LOS ANGELES,,,
726,Kozanian's Ranch Market,,Grocery,29,3,$$,34.1508064,34.1508064,gjXsKaOqIv174VN6swJMEA,KOZANIAN RANCH MARKET MEAT/DELI,356 CHEVY CHASE DR,GLENDALE,,,
727,,,,,,,,,,PURE NATURAL FOOD MARKET,544 PALISADES DR,PACIFIC PALISADES,,,
728,The Office,,"American (New), Sports Bars",193,3.5,$$,34.1846155,34.1846155,7_7dihP8f0JfKb-im8-3Vg,THE OFFICE BAR & GRILL,3516 W VICTORY BLVD,BURBANK,,,
729,Silver Dollar,,"Beer, Wine & Spirits",1,5,$,33.959663,33.959663,IeGo8NLO8DjPv5YBCLS-XA,SILVER DOLLAR LIQUOR,1650 W MANCHESTER AVE,LOS ANGELES,,,
730,Costco Food Court,,Food Court,93,3,$,34.08818,34.08818,uy4SfddjErBN1mJCMhlyxw,COSTCO FOOD COURT #428,2207 W COMMONWEALTH AVE,ALHAMBRA,,,
731,Target,,"Department Stores, Furniture Stores, Electronics",347,3,$$,34.18962,34.18962,N2C5joimvRf3a9Qfukt-og,STARBUCKS INSIDE TARGET,1800 W EMPIRE AVE,BURBANK,,,
732,,,,,,,,,,AFC SUSHI/ RALPH'S #705-DELI,15120 W SUNSET BLVD,PACIFIC PALISADES,,,
