,name,address,categories,review_count,rating,price,latitude,longitude,yelp_id,name_input,address_input,city_input,hours
0,La Placita Cocteles,,"Seafood, Mexican",16.0,4.5,$,34.226618,34.226618,R73hYpBc-HmcsPDdtVdzIA,LA PLACITA COCTELES,8610 VAN NUYS BLVD STE 13,PANORAMA CITY,
1,,,,,,,,,,EL TUKANAZO BAR,2411 ROSEMEAD BLVD,SOUTH EL MONTE,
2,Indo Lanka Cash & Carry,,"Grocery, Herbs & Spices, Seafood Markets",13.0,4.0,$$,33.86028,33.86028,W4OnLBSwfoYjtP1qooP3VA,INDO LANKA CASH AND CARRY,18743 PIONEER BLVD UNIT 106,ARTESIA,
3,Mister Bossam,,Korean,654.0,4.0,$$,34.067756012401,34.067756012401,YVbO3FENQQzcDwxtlrR1Iw,MR BOSSAM,338 S WESTERN AVE # A-B,LOS ANGELES,
4,Riviera Mexican Grill,,"Mexican, Sports Bars, Seafood",627.0,4.0,$$,33.81952,33.81952,hv_hTymMnPLemeJdlQRKwA,RIVIERA MEXICAN BAR & GRILL,1615 S PACIFIC COAST HWY,REDONDO BEACH,
5,,,,,,,,,,THE FAIRFAX,432 N FAIRFAX AVE,LOS ANGELES,
6,Steak Corral,,"Steakhouses, American (Traditional)",303.0,3.5,$$,33.97074,33.97074,RGAyS5b8GiiVzSTVzD7t6w,STEAK CORRAL #3,11605 E WASHINGTON BLVD,WHITTIER,
7,Ameci Pizza & Pasta - Woodland Hills East,,"Pizza, Italian, Chicken Wings",81.0,4.0,$$,34.1725549,34.1725549,Dmg5mz1x-IJmTvbjQtgaUg,AMECI IN & OUT PIZZA & PASTA,19803 VENTURA BLVD,WOODLAND HILLS,
8,Paradise Juice & Deli,,Health Markets,38.0,3.0,$$,34.1521606445312,34.1521606445312,JUqLLEt_ncIA489x__RhsA,PARADIZE JUICE & DELI,4007 W RIVERSIDE DR # #A,BURBANK,
9,Waikiki Hawaiian Grill,,Hawaiian,220.0,4.0,$,33.88595,33.88595,1lorATiUd0JtEi0RNRtRpw,WAIKIKI HAWAIIAN GRILL,16280 PARAMOUNT BLVD STE #A,PARAMOUNT,
10,The Flame Broiler,,"Fast Food, Korean",82.0,3.5,$,33.989559173584,33.989559173584,aY43NLPfE_RBxMNRFJrogg,THE FLAME BROILER,17110 E COLIMA RD STE A,HACIENDA HEIGHTS,
11,Kang Kang Shau May,,"Chinese, Taiwanese, Fast Food",175.0,3.5,$,33.9956425897382,33.9956425897382,QOpFhuyJGAVRTrwzkV5e0w,KANG KANG SHAU MAY RESTAURANT,18017 E GALE AVE,ROWLAND HEIGHTS,
12,Ruby Bakery,,Bakeries,357.0,4.5,$,34.1382356733084,34.1382356733084,qhdXGLjGdQ_1ATJem_Y9Fw,RUBY BAKERY,5042 EAGLE ROCK BLVD,LOS ANGELES,
13,,,,,,,,,,MARGARITAS MEXICAN FOOD,2101 W PICO BLVD # A5,LOS ANGELES,
14,,,,,,,,,,EBAR,400 S BALDWIN AVE STE #200,ARCADIA,
15,The Coffee Bean & Tea Leaf,,Coffee & Tea,130.0,2.0,$$,34.0085755,34.0085755,keHIvN0lRiVkNr3SmDalCA,PACIFIC PARK - THE COFFEE BEAN & TEA LEAF,380 SANTA MONICA PIER,SANTA MONICA,
16,Yum Cha Cafe,,"Dim Sum, Fast Food",142.0,3.0,$,34.0788993835449,34.0788993835449,KD_fdBnwN3TbJYJ8mcvq4Q,YUM CHA CAFE,1635 S SAN GABRIEL BLVD,SAN GABRIEL,
17,The Beirut Mix,,"Mediterranean, Greek, Lebanese",553.0,4.0,$$,33.858803,33.858803,bt4uELmSQnEpJRyAC3si9g,THE BEIRUT MIX,500 N PACIFIC COAST HWY,HERMOSA BEACH,
18,La Favorita,,Mexican,17.0,4.5,$,34.0434226989746,34.0434226989746,nEABpDLMLKPk6bgkd5ZoPw,LA FAVORITA,600 N BRANNICK AVE,LOS ANGELES,
19,Broken Bit Steakhouse,,"Steakhouses, Seafood, Cocktail Bars",632.0,4.0,$$$,34.644676,34.644676,hGtCYaOzAkncour7oaWX5w,BROKEN BIT STEAKHOUSE,41955 W 50TH ST W # 101,LANCASTER,
20,,,,,,,,,,VARIEDADES LATINAS,8610 VAN NUYS BLVD STE 24,PANORAMA CITY,
21,Family Fish Market,,"Seafood, Fish & Chips",208.0,4.0,$,33.9769733,33.9769733,nkCmaZyWERlUY7BQlY1zGg,FAMILY FISH MARKET,1300 CENTINELA AVE STE #102,INGLEWOOD,
22,Winterfest at Santa Anita Park,,Festivals,27.0,3.5,,34.13809,34.13809,_wdq8i3IZ2rn9gy7j-1YUw,SANTA ANITA PARK - STAND 40,285 W HUNTINGTON DR,ARCADIA,
23,Belizean Paradise,,Caribbean,167.0,4.5,$,34.0514736,34.0514736,ZV1cQKQfJBaG0Btm1-CArQ,"BELIZIAN PARADISE, INC",1271 S LA BREA AVE,LOS ANGELES,
24,Mochi Cat,,"Bubble Tea, Juice Bars & Smoothies, Cafes",81.0,3.0,$,34.0633996,34.0633996,1WOEWt3tBV87L6WfaqBH4g,MOCHI CAT,843 N BROADWAY,LOS ANGELES,
25,Fox Liquor,,"Beer, Wine & Spirits",8.0,3.0,$,34.416752,34.416752,57u01ZrFcB-0f_j8i5bWpQ,FOX LIQUOR,27257 CAMP PLENTY RD,CANYON COUNTRY,
26,,,,,,,,,,LING AN RESTAURANT,115 N LINCOLN AVE,MONTEREY PARK,
27,Burger Factory,,Burgers,69.0,2.5,$,34.0397262573242,34.0397262573242,UGHtUPC7lCYtYHAsn4yzWQ,BURGER FACTORY,2066 W WASHINGTON BLVD,LOS ANGELES,
28,La Serenata de Garibaldi,,Mexican,475.0,4.0,$$,34.039,34.039,64A2TOfFpzEjadKng6-iqg,LA SERENATA,10924 W PICO BLVD,LOS ANGELES,
29,Greenland Market,,International Grocery,184.0,4.0,$$,34.20153,34.20153,AqegkMGKIxhQphBA1Nm8YA,GREENLAND MARKET,17643 SHERMAN WAY,VAN NUYS,
30,Shakey's Pizza Parlor,,"Pizza, Buffets",101.0,2.5,$$,34.0519616249051,34.0519616249051,GfT8KBPntoMrdFlGEDNvHg,SHAKEY'S PIZZA,1880 N HACIENDA BLVD,LA PUENTE,
31,Vallarta Supermarkets,,Grocery,23.0,2.5,$$,34.233492,34.233492,_sZccA_YCKr9eJjE45UpoQ,VALLARTA #26 MEAT DEPT,9011 WOODMAN AVE,PACOIMA,
32,,,,,,,,,,"J & Y RESTAURANT, INC.",8150 GARVEY AVE STE 117H,ROSEMEAD,
33,Bubble Street,,"Desserts, Coffee & Tea, Bubble Tea",16.0,3.0,$,34.2203,34.2203,c-xKW9_his075YCtUoYqnQ,GRILL CITY / BUBBLE STREET,8231 WOODMAN AVE,PANORAMA CITY,
34,Seafood Ranch Market,,"Grocery, Seafood Markets",41.0,3.0,$,34.1195956776872,34.1195956776872,bzqnqi8hW0rWr5VXG15mGQ,SEAFOOD RANCH MARKET,3756 W AVENUE 40 STE NPQ,LOS ANGELES,
35,,,,,,,,,,76 GAS STATION SNACK SHOP,20841 DEVONSHIRE ST,CHATSWORTH,
36,The Roost,,"Dive Bars, Thai, Chicken Wings",328.0,4.0,$,34.12422,34.12422,bi95XObe3hmrpYAu2eJxgQ,THE ROOST,3100 LOS FELIZ BLVD,LOS ANGELES,
37,El Super,,"Grocery, Delis, Meat Shops",48.0,2.0,$,34.017523,34.017523,UC1luvATKQQ8csPHEnz56Q,EL SUPER BAKERY & TORTILLERI,5646 E WHITTIER BLVD,COMMERCE,
38,Spudnuts Donuts,,Donuts,97.0,4.0,$,34.2566930147655,34.2566930147655,opvZb73cXxQqa2JOE6IvNg,SPUDNUTS DONUTS,10244 RESEDA BLVD,NORTHRIDGE,
39,Cafe Tamal,,"Cafes, Latin American",180.0,4.5,$,34.20152,34.20152,BwAiGE8lN-ka9aOxQig5MQ,CAFE TAMAL,16045 SHERMAN WAY # F,VAN NUYS,
40,Holiday Burger,,"Burgers, Pancakes",418.0,3.5,$,34.25695,34.25695,iabhjC8-np8LjdUeQY9wHg,HOLIDAY BURGER,15520 DEVONSHIRE ST,MISSION HILLS,
41,Jamba Juice,,Juice Bars & Smoothies,18.0,3.5,$,34.058601,34.058601,piEgwW3qYObOCJS15wVy4w,JAMBA JUICE #1279,10250 SANTA MONICA BLVD STE 204,LOS ANGELES,
42,Yogurtland Arcadia,,Ice Cream & Frozen Yogurt,330.0,4.0,$,34.12741,34.12741,Uv3uhP-Z5rQQTbr3Hjkgtw,YOGURTLAND ARCADIA,633 W DUARTE RD,ARCADIA,
43,,,,,,,,,,H K CHICKEN,124 N WESTERN AVE,LOS ANGELES,
44,LA Donuts,,"Donuts, Bakeries, Ice Cream & Frozen Yogurt",21.0,4.0,$,34.044752,34.044752,0LZWTJXaPULwBVgSjKn5nA,LA DONUTS,1514 S VERMONT AVE STE A,LOS ANGELES,
45,We Be Q'n,,"Barbeque, Food Stands, Sandwiches",40.0,5.0,$$,34.040184,34.040184,OQIiZMlXs_Qw1RzouZ5BqQ,TIFFANY'S CATERING / WE BE Q'N,2099 S ATLANTIC BLVD UNIT J,MONTEREY PARK,
46,Domino's Pizza,,"Pizza, Chicken Wings, Sandwiches",41.0,2.0,$,34.0137939,34.0137939,jvCY-LQ99iypXePhi3aLMg,DOMINO'S PIZZA #8313,5742 E OLYMPIC BLVD,COMMERCE,
47,Smart & Final Extra!,,Grocery,49.0,2.5,$$,34.0436283,34.0436283,klibp1qybA6LADbRwXdiaQ,SMART & FINAL #478,1835 S LA CIENEGA BLVD,LOS ANGELES,
48,The Room Sushi Bar,,"Sushi Bars, Japanese",672.0,4.0,$$,34.0485359,34.0485359,cqpvuNhVpzSn_ubVLpRPOQ,THE ROOM SUSHI,1884 WESTWOOD BLVD,LOS ANGELES,
49,Mary Alicia's Mexican Restaurant,,"Mexican, Cafes, Breakfast & Brunch",83.0,4.0,$,34.035579,34.035579,nVV9OAXpBK2KCHGP-k5zHA,MARY ALICIA SNACK BAR,3100 E 4TH ST,LOS ANGELES,
50,India Emporium,,"Indian, Vegetarian",22.0,4.5,$,34.0093731,34.0093731,lP18cmtE-oYjvo1LKEH5kA,INDIA EMPORIUM RESTAURANT,17365 E VALLEY BLVD,LA PUENTE,
51,La Taverna Cubana,,Cuban,299.0,4.5,$$,34.1693283111411,34.1693283111411,GMv_g-ln8ngd1e7u0sp0YQ,LA TAVERNA CUBANA,5424 LAUREL CANYON BLVD STE # D-E,VALLEY VILLAGE,
52,Yoshinoya Restaurants,,Japanese,11.0,2.5,$,33.971393,33.971393,OxeFqG0mQbFU5qPHvYCz0w,YOSHINOYA BEEF BOWL REST,6801 EASTERN AVE,BELL GARDENS,
53,The Flame Broiler,,"Fast Food, Asian Fusion",70.0,3.0,$,34.0326691,34.0326691,xonN-mRZ17ObR43K5ogYtg,THE FLAME BROILER,2569 VIA CAMPO,MONTEBELLO,
54,Carniceria Los Compadres,,Meat Shops,39.0,4.0,$$,33.9340184,33.9340184,kdMjxGrdLWBgIBcGN8JwJg,CARNICERIA LOS COMPADRES,3572 MLK JR BLVD,LYNWOOD,
55,,,,,,,,,,SSA KITCHEN,7601 IMPERIAL HWY,DOWNEY,
56,Mariscos Tijuana No 2,,"Mexican, Seafood",26.0,3.5,$$,33.8952422,33.8952422,uMZMpvEf4VXE_-23ImRnsQ,MARISCOS TIJUANA #2,15014 S PRAIRIE AVE,HAWTHORNE,
57,Vons,,"Grocery, Pharmacy",133.0,3.5,$$,34.114611,34.114611,LOI2AFVRb6AsrjYTWuv3lw,VONS DELI #2832,1600 FOOTHILL BLVD,LA VERNE,
58,Four Seasons Hotel Los Angeles at Beverly Hills,,Hotels,383.0,4.5,$$$$,34.072578,34.072578,8rQxNDNJ4-FCjn6XXCB6kw,FOUR SEASONS HOTEL-PASTRY,300 S DOHENY DR,LOS ANGELES,
59,Rizzo's Pizzeria,,"Pizza, Salad, Sandwiches",306.0,3.5,$,33.80588,33.80588,TfJuEn_7CbWjsJfOyOy9qA,RIZZO'S PIZZA,24100 NARBONNE AVE STE 108,LOMITA,
60,,,,,,,,,,PIZZA HUT #24906,5213 E WHITTIER BLVD,LOS ANGELES,
61,HomeState,,"Tex-Mex, Breakfast & Brunch, Tacos",1107.0,4.5,$,34.09979,34.09979,ul2dT8QzauKP5Yc-q_DZ_g,HOMESTATE,4624 HOLLYWOOD BLVD,LOS ANGELES,
62,The Misfit Restaurant + Bar,,"Bars, American (New), Breakfast & Brunch",3938.0,4.0,$$,34.015401,34.015401,oeGUPhxvWRD_MEhidhafLQ,THE MISFIT,225 SANTA MONICA BLVD,SANTA MONICA,
63,Chef Marilyn's,,"Southern, Cajun/Creole, Soul Food",177.0,3.5,$$,34.0312698,34.0312698,0hddg8pBXwnGog0bmmIm9w,CHEF MARILYN'S QUEEN OF DOWN HOME SOUTHERN GOODIES,2638 CRENSHAW BLVD,LOS ANGELES,
64,,,,,,,,,,NELSON PRODUCE MARKET,14240 E NELSON AVE,LA PUENTE,
65,Pavilions,,"Grocery, Pharmacy",66.0,3.0,$$,33.7754321,33.7754321,jzQhxWJQhcU0-ZfFLFD0mQ,PAVILIONS #2233 - DELI,7 PENINSULA CTR,ROLLING HILLS ESTATES,
66,Big Mama's & Papa's Pizzeria,,"Pizza, Sandwiches, Salad",247.0,3.0,$$,34.13877,34.13877,Icy6m2v2vfM3CbKqbsg_Qw,BIG MAMA'S AND PAPA'S PIZZER,2136 W COLORADO BLVD,LOS ANGELES,
67,Playa Baja,,Mexican,103.0,4.0,$,34.01585,34.01585,6bho4Ve1g-QKod3OAJNHvg,PLAYA - BAJA MEXICAN FOODS #2,102 E BEVERLY BLVD,MONTEBELLO,
68,Victory French Restaurant,,"French, Vietnamese",247.0,3.5,$$,34.0620829679736,34.0620829679736,bQDI7kVQDLq8fAthJDhcUA,VICTORY RESTAURANT,580 E GARVEY AVE,MONTEREY PARK,
69,Burger King,,"Burgers, Fast Food",51.0,2.0,$,34.13649,34.13649,RHd3Ba1q65RqGP7Dq0VQRg,BURGER KING,4959 EAGLE ROCK BLVD,LOS ANGELES,
70,Panda Express,,"Chinese, Fast Food",118.0,3.0,$,34.193282,34.193282,sHyhkVgNMVdyolXHxKCDqQ,PANDA EXPRESS,22910 VANOWEN ST,WEST HILLS,
71,,,,,,,,,,WESTERN FUEL GROUP,11861 PARAMOUNT BLVD,DOWNEY,
72,SnAKS at Saks Fifth Avenue,,Cafes,12.0,3.5,$$,34.0667199,34.0667199,1zsAPaUKT4pYc7GzQx-Jmg,SNAKS CAFE,9600 WILSHIRE BLVD,BEVERLY HILLS,
73,,,,,,,,,,LA CHIQUITA,5555 HOLMES AVE,LOS ANGELES,
74,Jack in the Box,,"Fast Food, Burgers, Tacos",121.0,2.5,$,34.158559,34.158559,xIoeZ50tKiT4GKqZRMFw3g,JACK IN THE BOX #339,4828 LAUREL CANYON BLVD,VALLEY VILLAGE,
75,,,,,,,,,,ALEJO'S TAKE OUT,8335 S LINCOLN BLVD,LOS ANGELES,
76,Jr Bakery,,Bakeries,2.0,3.0,,33.8822631835938,33.8822631835938,bZfSOM0xcQaMRUJW6ayrHQ,J R BAKERY,16320 S WESTERN AVE,GARDENA,
77,Dragon King Restaurant,,Chinese,307.0,4.0,$,34.19406,34.19406,wR2IEv-NTN2YJYUl_lNodw,DRAGON KING,21415 VANOWEN ST,CANOGA PARK,
78,The Donut House,,"Donuts, Bakeries",3.0,4.5,$,33.896901,33.896901,wA5ER_FLiL5D5jkARw6deA,DONUT HOUSE,120 N LONG BEACH BLVD,COMPTON,
79,Shamshiri Restaurant,,Persian/Iranian,505.0,4.0,$$,34.220605,34.220605,FDlVnXJNG-05cen-ekGBhw,SHAMSHIRI RESTAURANT,19249 ROSCOE BLVD,NORTHRIDGE,
80,Union Bakery,,Bakeries,147.0,4.0,$$,34.1124109076783,34.1124109076783,TAbjW-XTrycE1ttYp3GKdw,UNION BAKERY,1138 FAIR OAKS AVE,SOUTH PASADENA,
81,,,,,,,,,,PERRY'S PIZZA #3,1200 PALISADES BEACH RD,SANTA MONICA,
82,Sushimon,,"Sushi Bars, Japanese, Poke",217.0,4.0,$$,33.825668,33.825668,Lm22__hJewVdRuC5DQRIHA,SUSHIMON,3948 SEPULVEDA BLVD,TORRANCE,
83,Green Temple,,"Vegetarian, Breakfast & Brunch, Sandwiches",823.0,4.5,$$,33.81894,33.81894,lke5cmNoy4A-4bn_n0Apuw,THE GREEN TEMPLE,1700 S CATALINA AVE STE 103,REDONDO BEACH,
84,,,,,,,,,,EMI CAFE,1750 VINE ST,HOLLYWOOD,
85,,,,,,,,,,TYRONE'S CAFE,150 W COMMONWEALTH AVE,ALHAMBRA,
86,Dollar Tree,,Discount Store,9.0,3.5,$,34.0891882085424,34.0891882085424,UPjInShGzR-UjrG1vjkc4A,DOLLAR TREE STORE #6189,342 S INDIAN HILL BLVD,CLAREMONT,
87,Lincoln Car Wash & Detail,,"Car Wash, Auto Detailing",288.0,2.5,,34.01602,34.01602,-arZqzgjn0tP1FmtKq9Xwg,LINCOLN CAR WASH,1624 LINCOLN BLVD,SANTA MONICA,
88,Chef Geng's,,Chinese,50.0,4.0,$$,34.0617666386278,34.0617666386278,NkgfhWCns8EwugPyjpxIKg,CHEF GENG'S,8118 GARVEY AVE STE B,ROSEMEAD,
89,Royalty Market,,Grocery,2.0,5.0,,33.98315,33.98315,g4ZxYsBzvLX951asXs6DTA,ROYALTY MARKET,6200 S SAN PEDRO ST,LOS ANGELES,
90,Wa Sushi & Bistro,,"Japanese, Sushi Bars",271.0,4.0,$$$,34.0908215,34.0908215,2a6tYPrAOh6CvhxJBEi88Q,WA SUSHI & BISTRO,1106 N LA CIENEGA BLVD STE 201,WEST HOLLYWOOD,
91,Inthanon Thai Cuisine,,Thai,246.0,4.0,$$,34.1720900405211,34.1720900405211,ld8j4jyFMP6ytP5hcSrWRw,INTHANON THAI CUISINE,12510 BURBANK BLVD,VALLEY VILLAGE,
92,Hola Pollo,,"Korean, Fast Food, Mexican",3.0,4.5,,34.0561292,34.0561292,sjpnsQgbvoh7Mgk1tf787Q,HOLA POLLO,2024 W 7TH ST,LOS ANGELES,
93,Applebee's Grill + Bar,,"American (Traditional), Burgers, Sports Bars",264.0,2.5,$$,34.027851,34.027851,fThVPaYV2j_HmeQceBNInw,APPLEBEE'S NEIGHBORHOOD GRILL & BAR,21625 VALLEY BLVD,WALNUT,
94,,,,,,,,,,SUPER A LIQUOR,1632 E ROSECRANS AVE,COMPTON,
95,El Zipote Pupuseria,,"Salvadoran, Mexican",36.0,2.5,$,33.9951526,33.9951526,BTWlGw77PqlWVeyqK3Sy9A,EL ZIPOTE PUPUSERIA,1111 W WASHINGTON BLVD STE H,MONTEBELLO,
96,Awoolim Kimbap Factory,,"Korean, Imported Food",110.0,4.0,$,33.9747919855591,33.9747919855591,DMv__DTgGA-6gOv4CFP5ww,AWOOLIM KIMBAP FACTORY,2825 S DIAMOND BAR BLVD,DIAMOND BAR,
97,PressEat,,"Salad, Burgers, Sandwiches",412.0,4.5,$$,34.15073,34.15073,45ZMIwE0UV9QpKwpotBZfQ,PRESSEAT,14518 VENTURA BLVD,SHERMAN OAKS,
98,,,,,,,,,,LA FERIA DE LA RISA,1125 WASHINGTON BLVD,MONTEBELLO,
99,Plan Check Kitchen + Bar,,"Bars, Gastropubs, American (Traditional)",2628.0,4.0,$$,34.04382,34.04382,ftZ8gChDLZYJtXHWoxFi-g,PLAN CHECK,1800 SAWTELLE BLVD,LOS ANGELES,
100,Costco Wholesale,,Wholesale Stores,274.0,3.5,$$,34.66119,34.66119,WN_0ehmJ2arf07tYtdB0BQ,COSTCO WHOLESALE #762 DELI,1141 W AVENUE L,LANCASTER,
101,Elio's Market,,"Grocery, Women's Clothing, Accessories",2.0,4.0,$,33.82365,33.82365,Bo38_MPrnZyANTTsdQbqog,ELIO'S MARKET,22330 S WESTERN AVE,TORRANCE,
102,Burger King,,Burgers,23.0,1.5,$,34.0403499,34.0403499,hF3VabJG-31jjUxRtG8g6Q,BURGER KING,10814 FAWCETT AVE,SOUTH EL MONTE,
103,Goji Juice + Vitamins,,Juice Bars & Smoothies,83.0,3.5,$$,34.019104,34.019104,c-iOW6D7Xgh_5G9chrXiFQ,GOJI JUICE & VITAMIN,408 WILSHIRE BLVD,SANTA MONICA,
104,BJ's Restaurant & Brewhouse,,"American (New), Pizza, Breweries",844.0,3.0,$$,34.0364957,34.0364957,tcOZyDrWCvBLiEt0aQHk8g,BJ'S RESTAURANT,1716 MONTEBELLO TOWN CTR,MONTEBELLO,
105,Mariscocos Culichi,,"Mexican, Seafood",64.0,3.5,$$,34.2871669,34.2871669,go--flGN1nZ1mJOD8emhSQ,MARISCOS EL CULICHI,1419 SAN FERNANDO RD STE A,SAN FERNANDO,
106,Romano's Macaroni Grill,,Italian,453.0,3.0,$$,33.990694,33.990694,RGcXOlz7pnJD-TVOj40snw,ROMANO'S MACARONI GRILL,17603 E COLIMA RD,ROWLAND HEIGHTS,
107,,,,,,,,,,PENGUINS,2180 WESTWOOD BLVD #1A,LOS ANGELES,
108,,,,,,,,,,RALPHS MARKET DELI,11727 W OLYMPIC BLVD,LOS ANGELES,
109,Sapp Coffee Shop,,"Thai, Coffee & Tea",930.0,4.0,$,34.10199,34.10199,T5XzED-R0r9KJz74EcHUNg,SAPP COFFEE SHOP,5183 HOLLYWOOD BLVD,LOS ANGELES,
110,Yogurtland Lancaster,,Ice Cream & Frozen Yogurt,35.0,3.5,$$,34.674128,34.674128,vdQK-MBooMeqUMEQf5t7Sg,YOGURTLAND,43535 10TH ST W,LANCASTER,
111,Deja Vu Showgirls Hollywood,,Adult Entertainment,99.0,3.5,$$,34.101816,34.101816,W1WVgpeei2D2nn4GqIZA_Q,DEJA VU SHOWGIRLS,6315 HOLLYWOOD BLVD,LOS ANGELES,
112,Etorna Restaurant,,"Italian, Pizza, Sandwiches",87.0,4.0,$$,34.1491411311277,34.1491411311277,zh4dhUGrNMRqvkJepJtajA,ETORNA RESTAURANT,4661 LAKEVIEW CANYON RD,WESTLAKE VILLAGE,
113,Silverado Beach Cities Memory Care Community,,"Retirement Homes, Assisted Living Facilities, Memory Care",17.0,3.5,,33.853391905322,33.853391905322,XSI9tvYr_dVfvqXWPPxPQQ,SILVERADO BEACH CITIES,514 N PROSPECT AVE,REDONDO BEACH,
114,,,,,,,,,,T.G.I. FRIDAY # 1921,17427 E COLIMA RD,ROWLAND HEIGHTS,
115,Chipotle Mexican Grill,,"Mexican, Fast Food",261.0,3.0,$,34.0973468743117,34.0973468743117,qD5RQ903D6B4eOhxTFUY5Q,CHIPOTLE MEXICAN GRILL #1310,1460 N VINE ST,LOS ANGELES,
116,Charcoal Korean BBQ,,"Korean, Barbeque",336.0,4.0,$$,34.414819,34.414819,xGrwZElRSSlu7EXRIx-vog,CHARCOAL KOREAN BBQ,19158 SOLEDAD CANYON RD,SANTA CLARITA,
117,,,,,,,,,,Z PIZZA,520 W 1ST ST,CLAREMONT,
118,,,,,,,,,,KENNY'S SNACK SHOP,7355 LANKERSHIM BLVD # #59,NORTH HOLLYWOOD,
119,Mangia,,Italian,60.0,3.0,$$,34.0312296,34.0312296,oUGuDHgJv3dxscEVKQNuOA,MANGIA ITALIAN EATERY,30745 PACIFIC COAST HWY,MALIBU,
120,El Pollo Loco,,"Fast Food, Mexican",179.0,1.5,$,34.158038,34.158038,3MXrDOSxIHacar_To6DG0g,EL POLLO LOCO #5861,13357 RIVERSIDE DR,SHERMAN OAKS,
121,Tealicious,,"Bubble Tea, Taiwanese",151.0,3.5,$,34.00233,34.00233,726cg-zvrD9BeEXM_3suVA,TEALICIOUS CAFE,1155 S DIAMOND BAR BLVD STE C,DIAMOND BAR,
122,Eveleigh,,"American (New), Breakfast & Brunch, Cocktail Bars",1234.0,3.5,$$,34.09119,34.09119,cfC8rbJxxmKDaCgXrn_wtg,EVELEIGH,8752 W SUNSET BLVD,WEST HOLLYWOOD,
123,,,,,,,,,,I GRILL,15425 VALLEY BLVD,INDUSTRY,
124,QDOBA Mexican Eats,,"Mexican, Fast Food",205.0,3.5,$$,34.0482731,34.0482731,3O7YbvVTw_pYPIu4rwr4vQ,QDOBA MEXICAN EATS,655 S HOPE ST,LOS ANGELES,
125,El Atacor No 9,,Mexican,94.0,3.0,$,33.954619,33.954619,A-afL5WCgSlgjCeQBB3P4g,EL ATACOR #9,9456 TELEGRAPH RD,DOWNEY,
126,Water Juice & Wireless,,Water Stores,5.0,3.5,,33.7988063024923,33.7988063024923,EmvRNq9E8YRsgGdbHFj-cQ,WATER JUICE & WIRELESS,153 E LOMITA BLVD,CARSON,
127,,,,,,,,,,ANCO GAS AND MARKET,2050 W MANCHESTER AVE,LOS ANGELES,
128,,,,,,,,,,DENNYS 1918,5535 W CENTURY BLVD,LOS ANGELES,
129,Hilton Garden Inn Palmdale,,Hotels,69.0,4.0,$$,34.6085836279815,34.6085836279815,tcUDxI-8hyy_epNysF7JTg,HILTON GARDEN INN,1309 W RANCHO VISTA BLVD,PALMDALE,
130,,,,,,,,,,FORTUNE HOUSE RESTAURANT,7600 BALBOA BLVD,VAN NUYS,
131,,,,,,,,,,#1. JUICY DUMPLING,140 W VALLEY BLVD # 211,SAN GABRIEL,
132,Grunions Sports Bar & Grill,,"Sports Bars, American (Traditional)",178.0,4.0,$$,33.8896446228027,33.8896446228027,vdnBc84M63qJ_k4PSOFHVQ,GRUNIONS SPORTS BAR,1501 N SEPULVEDA BLVD,MANHATTAN BEACH,
133,Joseph's Bar & Grill,,"American (New), Sports Bars",574.0,2.5,$$,33.9412236502815,33.9412236502815,XDJOWimobO5dL1wWknLMkw,JOSEPH'S BAR AND GRILL,11032 DOWNEY AVE,DOWNEY,
134,Aldewaniah,,"Halal, Middle Eastern, Arabian",135.0,4.0,$$,34.0265893,34.0265893,mLAJRLm0SAKAAZVKV-GfKA,ALDEWANIAH RESTAURANT AND MARKET,2528 GRAND AVE,LOS ANGELES,
135,Wetzel's Pretzels,,Pretzels,9.0,2.0,$,33.828721,33.828721,B4b-D-49SH3nRBbpi__wzw,WETZEL'S PRETZELS,21880 HAWTHORNE BLVD 335A,TORRANCE,
136,Original Tommy's World Famous Hamburgers,,"Burgers, Fast Food",131.0,3.0,$,34.13987,34.13987,8PGCiMtwnqE5pSU9w8ZOwA,TOMMY'S WORLD FAMOUS HAMBURG,849 E HUNTINGTON DR,MONROVIA,
137,Three Palms Avalon Arcade,,"Arcades, Bowling",56.0,3.5,,33.3444202105383,33.3444202105383,gvbrlKcjZJGNEU1pYWyp-A,THREE PALMS AVALON ARCADE,225 CRESCENT AVE,AVALON,
138,,,,,,,,,,SENOR G'S,343 CULVER BLVD,PLAYA DEL REY,
139,Yogurtland San Dimas,,Ice Cream & Frozen Yogurt,101.0,3.5,$,34.111668,34.111668,Z8jaayTWBDYr_pnExiFO8Q,YOGURTLAND # 237,468 N LONE HILL AVE,SAN DIMAS,
140,7-Eleven,,"Convenience Stores, Coffee & Tea",13.0,3.0,$,33.8745566287354,33.8745566287354,onB_tdjTokt4FQd3SaSkvw,7-ELEVEN STORE #35745A,4401 REDONDO BEACH BLVD,LAWNDALE,
141,,,,,,,,,,LA VILLA MARKET,2007 E 1ST ST,LOS ANGELES,
142,Kyala Japanese Restaurant,,"Japanese, Sushi Bars",411.0,4.0,$$,34.0015208,34.0015208,2xEAJSwyhmXC1Ainulam_Q,KYALA SUSHI & JAPANESE CUISI,1178 S DIAMOND BAR BLVD,DIAMOND BAR,
143,Caffé bene,,"Gelato, Coffee & Tea, Cafes",155.0,3.5,$,33.891185760498,33.891185760498,XUPRLkt43NgT-qWtyW-yig,CAFFE BENE,15420 S WESTERN AVE,GARDENA,
144,Sweetie Pies & Donuts,,Donuts,69.0,4.5,$,34.6604149,34.6604149,jnjVjNdpFxsVVOE3t0QwXg,SWEETIE PIE,2853 W AVENUE L,LANCASTER,
145,Fun Fish Market,,Seafood,117.0,2.5,$$,33.840746,33.840746,0JDPYmUphD3kN-GOIG99BA,FUN FISH RESTAURANT,131 INTERNATIONAL BOARDWALK,REDONDO BEACH,
146,Panda Express,,"Fast Food, Chinese",23.0,2.0,$$,34.020557,34.020557,9YsLJw8n4DBLsnchm-I8ZA,USC PANDA EXPRESS,3607 TROUSDALE PKWY,LOS ANGELES,
147,Old Gyumri Restaurant,,"Armenian, Russian",153.0,4.5,$$,34.1329825,34.1329825,1xXS0mxzoCJr3BZccn96Mg,OLD GYUMRI,4441 SAN FERNANDO RD,GLENDALE,
148,Gordon Biersch Brewery Restaurant,,"American (New), Breweries, Bars",901.0,3.5,$$,34.180114,34.180114,L3949_lAV_a7eLhfM5nmUg,GORDON BIERSCH BREWING CO,145 S SAN FERNANDO BLVD,BURBANK,
149,Round Table Pizza,,"Pizza, Buffets",128.0,3.0,$$,34.113288,34.113288,wGZK-QUKUfGGF7IhwtbFbg,ROUND TABLE PIZZA,1127 FAIR OAKS AVE,SOUTH PASADENA,
150,Aria Meat & BBQ,,Meat Shops,115.0,4.5,$,34.18468,34.18468,pjAD-mxjJan9iffHA_vnjQ,ARIA MEAT MARKET,228 N GLENOAKS BLVD,BURBANK,
151,Subway,,Sandwiches,44.0,1.5,$,34.2009095492545,34.2009095492545,aKN20KGI-18Wb2DRxg7UFA,SUBWAY SANDWICH SHOP,10970 SHERMAN WAY STE 101,BURBANK,
152,Lee Man Gu Kyodong Jjampong,,"Korean, Noodles",42.0,3.5,$,34.063259,34.063259,UfrIKouWF0BMrNrs5--7Nw,LEE MANGU NOODLES,3500 W 6TH ST # 225,LOS ANGELES,
153,Friar Tuck's Bar & Grille,,"Music Venues, Bars",40.0,3.5,$,34.1066474914551,34.1066474914551,oCY_U4_KgEzxn89tsQFkFA,FRIAR TUCK'S BAR & GRILLE,540 E FOOTHILL BLVD,POMONA,
154,,,,,,,,,,BIONICO'S DON LEO,10920 GARFIELD AVE # B25,SOUTH GATE,
155,The Cold Spot,,"Ice Cream & Frozen Yogurt, Juice Bars & Smoothies",12.0,3.5,$$,33.99124,33.99124,5PCcJpI1wG4RXlXrBTDXEQ,THE COLD SPOT,801 OCEAN FRONT WALK STE #2,VENICE,
156,,,,,,,,,,INTERNAL HOUSE OF PANCAKES,7131 EASTERN AVE,BELL GARDENS,
157,enjoEat classico,,"Pizza, Italian",376.0,4.0,$$,34.023512,34.023512,tknezsJHsmKw7kLIaWNqFQ,ENJOEAT ESPRESSO & CLASSICO,3912 VAN BUREN ST,CULVER CITY,
158,J's Ice Cream Parlor,,"Shaved Ice, Ice Cream & Frozen Yogurt",121.0,4.0,$,33.96301,33.96301,-67eZj-5vxYEZHzbsNFFzA,J'S ICE CREAM PARLOR,8427 ROSEMEAD BLVD,PICO RIVERA,
159,,,,,,,,,,MOBIL OIL,6600 W MANCHESTER AVE,LOS ANGELES,
160,3rd Street Coffee,,"Coffee & Tea, Sandwiches, Breakfast & Brunch",266.0,4.0,$,33.9424787501576,33.9424787501576,wYuqVoqdbFnHiK5p3dd_wQ,THIRD STREET COFFEE,8221 3RD ST STE 101,DOWNEY,
161,Panda Express,,"Chinese, Fast Food",7.0,2.5,$,33.865499,33.865499,U2Wc7JnvAAqZ4wcD1wfVFQ,PANDA EXPRESS,1000 E VICTORIA ST,CARSON,
162,Los Angeles Marriott Burbank Airport,,"Hotels, Venues & Event Spaces",443.0,3.5,$$,34.1939712453086,34.1939712453086,YA-cN30MKiRk2JsKtc5UUQ,MARRIOTT BURBANK COFFEE BAR,2500 N HOLLYWOOD WAY,BURBANK,
163,,,,,,,,,,SUN VILLAGE MARKET,38350 E 90TH ST E,LITTLEROCK,
164,Vons,,"Grocery, Pharmacy",63.0,3.0,$$,34.6034135,34.6034135,AWODSQaga6RlarLgnOBWwA,VONS #3017 MEAT,3027 RANCHO VISTA BLVD,PALMDALE,
165,Mariscos Mi Lindo Nayarit 2,,Mexican,21.0,3.0,$$,33.966434,33.966434,-BTzuKzan2PXnfT8WLGMuA,MI LINDO NAYARIT#2,8000 S CENTRAL AVE,LOS ANGELES,
166,,,,,,,,,,RALPHS MARKET DELI #727,25930 MCBEAN PKWY,VALENCIA,
167,La Sinaloense Bakery,,"Mexican, Bakeries, Juice Bars & Smoothies",44.0,4.0,$,33.9406814575195,33.9406814575195,wPOubyVGgjm7e1K_ax_Ckg,LA SINALOENSE MEAT MARKET,10500 S PRAIRIE AVE,INGLEWOOD,
168,Juice Stop,,"Sandwiches, Juice Bars & Smoothies, Pizza",192.0,4.5,$,34.16416,34.16416,RPE02Sr9kX-mkHm0IbS7ig,JUICE STOP,1112 1/2 W GLENOAKS BLVD,GLENDALE,
169,Burro Gool,,Restaurants,4.0,4.0,$,34.2269821166992,34.2269821166992,6CQpSmX80AzrwVkLDXH2kQ,BURRO GOOOL,14650 PARTHENIA ST # J18,PANORAMA CITY,
170,OK Chinese Restaurant,,Chinese,128.0,3.0,$,34.1156,34.1156,9kdWGbdw3_hGQi5NPBxFeg,OK CHINESE RESTAURANT,6320 N FIGUEROA ST,LOS ANGELES,
171,United Polaris Lounge,,Airport Lounges,24.0,4.5,,33.9426378876403,33.9426378876403,WE1yjZX6nmkOdLimLfCdmg,UNITED AIR INTL 1ST CLASS LN,700 WORLD WAY # T7,LOS ANGELES,
172,Chevron USA,,Gas Stations,38.0,2.5,,34.42081,34.42081,4shufmFyoZxDKzY_h2dV6w,CHEVRON,27549 THE OLD RD,VALENCIA,
173,Kosher Super Meat,,"Meat Shops, Kosher",6.0,4.0,$$,34.1938707,34.1938707,8DWDCq7twzrlXoqW4ABy6w,KOSHER SUPER MEAT,18353 VANOWEN ST #A,RESEDA,
174,,,,,,,,,,CINEMACRATES,5510 CAHUENGA BLVD,NORTH HOLLYWOOD,
175,Metroplex Advisors,,"Financial Advising, Mortgage Brokers, Property Management",2.0,5.0,,34.061385,34.061385,GOwqYpN_LWtchOZdOEkC8Q,METROPLEX SUNDRY & GIFT SHOP,3530 WILSHIRE BLVD STE #175,LOS ANGELES,
176,Sweet Cherries Diner,,"Diners, Breakfast & Brunch",193.0,4.0,$,34.259323,34.259323,GU5DjyHHOfMUifFRzAVKtA,LUDY'S SWEET CHERRIES,8236 FOOTHILL BLVD,SUNLAND,
177,McDonald's,,"Fast Food, Burgers, Coffee & Tea",85.0,2.0,$,33.8444711466575,33.8444711466575,wXg9VXk3iKPxpnQzJbA9-A,MCDONALD'S #26381,235 N PACIFIC COAST HWY,REDONDO BEACH,
178,Ralphs,,Grocery,196.0,3.0,$$,34.04495,34.04495,4Wvj3lisVuoKgHWZF0Cijg,RALPHS-MEAT DEPARTMENT,12057 WILSHIRE BLVD,LOS ANGELES,
179,Jersey Mike's Subs,,"Sandwiches, Fast Food, Delis",197.0,3.0,$,34.172583,34.172583,QbEsgRFtEJjM8n6_ETSSJA,JERSEY MIKE'S SUBS,19458 VENTURA BLVD,TARZANA,
180,Food 4 Less,,Grocery,42.0,2.5,$,33.91808,33.91808,GYGQqWdnhcAJ3_tXXS7ULw,FOOD 4 LESS BAKERY#366,10901 E IMPERIAL HWY,NORWALK,
181,Cafe Orient,,"Vietnamese, Asian Fusion",373.0,4.0,$$,34.2573849,34.2573849,WjbAvJ3rAw8oTtFI8G702A,CAFE ORIENT,20527 DEVONSHIRE ST,CHATSWORTH,
182,Menotti's Coffee Stop,,Coffee & Tea,539.0,4.5,$$,33.9872709,33.9872709,72KgncTmBb86LFpJsq2ElA,MENOTTI'S,56 WINDWARD AVE,LOS ANGELES,
183,Rani's World Foods,,Grocery,19.0,4.5,$,34.016819447279,34.016819447279,RYMBZg4_S3SKIUFQ3a5zOw,RANI'S WORLD FOODS,23377 GOLDEN SPRINGS DR,DIAMOND BAR,
184,Victoria Plaza Liquors,,"Beer, Wine & Spirits",2.0,5.0,,34.047479,34.047479,TZBAfq6QYkAfQ9IolbopaQ,VICTORIA PLAZA LIQUOR,4226 W PICO BLVD,LOS ANGELES,
185,CF Food Kitchen,,"American (New), Cajun/Creole",587.0,4.5,$$,34.2577209472656,34.2577209472656,968e6d9QUE2TsgP4WcaGVw,CF FOOD KITCHEN & CATERING,16205 DEVONSHIRE ST STE #C&D,GRANADA HILLS,
186,,,,,,,,,,VON'S BAKERY #3517,24325 CRENSHAW BLVD,TORRANCE,
187,Shin-Sen-Gumi Yakitori -Gardena,,"Japanese, Tapas/Small Plates",1209.0,4.5,$$,33.8627706382398,33.8627706382398,AoVpGltId_6RahW9DAEKpg,YAKITORI-SHIN SEN GUMI,18517 S WESTERN AVE,GARDENA,
188,Golden Teriyaki,,Japanese,40.0,4.0,$,34.129675,34.129675,eHN65yR_VgiUBGQ5ZAWGkg,GOLDEN TERIYAKI,150 E DUARTE RD,ARCADIA,
189,,,,,,,,,,ALTADENA MARKET,6826 KESTER AVE,VAN NUYS,
190,Crème Caramel LA,,"Desserts, Coffee & Tea, Bakeries",770.0,4.5,$$,34.172367,34.172367,abXSzvnkvagjdUs3ufrFLA,CREME CARAMEL LA,14849 BURBANK BLVD,SHERMAN OAKS,
191,Starbucks,,Coffee & Tea,27.0,3.0,$,34.09855,34.09855,Yi5okCVo7bHzLchcORqVHw,STARBUCKS KIOSK INSIDE RALPH'S,7257 W SUNSET BLVD,WEST HOLLYWOOD,
192,,,,,,,,,,WESTIN LA HOTEL-EMPLOYEE      CAFE,5400 W CENTURY BLVD,LOS ANGELES,
193,Xiomara,,"Cuban, Bars, Tapas Bars",243.0,4.0,$$$,34.08371,34.08371,bUd-dCoUJnNiDXBptuZdxA,XIOMARA ON MELROSE,6101 MELROSE AVE,LOS ANGELES,
194,,,,,,,,,,JUICE PARADISE,20801 GOLDEN SPRINGS DR,DIAMOND BAR,
195,Los 3 Potosinos,,Mexican,243.0,3.5,$,33.8823631,33.8823631,EeQqpSIsfVwJw0Oal0XwKQ,LOS 3 POTOSINO'S MEXICAN FOOD,16323 S WESTERN AVE,GARDENA,
196,,,,,,,,,,EASTERN FISH MARKET #3,945 E HOLT AVE,POMONA,
197,Taquisa,,Mexican,150.0,3.5,$,34.036356,34.036356,FZugJuo8pzMBkyW3x-RVvQ,TAQUISA MEXICAN RESTAURANT,1001 E AMAR RD STE 108,WEST COVINA,
198,,,,,,,,,,GOODSTUFF,131 W GRAND AVE STE C,EL SEGUNDO,
199,Rosti Tuscan Kitchen,,"Italian, Salad, Pizza",145.0,3.5,$$,34.1567726135254,34.1567726135254,psSgvIZD9Mm8A8QutYCimA,ROSTI TUSCAN KITCHEN,16350 VENTURA BLVD STE F,ENCINO,
200,Joyce's Coffee Shop and Restaurant,,"Coffee & Tea, Breakfast & Brunch, Waffles",433.0,4.0,$$,34.23156,34.23156,yv2-b2VKay-bIh5RQquCPQ,JOYCE'S COFFEE SHOP,8826 RESEDA BLVD,NORTHRIDGE,
201,,,,,,,,,,PAY LESS PRODUCE,10817 VENICE BLVD,LOS ANGELES,
202,,,,,,,,,,BAR,2400 COUNTRY CLUB DR,GLENDORA,
203,Metro Super Market,,Grocery,25.0,3.0,$,34.0899391174316,34.0899391174316,7SxigSR3pbHyLVaIyN7PrA,METRO SUPERMARKET - DELI,4819 TEMPLE CITY BLVD,TEMPLE CITY,
204,Crabby's Seafood & More,,"Seafood, Mexican, Latin American",390.0,4.0,$$,34.0108764,34.0108764,mjnMhjxwV8O5RI_vmCbBIQ,CRABBY'S SEAFOOD,125 N MONTEBELLO BLVD STE D,MONTEBELLO,
205,Hacienda Corona,,Dance Clubs,8.0,3.5,$$,34.186494,34.186494,XHyy0d4jATlFeLfBMYnfPA,HACIENDA CORONA,11700 VICTORY BLVD,NORTH HOLLYWOOD,
206,Edible Arrangements,,"Gift Shops, Florists, Chocolatiers & Shops",99.0,2.5,$$$,34.0944751,34.0944751,Yzo2WQrcPFBQgk7WA1w8TQ,EDIBLE ARRANGEMENTS,560 W 1ST ST,CLAREMONT,
207,Le Cafe Noir,,Cafes,25.0,4.5,$,34.0648117,34.0648117,gYSGX3GblQ6gDNT1rT2iyw,LE CAFE NOIR,500 S VIRGIL AVE STE 105,LOS ANGELES,
208,,,,,,,,,,BROTHERS BURRITOS,24 11TH ST,HERMOSA BEACH,
209,7-Eleven,,"Convenience Stores, Coffee & Tea",11.0,2.5,$,33.872622517648,33.872622517648,1AzSouBurOYK7j5wa3b1cg,7-ELEVEN #39066A,10454 E ARTESIA BLVD STE A,BELLFLOWER,
210,Olympic Donuts,,Donuts,51.0,4.0,$,34.0896,34.0896,5j-iMd4K_Wh45BnUA9eSoQ,OLYMPIC DONUTS #16,4805 TEMPLE CITY BLVD,TEMPLE CITY,
211,Ralphs,,Grocery,188.0,3.0,$$,34.0320237174903,34.0320237174903,QZulGq646k8J1UfJbfDvhA,RALPHS MARKET #294 - DELI/BAKERY,2600 S VERMONT AVE,LOS ANGELES,
212,Las Perlas,,"Lounges, Cocktail Bars",733.0,4.0,$$,34.0450325012207,34.0450325012207,iRCPKpFpwvj18kOkPtA5Lw,LAS PERLAS MEZCAL BAR,107 E 6TH ST,LOS ANGELES,
213,Cherry Garden Market,,Grocery,6.0,3.0,$$,34.090546,34.090546,xD1G5G5xsx7pxHT6xqMCNg,CHERRY GARDEN,7820 SANTA MONICA BLVD,WEST HOLLYWOOD,
214,Tonos Market,,Grocery,4.0,4.0,$,33.97236,33.97236,4m7MgQtAe9UOBcPU6DFMKA,TONO'S MARKET,6502 IRA AVE,BELL GARDENS,
215,Another Broken Egg Cafe,,"Breakfast & Brunch, Cafes, American (Traditional)",1375.0,4.0,$$,34.181852,34.181852,9N_VN5zNJefWLll9cR0-oA,ANOTHER BROKEN EGG,250 E OLIVE AVE STE 110,BURBANK,
216,,,,,,,,,,MINI MARKET EL BARATERO,3842 E 1ST ST,LOS ANGELES,
217,,,,,,,,,,COVINA CHEVRON,15955 E SAN BERNARDINO RD,COVINA,
218,Emmy Doo's,,"Ice Cream & Frozen Yogurt, Desserts",91.0,4.0,$,33.9790466086915,33.9790466086915,1e5nQfvhDQcAGX2X7pnp4w,EMMY DOO'S,13102 PHILADELPHIA ST,WHITTIER,
