,name,address,review_count,rating,price,categories,latitude,longitude,yelp_id,hours,name_input,address_input,city_input
0,,,,,,,,,,,DOLE GARDEN COURT CAFE,1 DOLE DR,WESTLAKE VILLAGE
1,Sicha Siam,,152.0,3.5,$,Thai,34.124475,34.124475,JIELQnVOUzQcNTY4IiZYVg,,SICHA SIAM RESTAURANT,4403 EAGLE ROCK BLVD,LOS ANGELES
2,Superior Grocers,,20.0,1.5,$,"Grocery, Bakeries, Meat Shops",33.96893,33.96893,N2b3jR34MO9UrSekVz_f6w,,SUPERIOR GROCERS #105 - MEAT,7300 ATLANTIC BLVD,CUDAHY
3,The Great Caesar Banquet Hall,,79.0,4.5,,Venues & Event Spaces,34.24761,34.24761,7q0qqNsv2qirxqOdvM8uNQ,,CAESAR PALACE,6723 FOOTHILL BLVD,TUJUNGA
4,,,,,,,,,,,WALGREEN'S #09050,253 E FOOTHILL BLVD,ARCADIA
5,Cafe of Paris,,73.0,4.0,$,"Breakfast & Brunch, Sandwiches, Cafes",34.064121,34.064121,_r1sUQyj_N5efmh8nHnzTQ,,CAFE OF PARIS,6399 WILSHIRE BLVD #101,LOS ANGELES
6,The Slice,,137.0,3.5,$,"Pizza, Italian",34.0117584,34.0117584,VZcyc4SS2hhdrtiCpdwLjg,,THE SLICE,1622 OCEAN PARK BLVD,SANTA MONICA
7,Kavita Grocery,,35.0,3.5,$,"Grocery, Convenience Stores, International Grocery",34.0218599,34.0218599,D-zG7BPubw24GnwRgkFCsA,,KAVITA GROCERIES,10201 VENICE BLVD,LOS ANGELES
8,Ruth's Chris Steak House,,741.0,4.0,$$$,"Steakhouses, Seafood, Wine Bars",33.986639,33.986639,rKL4-4i0yGAOEs7EpNSgzw,,RUTH'S CHRIS STEAK HOUSE,13455 MAXELLA AVE #230,MARINA DEL REY
9,Ralphs,,78.0,3.0,$$,Grocery,33.82717,33.82717,_TRsxh1r0cjUs7CIkNCI_A,,KIKKA/RALPHS #110,3455 SEPULVEDA BLVD,TORRANCE
10,Belcampo Butcher Shop,,68.0,4.5,$$$,"Butcher, Meat Shops, Health Markets",34.0240954,34.0240954,VK2Esm7-nN_hlnLnlNdYlQ,,BELCAMPO MEAT CO,1026 WILSHIRE BLVD,SANTA MONICA
11,New Moon Cafe,,119.0,3.0,$,Chinese,34.0491055,34.0491055,1EFWlHTr7WrVxeVdLD4oGA,,NEW MOON CAFE,735 S FIGUEROA ST #117,LOS ANGELES
12,,,,,,,,,,,G AND M OIL CO #88,2601 N FIGUEROA ST,LOS ANGELES
13,Stars Drive-In,,233.0,3.5,$,"Burgers, Breakfast & Brunch, Sandwiches",34.2013617636274,34.2013617636274,D4cP94o6GofuGDwhoP1xSQ,,STARS DRIVE INC,20445 SHERMAN WAY,WINNETKA
14,Salad Farm,,167.0,3.0,$$,"Sandwiches, Salad, Fast Food",34.048318,34.048318,llIYK2iVqPoNUp83bnGUnw,,SALADFARM,11047 SANTA MONICA BLVD,LOS ANGELES
15,Juice Served Here,,32.0,4.5,$$,"Juice Bars & Smoothies, Coffee & Tea, Vegan",34.02144,34.02144,aI60NGF7WDJO9KrmxgQQYA,,JUICE SERVED HERE,631 WILSHIRE BLVD # B,SANTA MONICA
16,The Boutique Spa at The Ritz-Carlton,,3.0,3.0,$$$$,Day Spas,33.9843483,33.9843483,lNFKvuISPSJo-SwQXWEpPg,,THE RITZ BAR JERNE,4375 ADMIRALTY WAY,MARINA DEL REY
17,Cemitas Poblanas Don Adrian,,190.0,4.0,$,Mexican,34.186284,34.186284,fShB2P8CeuAi5VbVPAi-4A,,CEMITAS POBLANAS DON ADRIAN,14902 VICTORY BLVD,VAN NUYS
18,Anejo Cantina and Grill,,1954.0,4.0,$$,"Mexican, Cocktail Bars",34.1522029934436,34.1522029934436,6lyATTyAjD45AM_bGiI2jQ,,ANEJO CANTINA AND GRILL,14755 VENTURA BLVD STE C&D,SHERMAN OAKS
19,,,,,,,,,,,GLOBAL CUISINE,3315 N CAHUENGA WEST BLVD,LOS ANGELES
20,Burger Lounge,,422.0,4.0,$$,Burgers,34.05287,34.05287,zKnkaViDqtoN1uZ_rUVy8A,,BURGER LOUNGE,11740 SAN VINCENTE BLVD #102,LOS ANGELES
21,Antigua Bread,,437.0,4.0,$,"Coffee & Tea, Bakeries, Breakfast & Brunch",34.10994,34.10994,I-GVl64j9VUbuJJhcjAJ2A,,ANTIGUA BREAD,5703 N FIGUEROA ST,LOS ANGELES
22,Asahi Ramen,,663.0,3.5,$,Ramen,34.040196,34.040196,CDMLO4R8rBrBGwbgyR-12g,,ASAHI RAMEN,2027 SAWTELLE BLVD,LOS ANGELES
23,The Must,,434.0,4.0,$$,"American (New), Wine Bars",34.047149,34.047149,CD0ZxUasMSNinDiZkEE7rQ,,THE MUST,117 WINSTON ST # 101,LOS ANGELES
24,Tsukiji Sushi Sen,,321.0,4.0,$$,Sushi Bars,33.9992561340332,33.9992561340332,jG1DYZdKSQGnwpmVr9m7tg,,TSUKIJI SUSHI SEN,2915 MAIN ST,SANTA MONICA
25,Rita's Italian Ice,,52.0,4.5,$,"Desserts, Shaved Ice, Ice Cream & Frozen Yogurt",34.3872109471869,34.3872109471869,rEWcWctccBy7RSKReojmUw,,RITA'S ICE-CUSTARD-HAPPINESS,25802 HEMINGWAY AVE # 100,STEVENSON RANCH
26,Billiards Corner,,32.0,4.5,$,"Pool Halls, Bars, American (Traditional)",34.1331559,34.1331559,GumESvAbddb2VwhwGuGLtg,,BILLIARDS CORNER,1111 S CENTRAL AVE,GLENDALE
27,Hungry Boy Burgers,,131.0,2.5,$,"Burgers, Sandwiches",33.93497,33.93497,FjMM_hJ-G6KHeyz3cbL8CA,,HUNGRY BOY BURGER,10810 S NORWALK BLVD,SANTA FE SPRINGS
28,,,,,,,,,,,LAS PALMAS SENIOR CITIZENS C,1820 N LAS PALMAS AVE,LOS ANGELES
29,Affair With My Plate,,233.0,4.5,$$,"Pizza, Modern European",34.0481,34.0481,GLMqlLkJHSpaVWJujSQ2bw,,AFFAIR WITH MY PLATE,11819 WILSHIRE BLVD # 103,LOS ANGELES
30,Jack in the Box,,85.0,2.5,$,"Burgers, Fast Food, Tacos",34.0647558,34.0647558,JEdAusXDHhlHTRHt58TtBQ,,JACK IN THE BOX #3378,516 N BEAUDRY AVE,LOS ANGELES
31,Superior Grocers,,19.0,2.0,$$,"Grocery, Bakeries, Meat Shops",33.9433153,33.9433153,yEAjU4Lkb3zy-af6YjwWeQ,,SUPERIOR SUPER WHSE BAKERY,10211 S AVALON BLVD,LOS ANGELES
32,,,,,,,,,,,TAQUERIA Y PUPUSERIA CORP,1917 S VERMONT AVE,LOS ANGELES
33,La Mexicana Market,,7.0,3.5,$,"Grocery, Food Stands, Mexican",33.9165649,33.9165649,7mXSpesZQCOWqNAlFwljiA,,LA MEXICANA MARKET & MEAT DEPT,1261 W EL SEGUNDO BLVD,GARDENA
34,Mother's Nutritional Centers,,5.0,3.5,$$,"Health Markets, Grocery",33.97304,33.97304,9fBqfP3kErDzO4bo3BWDtQ,,MOTHERS NUTRITIONAL CTR #405,6501 GARFIELD AVE # #C,BELL GARDENS
35,J's Liquor,,6.0,4.0,$,"Beer, Wine & Spirits",33.8730549,33.8730549,_3Iad8QO-78E2VEjxSFtzA,,J'S LIQUOR,3133 ARTESIA BLVD,TORRANCE
36,Little Wang Kung,,73.0,4.0,$,"Chinese, Seafood, Soup",34.0601856826038,34.0601856826038,Tp-_MRF7EY64ryE-_jUFFQ,,LITTLE WANG KUNG,691 S HOOVER ST,LOS ANGELES
37,,,,,,,,,,,FOXYS LANDING,4555 W AVENUE G STE #22,LANCASTER
38,King Taco,,324.0,3.0,$,Mexican,34.0624542236328,34.0624542236328,mKEu5smUWQbOHgYQ-49tdg,,KING TACO II,10420 GARVEY AVE,SOUTH EL MONTE
39,Seafood City Supermarket,,95.0,3.5,$$,"Seafood Markets, Filipino, International Grocery",34.220268,34.220268,jlqb4_oWkvn2wXaYqJNAug,,SEAFOOD CITY-MEAT,8231 WOODMAN AVE,PANORAMA CITY
40,Olympic Coffee Shop,,60.0,4.0,$,"Coffee & Tea, Breakfast & Brunch, Cafes",34.29182,34.29182,i0O3aSrfiWAPljKq3WKrNQ,,OLYMPIC COFFEE SHOP,12192 SAN FERNANDO RD,SYLMAR
41,One Stop Bakery,,155.0,4.5,$,"Bakeries, Cupcakes, Donuts",34.6615026680515,34.6615026680515,t7TMfK3F3Or471kxBru9UA,,ONE STOP BAKERY,4079 W AVENUE L,LANCASTER
42,Luis Meat Market,,9.0,4.0,$,Meat Shops,34.006293,34.006293,0ehbQLBCihtxxMphrt-3tQ,,"J LUIS MARKET, INC.",4253 S VERMONT AVE,LOS ANGELES
43,,,,,,,,,,,HUGHES RESEARCH LAB,3011 MALIBU CANYON RD # 100,MALIBU
44,J's Kitchen,,22.0,3.0,$$,Vegan,33.9914035052061,33.9914035052061,yDBSBAL6TFPbyvKgzDSLgg,,BOOST KITCHEN/PREP KITCHEN,1239 ABBOT KINNEY BLVD,VENICE
45,,,,,,,,,,,MARGARITA'S MEXICAN FOOD,15257 GALE AVE,INDUSTRY
46,Shanghai Yau Fat,,144.0,3.5,$$,Chinese,34.077652,34.077652,08FnpUrVtm3gNwOB-pfOHw,,SHANGHAI YAU FAT RESTAURANT,1721 W VALLEY BLVD,ALHAMBRA
47,Ten Ren's Tea Time,,471.0,3.5,$,"Coffee & Tea, Chinese, Hot Pot",34.0279335,34.0279335,oIu4gHXo-ea4hhDBnB7_Gg,,TEN REN'S TEA TIME,515 N GRAND AVE STE F,WALNUT
48,Sweet Rose Creamery,,1093.0,4.0,$$,Ice Cream & Frozen Yogurt,34.0473775554415,34.0473775554415,wItLFNgqfTWFmWG_Uxujag,,SWEET ROSE CREAMERY,225 26TH ST # #51,SANTA MONICA
49,,,,,,,,,,,LA UNION,4634 E GAGE AVE,BELL
50,Tujunga Shell,,23.0,4.0,,"Gas Stations, Smog Check Stations",34.2561151,34.2561151,1YJLwa_zcMsqQuWVbk1zjg,,TUJUNGA SHELL,7671 FOOTHILL BLVD,TUJUNGA
51,Louisiana Famous Fried Chicken,,6.0,3.0,,Chicken Wings,33.93867,33.93867,yGjCVrjc6_pS2zy43Zppkw,,CHINA BOWL EXPRESS FRIED CHICKEN,10714 S WESTERN AVE # 107,LOS ANGELES
52,Canal Club,,280.0,3.5,$$,"Sushi Bars, Bars, Japanese",33.9850592,33.9850592,SAF1VnKzZehMG5axfxpkBQ,,CANAL CLUB,2025 PACIFIC AVE,VENICE
53,24 Hour Fitness - Beverly Hills,,360.0,2.0,,"Gyms, Trainers",34.0533705456282,34.0533705456282,1F5cI_lUKfAPwhH3mbsJvg,,24 HOUR FITNESS,9911 W PICO BLVD # A,LOS ANGELES
54,,,,,,,,,,,WILL'S JR MARKET,1060 E HYDE PARK BLVD,INGLEWOOD
55,Cricca's Italian Deli & Subs,,693.0,4.5,$$,"Delis, Sandwiches, Italian",34.1564517,34.1564517,lH5bWUN4gViQ2JSXl6lq_w,,CRICCA'S ITALIAN DELI & SUBS,4876 TOPANGA CANYON BLVD,WOODLAND HILLS
56,Chevron Station,,11.0,3.0,,Gas Stations,34.154125,34.154125,AMVDEZbocwR4wfcJhiJn2w,,CHEVRON,24101 VENTURA BLVD,CALABASAS
57,El Sol Restaurant,,22.0,4.5,$,Mexican,34.0750167,34.0750167,Jc-mJ8HAAwbAfRTpPrKyBQ,,EL SOL RESTAURANTE,12010 RAMONA BLVD STE 11,EL MONTE
58,,,,,,,,,,,THE CABANA INN,7110 ATLANTIC AVE,BELL
59,Mr. Chopsticks Seafood Restaurant,,182.0,3.5,$,Chinese,34.0914802164324,34.0914802164324,rMI3kKwAwGZT2egwLUniNA,,MR CHOPSTICKS,10990 LOWER AZUSA RD STE 10,EL MONTE
60,Cousins Burgers,,150.0,4.0,$,Burgers,34.414923,34.414923,n6HUhZpyR4sTzmrT2OSD-A,,COUSINS BURGERS,19318 SOLEDAD CANYON RD,CANYON COUNTRY
61,Han Kook Soondae,,27.0,4.0,$$,Korean,34.0587120056152,34.0587120056152,M7sIR7-u4NRPxU8-2ZzFDg,,HAN KOOK SOON DAE,730 S WESTERN AVE STE #111,LOS ANGELES
62,Chin's Hawaiian Teriyaki Bbq Chicken,,75.0,4.0,$,"Barbeque, Chicken Wings",34.0421867,34.0421867,9RB_-5aXR9HMdrpcA6L5WQ,,CHIN'S TERIYAKI BBQ CHICKEN,1708 S WESTERN AVE,LOS ANGELES
63,Food 4 Less,,50.0,3.5,$,Grocery,34.0415781,34.0415781,vvd54k2bq34GiRJ10AKZUw,,FOOD 4 LESS #363 - BAKERY,2750 E 1ST ST,LOS ANGELES
64,Tea Bar,,145.0,4.0,$,"Taiwanese, Bubble Tea, Tea Rooms",34.1282993415744,34.1282993415744,o9k9x7Q9AnjwXA2T2tAuSw,,TEA BAR,954 E ALOSTA AVE,AZUSA
65,,,,,,,,,,,SWEET VILLAGE,4501 S ALAMEDA ST # #83,LOS ANGELES
66,Sepulveda Donuts,,45.0,4.0,$,"Donuts, Coffee & Tea, Sandwiches",33.9998845,33.9998845,q7Af45p4BOaZdCPTDuOuDw,,SEPULVEDA DONUTS,4905 S SEPULVEDA BLVD,CULVER CITY
67,Lemon Poppy Kitchen,,619.0,4.0,$$,"Cafes, Breakfast & Brunch, Coffee & Tea",34.1121895,34.1121895,0z7gwkDXQPbJaEP3QIBf1A,,LEMON POPPY KITHCEN,3324 VERDUGO RD,LOS ANGELES
68,Taqueria Zavalas,,30.0,3.0,$,Mexican,33.903144,33.903144,nFT-maHKMHCdKqdCAaWWkA,,TAQUERIA ZAVALA,518 E ROSECRANS AVE,COMPTON
69,Tammy's Bakery,,1.0,2.0,$$,Bakeries,33.9872922,33.9872922,hefmETkxYEJ9rgvIS6DA9w,,TAMMY'S CAKES,4467 SLAUSON AVE,MAYWOOD
70,Kings Louisiana Seafood,,6.0,4.0,$,Seafood,34.0110103310282,34.0110103310282,QEEDBO-Sj1uBmCJgItrMTQ,,KING LOUISIANA SEAFOOD,1541 W MLK BLVD,LOS ANGELES
71,Starbucks,,155.0,3.0,$,Coffee & Tea,34.098207,34.098207,aGMNfep4WtMi3hSu4-vXAQ,,STARBUCKS COFFEE #5402,7055 W SUNSET BLVD,LOS ANGELES
72,Morinoya,,258.0,3.5,$$,"Tapas/Small Plates, Izakaya",34.038391,34.038391,4Z5eYWjjpD3ljk1g6tlYUg,,MORINOYA,11301 W OLYMPIC BLVD STE 210,LOS ANGELES
73,Subway,,16.0,3.0,$,Sandwiches,34.2455025645143,34.2455025645143,HD_GoNUlsAHWOlMmhK3tcQ,,SUBWAY SANDWICHES,6520 FOOTHILL BLVD # 102,TUJUNGA
74,Super Tacos Culiacan,,32.0,3.5,$$,Mexican,33.9040565490723,33.9040565490723,oP_QsSvVC1qKqtwi518etw,,SUPER TACOS CULIACAN,8505 E ROSECRANS AVE STE B2,PARAMOUNT
75,Dairy Queen,,83.0,2.0,$,"Fast Food, Ice Cream & Frozen Yogurt",34.1054915140458,34.1054915140458,jCYg-ZVSJMyID8OjTAo9ig,,DAIRY QUEEN #43352,667 W ARROW HWY #B,SAN DIMAS
76,Sunset Junction Coffee Shop,,317.0,4.0,$$,Diners,34.09177,34.09177,VOc_unXEj1Doeb8vgCccZQ,,SUNSET JUNCTION COFFEE SHOP,3916 W SUNSET BLVD,LOS ANGELES
77,The Baked Potato,,271.0,4.0,$$,"Jazz & Blues, American (Traditional)",34.1366004943848,34.1366004943848,O89LOzlpGS4_U9AekLOobA,,THE BAKED POTATO,3787 CAHUENGA BLVD,STUDIO CITY
78,Canton Kitchen,,87.0,4.0,$,Chinese,33.9613154,33.9613154,WTMpdx9VYHy4p1wofgKFMQ,,CANTON KITCHEN,402 W MANCHESTER BLVD,INGLEWOOD
79,Carl's Jr,,45.0,2.5,$,American (New),33.8852742013053,33.8852742013053,CVVzdJ56Ykmd6IU6fKnpeA,,CARL'S JR #66,2210 REDONDO BEACH BLVD,TORRANCE
80,Mercado Del Pueblo,,3.0,4.0,,"Grocery, Mexican",34.07833,34.07833,JH7K1oDaAoG2lvyNyjC1lw,,EL MERCADO DEL PUEBLO MARKET - DELI,12760 E RAMONA BLVD,BALDWIN PARK
81,Hui Tou Xiang,,570.0,4.0,$,Chinese,34.1019838967022,34.1019838967022,S0WkMzdxC17YvQ5bOZQnoA,,HUI TOU XIANG NOODLE HOUSE,704 W LAS TUNAS DR STE #5,SAN GABRIEL
82,,,,,,,,,,,THE SPICY RESTAURANT,4254 1/2 W 3RD ST,LOS ANGELES
83,Matt's Fish Market,,46.0,4.0,$$,Seafood Markets,33.89673,33.89673,n0N76JkS-z6WLkoZDlKeFA,,MATT'S FISH MARKET,123 N WILMINGTON AVE,COMPTON
84,Little Ongpin-Beverly,,52.0,3.5,$,"Filipino, Chinese",34.0645701846348,34.0645701846348,7x2QSD9ikaxHwLuH6oOMbw,,LITTLE ONGPIN FAST FOOD,1700 BEVERLY BLVD,LOS ANGELES
85,Fish Grill,,292.0,4.0,$$,"Seafood, Kosher",34.0760354,34.0760354,-2AdXfCXYjLBuyFc0KFFXA,,FISH GRILL,7226 BEVERLY BLVD,LOS ANGELES
86,The Peppertree Grill,,76.0,4.0,$$,"Argentine, Lounges, Cocktail Bars",34.1615791320801,34.1615791320801,Gbhp7VMV7WJoFNeBbHTXow,,THE PEPPERTREE GRILL,322 W SIERRA MADRE BLVD,SIERRA MADRE
87,,,,,,,,,,,MAYAN RESTAURANT,1811 W 6TH ST,LOS ANGELES
88,Pressed Juicery,,84.0,4.5,$$,"Juice Bars & Smoothies, Vegan, Health Markets",33.88512583,33.88512583,oxljXYBksSOYpDArox3qmg,,PRESSED JUICERY,310 MANHATTAN BEACH BLVD,MANHATTAN BEACH
89,Pescado Dorado,,361.0,4.5,$,"Mexican, Seafood",33.9472985932173,33.9472985932173,DTFn-sTRy1y8Z7iahVdqEA,,PESCADO DORADO,11530 E TELEGRAPH RD,SANTA FE SPRINGS
90,Little Tokyo Sushi,,40.0,4.0,$,"Japanese, Sushi Bars",34.044536,34.044536,-7qgRL3jMiE3JQU-9aE0wg,,HONDA-YA LITTLE TOKYO,333 S ALAMEDA ST STE 314,LOS ANGELES
91,Jack in the Box,,20.0,1.5,$,"Fast Food, Burgers, Tacos",34.007935,34.007935,pa6WoJsbvXmSi8FmcjFAVQ,,JACK IN THE BOX,4210 S CRENSHAW BLVD,LOS ANGELES
92,Wok On The Wild Side,,355.0,3.5,$$,Chinese,33.9757972,33.9757972,GBbbu-rQgybRSNlZGU4tRQ,,WOK ON THE WILD SIDE,929 N LA BREA AVE,INGLEWOOD
93,Prado Restaurant,,469.0,4.0,$$,"Caribbean, Latin American",34.0752848173242,34.0752848173242,jOg6nYpRhW0hOF0EmF8zGw,,PRADO RESTURANT,244 N LARCHMONT BLVD,LOS ANGELES
94,Baja Fresh,,108.0,3.0,$,"Mexican, Tex-Mex, Fast Food",34.1014051,34.1014051,gnz79Oen8SX_I8opX_zMrg,,BAJA FRESH,6922 HOLLYWOOD BLVD STE #106,LOS ANGELES
95,,,,,,,,,FQE4zn6tdswoIma3GCVEhg,,HONG GALBI,3132 W OLYMPIC BLVD,LOS ANGELES
96,Samurai Sushi & Teriyaki,,360.0,3.0,$$,"Japanese, Sushi Bars",34.011116,34.011116,yGA82NgKLrCoEoQWyXh_6A,,MONTE SUSHI,137 N MONTEBELLO BLVD # C,MONTEBELLO
97,Aroma Wireless,,1.0,5.0,,Mobile Phones,34.060685,34.060685,mrPW3sh_FMNygTwGov8Xfg,,AROMA JUICE BAR,3680 WILSHIRE BLVD STE T02,LOS ANGELES
98,New World Buffet,,36.0,3.0,$,"American (New), Seafood, Barbeque",33.9822044,33.9822044,yfxSYBGbtgRCzbyW0An2xQ,,NEW WORLD BUFFET,1419 E GAGE AVE,LOS ANGELES
99,Bumblebee Donuts,,142.0,4.5,$,"Donuts, Juice Bars & Smoothies, Sandwiches",34.031825278778,34.031825278778,z2qfXr92DeA9Fx-1PPp-tQ,,BUMBLEBEE DONUTS,867 N WILCOX AVE,MONTEBELLO
100,Northgate Market,,14.0,2.0,$,"Mexican, Grocery, Bakeries",33.895408,33.895408,WY4woOa2AKQaiWAEUywShw,,NORTHGATE MARKET (BAKERY),15107 S ATLANTIC AVE,COMPTON
101,Urban Cafe III,,22.0,5.0,$,"Coffee & Tea, Breakfast & Brunch, Sandwiches",34.15714,34.15714,2jzDOv5cvbHKnTGPivIJzQ,,URBAN CAFE #3,701 N BRAND BLVD #170,GLENDALE
102,Café Stella,,915.0,3.5,$$$,"French, Cocktail Bars, Breakfast & Brunch",34.0921489105996,34.0921489105996,fZt2vAYJEEYw94P6lddtgw,,CAFE STELLA,3932 W SUNSET BLVD,LOS ANGELES
103,,,,,,,,,,,HARRYS MARKET,8751 S COMPTON AVE,LOS ANGELES
104,Popeyes Louisiana Kitchen,,106.0,2.0,$$,"Fast Food, Chicken Wings",34.2087,34.2087,gds6XdvmudbLu7BBNrj8Sg,,POPEYES CHICKEN #3318,7608 SEPULVEDA BLVD,VAN NUYS
105,Pico Glatt Mart,,38.0,4.0,$$,Grocery,34.0554049,34.0554049,DgVfpQRtR2XP3TMMIwfCCQ,,PICO GLATT KOSHER DELI,9427 W PICO BLVD,LOS ANGELES
106,Lo/Cal Coffee and Market,,263.0,4.5,$$,"Coffee & Tea, Empanadas, Sandwiches",34.0206223,34.0206223,VRm-vEYB6k0a81_nfGObJA,,LOCAL COFFEE AND MARKET,2214 PICO BLVD,SANTA MONICA
107,Kabob Corner,,87.0,2.5,$$,Indian,33.860484,33.860484,sAb1tJNlKIXv2Jp5jcj3zw,,KABOB CORNER,18738 PIONEER BLVD,ARTESIA
108,Tagine Beverly Hills,,875.0,4.0,$$$,Moroccan,34.067728,34.067728,XQjnIHXi3jFRRNfcP_9c5Q,,TAGINE BEVERLY HILLS,132 N ROBERTSON BLVD,BEVERLY HILLS
109,Bristol Farms - Westchester,,286.0,3.5,$$$,"Grocery, Specialty Food, Beer, Wine & Spirits",33.961137,33.961137,vNJ4ogEvcVMP3f0OLZP7ew,,BRISTOL FARMS #2304DELL-CAFE,8448 LINCOLN BLVD,LOS ANGELES
110,Bhanu Indian Cuisine & Market,,1163.0,4.5,$$,"Indian, International Grocery",34.1286927,34.1286927,QjjBVHsRazAbCL4d0rKVzg,,BHANU'S INDIAN GROCERY & CUS,7246 ROSEMEAD BLVD,SAN GABRIEL
111,Book Sae Tong,,56.0,4.0,$$,"Korean, Barbeque",34.05817,34.05817,wqiaRLohE7ykHpCaX6Nq2Q,,BOOK SEA TONG,755 S VERMONT AVE,LOS ANGELES
112,The Woodman,,1051.0,4.0,$$,"Pubs, Gastropubs, Sports Bars",34.148148,34.148148,eXgljPZylSRcveqDK_HNuw,,THE WOODMAN,13615 VENTURA BLVD,SHERMAN OAKS
113,Shop Calamigos,,2.0,3.5,,"Accessories, Women's Clothing",34.0918474,34.0918474,4au42mEImY6daKzSoCq1ug,,MALIBU CAFE AT CALAMIGOS RAN,327 S LATIGO CANYON RD,MALIBU
114,,,,,,,,,,,CORONA RANCH MARKET,5903 S MAIN ST,LOS ANGELES
115,Chef's Corner Pizzeria,,37.0,3.5,$,Pizza,33.732136,33.732136,WjOdpQAAcqRs2KLKtdSO7w,,CHEF'S CORNER PIZZERIA,1306 S GAFFEY ST #105,SAN PEDRO
116,Lalos Grill Restaurant,,83.0,4.0,$,Mexican,33.95296,33.95296,aXdU4o6YDSBjN4imUax52w,,LALO'S GRILL,429 W ARBOR VITAE ST,INGLEWOOD
117,Yolanda's Bakery,,28.0,4.0,$,"Bakeries, Custom Cakes, Desserts",34.200651,34.200651,76vOo6WxD1Ez6ZW0n8TuYw,,YOLANDAS BAKERY,19742 SHERMAN WAY,WINNETKA
118,Jinky's Cafe Santa Monica,,808.0,3.5,$$,"Breakfast & Brunch, American (Traditional)",34.0139618605485,34.0139618605485,Ava2tiawQAmP0OqOVC9Dnw,,JINKY'S CAFE,1447 2ND ST,SANTA MONICA
119,,,,,,,,,,,KENTUCKY FRIED CHICKEN,1789 W JEFFERSON BLVD,LOS ANGELES
120,Dona Mercedes Restaurant,,51.0,4.0,$,"Salvadoran, Mexican",34.2823867797852,34.2823867797852,ZaedyE0fgg6vDowPzfy__w,,DONA MERCEDEZ RESTAURANT,1030 SAN FERNANDO RD,SAN FERNANDO
121,,,,,,,,,,,ARELI'S MEAT MARKET,9419 S SAN PEDRO ST,LOS ANGELES
122,Juanito's Place,,59.0,4.0,$,Mexican,34.7041149,34.7041149,T5MtwqKhQnnJVuSSxIYiJA,,JUANITA'S PLACE,105 W AVENUE I,LANCASTER
123,The Original Khun Dang Thai Restaurant,,368.0,4.0,$$,"Thai, Seafood",34.2199998283288,34.2199998283288,ZPwCSUHWt8CLGUDxV6VtiA,,THE ORIGINAL KHUN DANG THAI,8210 SEPULVEDA BLVD,PANORAMA CITY
124,Winchell's Donuts,,33.0,3.0,$,"Donuts, Coffee & Tea, Sandwiches",34.0599786,34.0599786,enj_mr0F7I14bUpXYUyPSw,,WINCHELL'S DONUTS #9393,697 S HOOVER ST,LOS ANGELES
125,,,,,,,,,,,PANTRY/BEVERAGE-MARRIOTT,900 W OLYMPIC BLVD,LOS ANGELES
126,Tortilla Inn,,288.0,3.5,$$,Mexican,34.2281505157777,34.2281505157777,oxR4OnuQe8ZF1LizQDr6tA,,TORTILLA INN,18114 PARTHENIA ST,NORTHRIDGE
127,Masa Ramen,,284.0,3.5,$,Ramen,34.4216301255497,34.4216301255497,urtxiz2d5g8y6L-qEIINmA,,MASA RAMEN,27051 MC BEAN PKWY # 101,VALENCIA
128,,,,,,,,,,,HAPPY KIDS NUTRITION INC.,4705 S BROADWAY,LOS ANGELES
129,Chop Stop,,217.0,3.5,$,"Salad, Health Markets",34.0873642,34.0873642,76qilBskVsleFtTSoJpNEA,,CHOP STOP,8717 SANTA MONICA BLVD,WEST HOLLYWOOD
130,Campos Tacos,,193.0,3.5,$,Mexican,34.03772,34.03772,uZKJ-HvFB_iwxTM8AfOD2g,,CAMPOS,2639 S ROBERTSON BLVD,LOS ANGELES
131,Electric Owl,,420.0,4.0,$$,"Cocktail Bars, Burgers, American (Traditional)",34.0976460995354,34.0976460995354,ly7L13OVHcSOm1JSuFwKwg,,ELECTRIC OWL,1451 N GARDNER ST,LOS ANGELES
132,Max's Mexican Cuisine,,823.0,4.0,$$,"Mexican, Bars, Salad",34.1329791469,34.1329791469,WvKTJxcssWJkmwJZPfFS6Q,,MAX'S CUISINE,635 N AZUSA AVE,AZUSA
133,,,,,,,,,,,COURT YARD MARRIOTT - RESTAURANT,21101 VENTURA BLVD,WOODLAND HILLS
134,Mickey McColgan's,,100.0,4.0,$$,"Irish, American (New), Gastropubs",33.8603516,33.8603516,vy7rxQ180rLPc40mnI410Q,,MICKEY MCCOLGAN'S,934 HERMOSA AVE STE #1-3,HERMOSA BEACH
135,Sushi Fumi,,357.0,4.5,$$,Sushi Bars,34.07776,34.07776,m_xAjTKjvcyqd-jBs8A2VA,,SUSHI FUMI,359 N LA CIENEGA BLVD,LOS ANGELES
136,Reds,,292.0,4.5,$$,"Pizza, Italian, Chicken Wings",34.012045,34.012045,YlRRW7Rc4xbgVg3WyGSWTA,,REDS,707 PICO BLVD,SANTA MONICA
137,Osteria Mamma,,1646.0,4.0,$$,"Italian, Wine Bars",34.0833586783984,34.0833586783984,rr-hXB0ZqXLzUP97yftp0g,,OSTERIA MAMMA,5730 MELROSE AVE,LOS ANGELES
138,Red Robin Gourmet Burgers and Brews,,446.0,3.0,$$,"Burgers, American (Traditional)",34.104688,34.104688,5nARThL6lKk-Rb5zlRBurQ,,RED ROBIN BURGER & SPIRITS,565 W ARROW HWY,SAN DIMAS
139,Sunland Produce,,153.0,4.0,$,"Grocery, Beer, Wine & Spirits, Butcher",34.229989,34.229989,ugdHH_ZujbAyePZbQurpvA,,SUNLAND PRODUCE MEAT MARKET,8840 GLENOAKS BLVD,SUN VALLEY
140,Kusina Filipina Los Angeles,,319.0,4.0,$$,"Filipino, Seafood",34.122148,34.122148,_JKZ9v9w_UjGfI9Ukb5IYg,,KUSINA FILIPINA,4157 EAGLE ROCK BLVD STE 1&2,LOS ANGELES
141,Royal Palace Banquet Hall,,200.0,4.5,,"Venues & Event Spaces, Caterers",34.143942,34.143942,SNOnRvF2bk4EfDu_bLBu5w,,GLENDALE ROYAL PALACE,210 S BRAND BLVD,GLENDALE
142,,,,,,,,,,,INTERN'L HOUSE OF PANCAKE,5316 LAKEWOOD BLVD,LAKEWOOD
143,,,,,,,,,,,DOLLAR DEALS,6039 N FIGUEROA ST,LOS ANGELES
144,Ombu Grill,,194.0,4.0,$$$,"Korean, Barbeque",34.06696,34.06696,XOweKt7rmomkSaBjjY17dg,,OMBU GRILL,400 S WESTERN AVE # 104,LOS ANGELES
145,,,,,,,,,,,KAREN'S DISCOUNT,10715 LA MIRADA BLVD,WHITTIER
146,,,,,,,,,,,LAS ANTILLAS MARKET PARTNERS,607 S SOTO ST,LOS ANGELES
147,Trimana,,10.0,2.0,$$,Sandwiches,34.0603179931641,34.0603179931641,TFpcQ_4lWfGW9UIlHLZ0WQ,,TRIMANA,1900 AVENUE OF THE STARS STE A100,LOS ANGELES
148,Leo's Pizza,,137.0,4.5,$$,"Pizza, Italian",34.2535838,34.2535838,xdYfYLBr__Ott1xE99T4Jg,,LEO'S PIZZA,7556 FOOTHILL BLVD,TUJUNGA
149,McDonald's,,100.0,2.0,$,"Fast Food, Burgers, Coffee & Tea",33.928759,33.928759,5neylSaGwGLvfPJKnkXn2g,,MCDONALD'S #4587,12256 PARAMOUNT BLVD,DOWNEY
150,New Noodle City,,440.0,3.5,$,"Chinese, Vietnamese, Noodles",34.0780152,34.0780152,9K-pCe7GglNh3AK_bDjS_g,,NEW NOODLE CITY,628 W VALLEY BLVD,ALHAMBRA
151,,,,,,,,,,,SOUTHERN CAL EDISON CAFE#3,2131 WALNUT GROVE AVE,ROSEMEAD
152,Go Greek Yogurt,,180.0,4.0,$,"Ice Cream & Frozen Yogurt, Desserts, Breakfast & Brunch",34.1840261,34.1840261,CIBFHEEPwU0-YqekEuxT2g,,GO GREEK YOGURT,6250 TOPANGA CANYON BLVD # 1587,WOODLAND HILLS
153,Thirty5 Degrees,,227.0,4.5,$,"Cafes, Breakfast & Brunch, American (Traditional)",33.99176,33.99176,OrAmsVf-5ELQu7gxoilMTQ,,35 DEGREES,5610 PACIFIC BLVD # 104,HUNTINGTON PARK
154,Boba Loca,,73.0,3.0,$,"Coffee & Tea, Juice Bars & Smoothies",33.8870004,33.8870004,6_HPnKWB7soGgO4xypZsgg,,BOBA LOCA,15929 PIONEER BLVD,NORWALK
155,,,,,,,,,hlbZfJWkYuxMjTye4uNuFA,,YAO'S RESTAURANT,1277 E VALLEY BLVD,ALHAMBRA
156,,,,,,,,,,,FUEL EXPRESS STATION INC.,14106 BURBANK BLVD,VAN NUYS
157,Gus Burgers,,66.0,3.5,$,Burgers,33.791408,33.791408,aGDNQfSa27DKWgqiuUk3ug,,GUS BURGERS,307 W PACIFIC COAST HWY,WILMINGTON
158,Salads 2000,,78.0,4.0,$,"American (New), Salad",33.868405,33.868405,fT4e-aTJSbhWB4-WX01iBg,,GOURMET SALADS 2005,901 W VICTORIA ST STE A-2,COMPTON
159,Moose Lodges,,3.0,4.5,,Professional Services,34.29126,34.29126,BISvj8rMyPICb1qDjOGOYg,,LOYAL ORDER OF MOOSE,12178 SAN FERNANDO RD,SYLMAR
160,Mama Tofu House,,73.0,3.5,$$,Korean,33.8735834708054,33.8735834708054,CqS5Vnjo1YmWUFPgcsaDrg,,MAMA TOFU HOUSE,1425 W ARTESIA BLVD # 17 -18A,GARDENA
161,Villa Moreliana,,13.0,5.0,$,Tacos,34.00309,34.00309,75qBBsNVSZyxVb-fHYm7Rw,,VILLA MORELIANA,4433 S ALAMEDA ST STE B33,LOS ANGELES
162,El Pollo Loco,,61.0,2.5,$,"Fast Food, Mexican",33.9697,33.9697,_rp9q6I7A1F0510dSqz4Qg,,EL POLLO LOCO,6929 EASTERN AVE,BELL GARDENS
163,Beverly Soju Time,,25.0,4.5,$$,"Korean, Pubs",34.0764236450195,34.0764236450195,LPtWU-Q-sMjqz5k-PxToNw,,BEVERLY SOJU TIME / FLOWER BAR,4451 BEVERLY BLVD,LOS ANGELES
164,Denny's,,106.0,2.0,$,"American (Traditional), Breakfast & Brunch, Diners",34.2210608865488,34.2210608865488,rA8ccH2zkhiz2zR_N8YBYw,,DENNY'S #205,15540 ROSCOE BLVD,VAN NUYS
165,,,,,,,,,,,SAGE,4130 SEPULVEDA BLVD #G,CULVER CITY
166,Landings Restaurant,,33.0,3.5,$$,"Breakfast & Brunch, Fish & Chips, Pizza",34.201882393891,34.201882393891,RAwoCad6E0bQBH8OdWnCBg,,LANDINGS RESTAURANT,7277 VALJEAN AVE,VAN NUYS
167,,,,,,,,,,,LA FAVORITA MARKET,11010 LONG BEACH BLVD,LYNWOOD
168,Panda Express,,130.0,3.0,$,"Chinese, Fast Food",34.02876,34.02876,oHFvQvDkcp8WThNlWoehaQ,,PANDA EXPRESS #877,558 N GRAND AVE,WALNUT
169,Movita Juice Bar,,288.0,4.0,$$,Juice Bars & Smoothies,33.95469,33.95469,dAw4chFkUEPwyqOSzQDjxg,,MOVITA JUICE BAR,9202 LAKEWOOD BLVD,DOWNEY
170,Izakaya Hachi,,469.0,4.5,$$,"Hot Pot, Tapas/Small Plates, Izakaya",33.8311716564515,33.8311716564515,z_80ZuoysQkrILhNCqygxQ,,HACHI RESTAURANT,1880 W CARSON ST STE #A,TORRANCE
171,WaBa Grill,,33.0,2.5,$$,"Fast Food, Asian Fusion",33.9436,33.9436,aQAlv569mDCICqy1pBU8Eg,,WABA GRILL,4181 TWEEDY BLVD 101,SOUTH GATE
172,Agua Dulce Liquor,,1.0,5.0,$$,Grocery,34.495959,34.495959,bvDhuNJqvM_nOvKBOvzghg,,AGUA DULCE GENERAL STORE,33355 AGUA DULCE CANYON RD,SANTA CLARITA
173,Jamba,,126.0,3.5,$,Juice Bars & Smoothies,34.0704138640342,34.0704138640342,577L3Meuq-QDlz0QbxqXQA,,JAMBA JUICE #767,308 WESTWOOD PLZ STE A260,LOS ANGELES
174,Stater Bros. Markets,,80.0,3.0,$$,"Grocery, Delis, Butcher",33.9159233,33.9159233,6T30zf25jK7uIZVuRnmQtA,,STATER BROS MKT #134 DELI,12800 S LA MIRADA BLVD,LA MIRADA
175,Luscious Dumplings,,607.0,4.0,$$,"Chinese, Noodles",34.13148,34.13148,o8EO-xxKB-vFbwBLr2SKsQ,,LUSCIOUS DUMPLINGS,919 W DUARTE RD,MONROVIA
176,Bistro Alessio,,211.0,4.0,$$,Italian,34.2468019048111,34.2468019048111,mDLYJ6WRBxIVHFIHT7ZNvA,,BISTRO ALESSIO,9725 RESEDA BLVD,NORTHRIDGE
177,The Claremont Club,,151.0,4.0,,"Gyms, Tennis, Swimming Pools",34.11444,34.11444,Js1Dq9LF7aAEgJM-An0fDA,,THE CLAREMONT CLUB,1777 MONTE VISTA AVE,CLAREMONT
178,Octopus Japanese Restaurant,,1030.0,3.5,$$,"Japanese, Sushi Bars",34.159145,34.159145,InESf0AKWCDp9LnlnoLMPw,,OCTOPUS JAPANESE RESTAURANT,16733 VENTURA BLVD STE 1&2,ENCINO
179,Spicy City,,277.0,3.5,$$,Szechuan,34.0782233438392,34.0782233438392,ouXOYHyeKfj7phfFZWvzHQ,,SPICY CITY,140 W VALLEY BLVD STE #208,SAN GABRIEL
180,Elias Kosher Kabob,,30.0,4.0,$$,Kosher,34.055188,34.055188,XBwqLcVJ19GRa-mFf3q2iw,,ELIAS KOSHER REST,8829 W PICO BLVD,LOS ANGELES
181,,,,,,,,,,,WAL-MART #2526,19821 RINALDI ST,PORTER RANCH
182,,,,,,,,,,,RIGO TACOS MEXICAN AUTH FOOD,1816 FIRESTONE BLVD E,LOS ANGELES
183,Paris Bakery and Cafe,,51.0,4.5,$,"Bakeries, Desserts, Mexican",34.034977,34.034977,PMcuIgE_5_zIHW08nvyRGw,,PARIS BAKERY AND CAFE,205 S MEDNIK AVE,LOS ANGELES
184,,,,,,,,,,,SODEXO AMERICA @ FARMERS,30801 AGOURA RD,AGOURA HILLS
185,June's Bar,,15.0,4.0,$,"Dive Bars, Sports Bars",33.7339668273926,33.7339668273926,45Fp_j-TRJVwzydylqlPqg,,JUNE'S BAR,1100 S PACIFIC AVE,SAN PEDRO
186,Mora's Donuts,,10.0,4.0,$,Donuts,34.237720489502,34.237720489502,R100xlpjANuAzqHPVVQ9aA,,MORA'S DONUTS,9311 SAN FERNANDO RD STE #105,SUN VALLEY
187,,,,,,,,,,,ORANGE JULIUS/DAIRY QUEEN,9301 TAMPA AVE UNIT 75,NORTHRIDGE
188,7-Eleven,,15.0,3.0,$,"Convenience Stores, Coffee & Tea",34.1936677455464,34.1936677455464,D36TjpsZ73q_lHxYO0tgFA,,7-ELEVEN 26660B,16450 VANOWEN ST,VAN NUYS
189,Villa Taco,,1.0,3.0,,Mexican,34.022435,34.022435,Lu3I0Hi7aEuP3zmxmeZxVA,,VILLA TACOS,10022 VENICE BLVD,CULVER CITY
190,Chili's,,402.0,2.5,$$,"Tex-Mex, American (Traditional), Bars",33.961156,33.961156,TUAyunblx67zhZzK6e3KgA,,CHILI'S,13580 E WHITTIER BLVD,WHITTIER
191,Domino's Pizza,,58.0,2.5,$,"Pizza, Chicken Wings, Sandwiches",33.9714546203613,33.9714546203613,j1DonjohEVrhodg2H5xIkA,,DOMINO'S PIZZA #8112,7021 ATLANTIC AVE,BELL
192,Totes Juices,,78.0,4.5,$$,Juice Bars & Smoothies,34.1479118126543,34.1479118126543,_iJYz6ConlBTmoYvBjhMlg,,TOTES JUICES,13569 VENTURA BLVD,SHERMAN OAKS
193,Green Circle Mkt,,1.0,1.0,$,Grocery,34.0616111755371,34.0616111755371,FoBhEwtOo6NjtqG4Y5JezQ,,GREEN CIRCLE MARKET,1840 W 3RD ST,LOS ANGELES
194,,,,,,,,,,,TARDINO BROTHERS ITALIAN KITCHEN,709 N AZUSA AVE,AZUSA
195,Hennessey's,,253.0,3.5,$$,Irish Pub,33.8853927292156,33.8853927292156,5MCPxLBotLLv3_mm7kSAUQ,,HENNESSEY'S TAVERN,313 MANHATTAN BEACH BLVD,MANHATTAN BEACH
196,Indus by Saffron,,208.0,3.5,$,Indian,34.0491055,34.0491055,gizq12uQ-y_lDLSehLe6Uw,,INDUS BY SAFFRON,735 S FIGUEROA ST STE #122,LOS ANGELES
197,Bridge Cafe,,3.0,3.5,,"Coffee & Tea, Bakeries, Ice Cream & Frozen Yogurt",34.1481742858887,34.1481742858887,XDJGkVPiYB6Hv1LyD1un8w,,BRIDGE BUILDING,4000 WARNER BLVD,BURBANK
198,Pomona Donut,,10.0,3.0,$,"Donuts, Coffee & Tea, Ice Cream & Frozen Yogurt",34.0623159,34.0623159,Yim4c72ZIZg_hU068pQ_MA,,POMONA DONUTS,662 FAIRPLEX DR,POMONA
199,Baskin-Robbins,,43.0,4.0,$,"Ice Cream & Frozen Yogurt, Desserts, Custom Cakes",34.169276637961,34.169276637961,Q4UC9lg9tJnjDI39WT9WEg,,BASKIN ROBBINS # 6403,5424 TOPANGA CANYON BLVD,WOODLAND HILLS
200,Circle K,,8.0,2.5,$,"Gas Stations, Convenience Stores",33.9649999576737,33.9649999576737,f0xGOfNOeQpI8b7T43gIgw,,CIRCLE K,5001 CLARA ST,CUDAHY
201,Tacos Jalisco,,63.0,3.5,$,Mexican,33.73304,33.73304,GYNEAT4dexIyx0uroy5BsA,,TACOS JALISCOS,1202 S GAFFEY ST,SAN PEDRO
202,Tak's Coffee Shop,,157.0,4.0,$,"American (Traditional), Breakfast & Brunch, Hawaiian",34.0153041,34.0153041,yonwUihvT_BpM5izzDoyMg,,TAK'S COFFEE SHOP,3870 S CRENSHAW BLVD # 101,LOS ANGELES
203,Tamarack Inn,,76.0,3.5,$$,"American (Traditional), Sports Bars",33.96949,33.96949,TvXnye2n8DU_EEFYR36eug,,TAMARACK INN,9257 SLAUSON AVE,PICO RIVERA
204,Ish Kitchen,,231.0,3.5,$$,"Asian Fusion, Seafood",34.101718,34.101718,1y-ppb6E3mY6tOpuX8Be6w,,ISH KITCHEN,5612 ROSEMEAD BLVD,TEMPLE CITY
205,,,,,,,,,,,MEMORIS OF AMERICA,5423 ROSEMEAD BLVD,SAN GABRIEL
206,,,,,,,,,,,BAMBOO BISTRO,1559 AMAR RD A,WEST COVINA
207,Food 4 Less,,56.0,2.5,$,Grocery,34.0865440368652,34.0865440368652,RCcCnf4lk9lVdJg9kc3CnQ,,FOOD 4 LESS #370 (MEAT DEPT),4910 E HUNTINGTON DR S,LOS ANGELES
208,Thai Chili House,,150.0,3.5,$,"Thai, Seafood, Noodles",34.235094,34.235094,zn7DG8WCXHpGiX1fiU3j_w,,THAI CHILLI HOUSE,18110 NORDHOFF ST # #E,NORTHRIDGE
209,,,,,,,,,,,J'S ROBINHOOD GENERAL STORE,13796 FOOTHILL BLVD STE 105,SYLMAR
210,Five Guys,,147.0,3.0,$$,"Burgers, Fast Food",33.8542868,33.8542868,X6LI8n5pz4wrvgNEMRZSXw,,FIVE GUYS BURGERS & FRIES #1459,4625 CANDLEWOOD ST,LAKEWOOD
211,Jim's Burgers,,112.0,3.5,$,"Burgers, Sandwiches, Halal",34.1833686828613,34.1833686828613,PWtVML2O8MuPR45Y7bMhdQ,,JIM'S BURGER #15,2185 N LINCOLN AVE,ALTADENA
212,Glendora Shell,,2.0,3.0,,Gas Stations,34.1284370422363,34.1284370422363,eaB0dA3mnkGhFoM96v_L5A,,GLENDORA 76 INC.,106 E ROUTE 66,GLENDORA
213,Donut Time,,23.0,4.0,$,Donuts,34.0907451510429,34.0907451510429,chyUVfxJp9GHDt_KKktOVw,,DONUT TIME,6785 SANTA MONICA BLVD,LOS ANGELES
214,Westlake Yacht Club,,7.0,4.0,,Boating,34.1386985778809,34.1386985778809,Msz8-Wqrt7cDXyc_AkaAMA,,WESTLAKE YACHT CLUB,32123 W LINDERO CANYON RD,WESTLAKE VILLAGE
215,A-1 Barbecue & Foods,,2.0,4.5,,Restaurants,34.0758438110352,34.0758438110352,7DVQAImrX_eOh3b4zxCkjQ,,A-1 BBQ AND FOOD TO GO,1485 W SUNSET BLVD,LOS ANGELES
216,House of Basturma,,84.0,4.0,$,"Middle Eastern, Meat Shops",34.1691749662427,34.1691749662427,cr3dl3K-W7mCyo0tBEgtKg,,HOUSE OF BASTURMA MEAT MKT,2487 E WASHINGTON BLVD STE B,PASADENA
217,,,,,,,,,,,SUPPLEMENTOS NUTRICIONALES,14650 PARTHENIA ST # M20,PANORAMA CITY
218,H Salt Esquire Fish & Chips,,63.0,3.0,$,Fish & Chips,33.7479231,33.7479231,0kEYsaxp4-wvr9Bi73sWow,,H SALT ESQ FISH & CHIPS,29627 S WESTERN AVE,RANCHO PALOS VERDES
219,Fishing Boat Chinese Cuisine,,50.0,4.0,$$,"Chinese, Seafood, Soup",34.1087417602539,34.1087417602539,X_94A8q39PJyRRiKJZwvZQ,,FISHING BOAT CHINESE CUISINE,516 E LIVE OAK AVE,ARCADIA
220,Daniels Discount Market,,1.0,5.0,,Shopping,34.03279,34.03279,5mpYCN54LkiXvBAfhPhTNg,,DANIEL'S DISCOUNT MARKET,5247 W ADAMS BLVD,LOS ANGELES
221,Roswood Liquors,,1.0,5.0,,"Beer, Wine & Spirits",34.222,34.222,eYFrAjg23nOScf-mDw8Xvw,,ROSWOOD LIQUOR,13767 ROSCOE BLVD,PANORAMA CITY
222,Natalie's Pastry,,31.0,4.0,$,Bakeries,34.1469549,34.1469549,1QEtpRUgtG6GzzFW1qB40w,,NATALIE'S PASTRY,471 W BROADWAY,GLENDALE
223,HK Market,,208.0,4.0,$$,"Grocery, Seafood, Fruits & Veggies",34.074117,34.074117,XtQjD5EJOLLXV8NjxNkQAQ,,HK SUPER MARKET,124 N WESTERN AVE,LOS ANGELES
224,LA Rose Cafe,,1006.0,4.5,$$,Filipino,34.095634,34.095634,cD57FLQ-v-brcFOLZ0X0cQ,,L A ROSE CAFE,4749 FOUNTAIN AVE,LOS ANGELES
225,Moana Hawaiian BBQ,,538.0,3.5,$$,"Hawaiian, Barbeque",34.1815914,34.1815914,7ByYkwgnousTJkytM7n0Fg,,MOANA HAWAIIAN BBQ,150 N SAN FERNANDO BLVD,BURBANK
226,The Donut Factory,,34.0,4.5,$,Donuts,34.2430429084953,34.2430429084953,gn-_auL4OoivUQG6pXcC6g,,THE DONUT FACTORY,9514 RESEDA BLVD STE #2,NORTHRIDGE
227,House of Joy Chinese Restaurant,,368.0,4.0,$$,Chinese,34.229808,34.229808,jlT-KChmKLibu5c7BC7D0g,,HOUSE OF JOY,3220 FOOTHILL BLVD,LA CRESCENTA
228,Glady's Donuts & Ice Cream,,5.0,4.5,$,Donuts,34.025779,34.025779,xwxwweN4XGAAy1LjaBGusQ,,GLADY'S DONUTS,830 E WASHINGTON BLVD #6,LOS ANGELES
229,Cafe Gratitude,,2114.0,4.0,$$,"Vegan, Vegetarian",34.08279,34.08279,6GTaESIP0r1oFunFqqevsw,,CAFE GRATITUDE,639 N LARCHMONT BLVD STE #102,LOS ANGELES
230,California Pizza Kitchen at Northridge,,525.0,3.0,$$,"Pizza, American (New), Salad",34.2402165214109,34.2402165214109,JYS8vmR1sLZcZclsiYG-ig,,CALIFORNIA PIZZA KITCHEN,9301 TAMPA AVE UNIT 129,NORTHRIDGE
231,Nayarit,,15.0,3.5,$$,Mexican,34.2819028347731,34.2819028347731,cnEpg3l87hicnpZjnJjnyg,,NAYARIT #2,1204 HEWITT ST,SAN FERNANDO
232,Corner Cuisine,,105.0,4.0,$$,Mediterranean,34.117489,34.117489,9FDt9PxIZdXgH38ZruZHjQ,,CORNER CUISINE MEDITERRANEAN RESTAURANT,3277 N SAN FERNANDO RD,LOS ANGELES
233,JTYH  Restaurant,,384.0,3.5,$,"Chinese, Noodles, Soup",34.0813058,34.0813058,rDEND3UxSBRVSrAMefGIeg,,JTYH  RESTAURANT,9425 VALLEY BLVD,ROSEMEAD
234,Wendy's,,55.0,2.5,$,"Burgers, Fast Food",34.44367,34.44367,KskhtFk5itWI1Iv8yrlp2g,,WENDY'S #10810,28180 NEWHALL RANCH RD,SANTA CLARITA
235,DoubleTree by Hilton Hotel Carson,,128.0,3.0,$$,Hotels,33.8323692583416,33.8323692583416,WGApiYuKBuIwS7BxsmH46g,,DOUBLETREE HOTEL RESTAURANT,2 CIVIC PLZ,CARSON
236,Cafe Nandarang,,410.0,3.5,$$,"Korean, Bars",34.0638084411621,34.0638084411621,o2Tf7rfdf5cvwYIYkYIGUg,,CAFE SEOUL NANDARANG,3815 W 6TH ST,LOS ANGELES
237,Costco Wholesale,,422.0,3.5,$$,"Wholesale Stores, Hearing Aid Providers, Pharmacy",34.131744,34.131744,zWmn8GguxzZkJYUHKwUQpA,,COSTCO WHOLESALE-#412 MEAT DEPT,1220 W FOOTHILL BLVD,AZUSA
238,Trimana,,38.0,2.5,$,"American (New), Vegetarian",34.06504,34.06504,b7wmt-DewZfpTW8vd-ODhQ,,TRIMANA,8383 WILSHIRE BLVD STE #110,BEVERLY HILLS
239,,,,,,,,,,,KIKKA,11666 NATIONAL BLVD,LOS ANGELES
240,Tacos Mexico,,44.0,3.0,$,Mexican,34.0308103,34.0308103,CUZ0VmW9zrki2U9g5hL1PA,,HERNANDEZ TACOS MEXICO,355 S ATLANTIC BLVD,LOS ANGELES
241,Costco Wholesale,,541.0,3.0,$$,Wholesale Stores,34.185412,34.185412,1cuTX9oFxCNls_SQjOdrIw,,COSTCO #677 BAKERY,1051 W BURBANK BLVD,BURBANK
242,Del Taco,,81.0,2.5,$,"Mexican, Desserts, Breakfast & Brunch",34.168891,34.168891,fG0WNRqQ6uSKfdWzfmPXRg,,DEL TACO #427,6550 SAN FERNANDO RD,GLENDALE
243,,,,,,,,,,,"BAIK,J LEE",1050 W GARVEY AVE,MONTEREY PARK
244,Lutong-Bahay,,33.0,3.0,$,Filipino,33.8884117494149,33.8884117494149,Os_p2mgqUzP6kOu7F6Rchg,,LUTONG BAHAY FILIPINO FAST F,12547 ALONDRA BLVD,NORWALK
245,Subway Restaurants,,42.0,2.0,$,Sandwiches,33.977023,33.977023,8cvvWqB_3vOu80bDs26OlQ,,SUBWAY,7201 GREENLEAF AVE STE #F,WHITTIER
246,Beach City Grill,,144.0,4.0,$$,"Cajun/Creole, Caribbean, Cuban",33.73889,33.73889,ciA8UcivFclYuTv1jOk4fQ,,BEACH CITY GRILL,376 W 6TH ST,SAN PEDRO
247,Playa Provisions,,1156.0,3.5,$$,"American (New), Cafes, Breakfast & Brunch",33.9578068176558,33.9578068176558,42xP5Wn6YuHhcV4N_4b5Cw,,PLAYA PROVISIONS,119 CULVER BLVD,LOS ANGELES
248,168 Market,,76.0,3.0,$$,"Fruits & Veggies, International Grocery, Seafood Markets",33.9906056,33.9906056,vyaeKgSTUD3Qwz_u0yRBhA,,168 MARKET #806 BAKERY,17120 COLIMA RD,HACIENDA HEIGHTS
249,Los Burritos,,134.0,3.5,$,Mexican,34.171916,34.171916,HKvzuUJNlUPGIYVhHzGNGg,,LOS BURRITOS,5568 LANKERSHIM BLVD,NORTH HOLLYWOOD
250,Joslyn Senior Center,,2.0,5.0,,Senior Centers,34.1004189,34.1004189,ov32dNSHLJ8hCd3jnd7NFQ,,JOSLYN SENIOR CITIZEN CENTER,660 N MOUNTAIN AVE,CLAREMONT
251,Donut Queen,,33.0,4.5,$,Donuts,34.1068549,34.1068549,djKEqBMN4rxMqBMvvDiPpA,,DONUT QUEEN,1431 W ARROW HWY,SAN DIMAS
252,,,,,,,,,2CgEoOr8bYRGqWw-_DHtow,,THE LOFT HAWAIIAN RESTAURANT,20157 S PIONEER BLVD,LAKEWOOD
253,Sunlife Organics,,225.0,4.0,$$,Juice Bars & Smoothies,34.1534362583411,34.1534362583411,zR4_jv83U0QPnFy4RYBNWg,,SUNLIFE ORGANICS,4799 COMMONS WAY STE E,CALABASAS
254,Jet Strip Cabaret,,52.0,3.5,$$,Adult Entertainment,33.9393,33.9393,7AMPGltlqe0cxYfIAZATCQ,,JET STRIP,10624 HAWTHORNE BLVD,INGLEWOOD
255,Antonio's Pizzeria & The Catalina Cabaret,,665.0,2.5,$$,"Pizza, Italian, Cabaret",33.344386,33.344386,eGs8Cr44WGhXKJqJYUrSMg,,ANTONIOS PIZZERIA & CABARET,230 CRESCENT AVE,AVALON
256,Quickly,,81.0,2.5,$,"Coffee & Tea, Asian Fusion, Juice Bars & Smoothies",34.0628356,34.0628356,XvdOvSDpPEogkQZqgiskPA,,QUICKLY #9,119 N LINCOLN AVE,MONTEREY PARK
257,Costco Wholesale,,417.0,3.5,$$,"Wholesale Stores, Gas Stations",33.8501070699842,33.8501070699842,fcCFBDV0Lq9c4iR-gcwH2A,,COSTCO # 1050 BAKERY,340 LAKEWOOD CENTER MALL,LAKEWOOD
258,FÜMA Nail Bar,,560.0,4.0,$$,"Waxing, Nail Salons, Eyelash Service",33.845522,33.845522,vgzYg6CmlW3ap0MaS3W0aw,,FUMA NAIL BAR,11134 DEL AMO BLVD,LAKEWOOD
259,California Burgers,,88.0,3.5,$,"Burgers, Beer, Wine & Spirits, American (Traditional)",33.995253,33.995253,pCLP7ZzIjz8srLJWD9DfnQ,,CALIFORNIA BURGERS,870 W WASHINGTON BLVD,MONTEBELLO
260,Lotte Market,,64.0,3.0,$,"Grocery, Korean",34.216178,34.216178,DWW3yNLG-PeqB0lu5Bz_Jw,,LOTTE MARKET MEAT/DELI,2135 FOOTHILL BLVD,LA CANADA FLINTRIDGE
261,El Pollito Bakery,,33.0,4.5,$,Bakeries,33.956973,33.956973,xwrZkDtUAnykeRkSJ_JPoQ,,EL POLLITO BAKERY,8209 EASTERN AVE # B,BELL GARDENS
262,El Cielito Cafe,,166.0,4.5,$,Coffee & Tea,33.96547,33.96547,bXNni9DQruvPDPv7Vg6OxQ,,EL CIELITO CAFE,8015 LONG BEACH BLVD # B,SOUTH GATE
263,Lomita Liquor,,7.0,3.5,$$,"Beer, Wine & Spirits, Convenience Stores",33.7978185,33.7978185,B8SscNJFjb3he06Ydme5Yw,,LOMITA LIQUOR,1810 LOMITA BLVD,LOMITA
264,The Riviera Tennis Club,,5.0,4.0,,Tennis,34.0518329,34.0518329,3i0FhuDMOEMCAq4O3fgqfg,,RIVIERA TENNIS CLUB,1250 CAPRI DR,PACIFIC PALISADES
265,Einstein Bros Bagels,,159.0,2.5,$,"Bagels, Coffee & Tea",34.041212,34.041212,btkCHapgD0grbL1FPk_bMA,,EINSTEIN BROS BAGELS,10759 PICO BLVD,LOS ANGELES
266,Carl's Jr,,61.0,2.5,$,"Fast Food, Burgers",34.0812137898317,34.0812137898317,bDrCzOVkoJZJhzmmJ3FG5Q,,CARLS JR,9021 VALLEY BLVD,ROSEMEAD
267,Casa Jimenez,,58.0,3.5,$$,Mexican,34.08087,34.08087,dihu27eo3Ne0YyoHIYY5BQ,,CASA JIMENEZ,13348 E RAMONA BLVD,BALDWIN PARK
268,Mapo Kkak Doo Gee Restaurant,,297.0,4.0,$$,"Korean, Comfort Food, Soup",34.0637203,34.0637203,EQ4Slz2LL8WdcbDT1ng1zQ,,MAPO RESTAURANT,3611 S 6TH ST,LOS ANGELES
269,Round Table Pizza,,122.0,3.5,$$,Pizza,33.8741883083991,33.8741883083991,fZmJm66x90lc5WVq-Ad9ig,,ROUND TABLE PIZZA,2701 PACIFIC COAST HWY,HERMOSA BEACH
270,Biryani House,,139.0,4.0,$,"Indian, Pakistani",33.895702,33.895702,HbCJQ9vmFW-H54ylHPP8VQ,,BIRYANI HOUSE,14936 S PRAIRIE AVE,HAWTHORNE
271,Salsa & Beer,,3670.0,4.0,$$,"Mexican, Beer Bar",34.201367734726,34.201367734726,ncN3HFlCunhE8ev9yU2Cew,,SALSA & BEER,11669 SHERMAN WAY,NORTH HOLLYWOOD
272,The Moment Hotel,,139.0,3.5,$$,"Hotels, Bars",34.0977950874632,34.0977950874632,CfwSkrc_BeL0vbeooL7GNw,,MOMENT HOTEL,7370 SUNSET BLVD,LOS ANGELES
273,El Mero Mero,,41.0,4.0,$,Mexican,34.25851,34.25851,0j-7_bHjM-4AlNLsIAt5Fw,,EL MERO MERO,13757 VAN NUYS BLVD,PACOIMA
274,Panda Express,,25.0,2.0,$,"Chinese, Fast Food",34.144863,34.144863,cMr4DI45PftY80INpxfDNw,,PANDA EXPRESS #118,1134 GLENDALE GALLERIA # #4,GLENDALE
275,Gen Korean BBQ House,,3583.0,4.0,$$,"Korean, Barbeque, Asian Fusion",34.094548,34.094548,fcSXR06RbFfQ_12BJLgL5g,,GEN KOREAN BBQ,68 W MAIN ST,ALHAMBRA
276,Starbucks,,73.0,3.0,$,Coffee & Tea,34.1164775,34.1164775,sJ-78DoiZPngg53vMrKg_Q,,STARBUCKS #10940,3111 GLENDALE BLVD,LOS ANGELES
277,Josie's Place,,216.0,4.0,$,Mexican,33.87939,33.87939,k2utuDaIP3fyMWHmx2lPNw,,JOSIE'S PLACE,16616 S NORMANDIE AVE,GARDENA
278,Rick's In & Out,,49.0,3.0,$,"Burgers, Fast Food",33.77954,33.77954,y_iUpO9tAdsauZqRjaXF7Q,,RICK'S IN & OUT,1101 W ANAHEIM ST,WILMINGTON
279,The Habit Burger Grill,,479.0,3.5,$$,"Burgers, Sandwiches, Salad",34.2377517,34.2377517,CyLA6tuAsPFQ8ytyoZio2g,,THE HABIT BURGER GRILL,9215 RESEDA BLVD,NORTHRIDGE
280,Chris' & Pitt's,,455.0,3.5,$$,Barbeque,33.8752128593416,33.8752128593416,1h45GZZM8HTIVgVuS2PTgg,,CHRIS & PITTS BBQ,9839 E ARTESIA BLVD,BELLFLOWER
281,El Pueblo Produce Market,,2.0,3.0,,Fruits & Veggies,34.00073,34.00073,xXjajjepORcRbIzKxOCJXQ,,EL PUEBLO PRODUCE MARKET,4706 S WESTERN AVE,LOS ANGELES
282,Chipotle Mexican Grill,,229.0,3.0,$,"Fast Food, Mexican",34.0731965580165,34.0731965580165,gu-38424EpJhlz1E5evArQ,,CHIPOTLE MEXICAN GRILL #588,143 N BARRANCA ST #A,WEST COVINA
283,,,,,,,,,,,HG TOBACCO MART 99 & UP,5401 S FIGUEROA ST STE #5,LOS ANGELES
284,El Criollo Bar & Grill,,246.0,4.0,$$,"Cuban, Music Venues, Bars",34.1836525,34.1836525,i74ZkEIngmWGxUT1qYSvEg,,EL CRIOLLO CUBAN BAR & GRILL,916 W BURBANK BLVD STE #D,BURBANK
285,Trader Joe's,,196.0,4.0,$$,Grocery,34.174951,34.174951,8-txtQvdvVqr3UsGTcxw6A,,TRADER JOE'S #124,230 E ALAMEDA AVE,BURBANK
286,Fuddruckers,,358.0,4.0,$$,"Burgers, American (Traditional)",33.8525332596788,33.8525332596788,lVjpDJfyRzg6QqbfVDLZtA,,FUDDRUCKERS # 78,5229 N CLARK AVE,LAKEWOOD
287,West Wilshire Medical Center,,2.0,1.5,,Medical Centers,34.04978,34.04978,ru_uTyqqoZzr6p-itI1Eog,,WEST WILSHIRE CAFE,11620 WILSHIRE BLVD # 15,LOS ANGELES
288,,,,,,,,,,,WEINERSCHNITZEL #509,2780 PACIFIC COAST HWY,TORRANCE
289,Los Toros Meat Market,,46.0,4.0,$$,Meat Shops,34.097364,34.097364,978n8zrlqpF3FvUBsl5dAQ,,LOS TOROS RESTAURANT,5225 PECK RD,EL MONTE
290,Glendale Fine Bakery,,21.0,4.5,$,Bakeries,34.1385040283203,34.1385040283203,7TB6DhlQz57yRdi6cidWTw,,GLENDALE FINE BAKERY,316 E MAPLE ST,GLENDALE
291,La Fuente Restaurant,,64.0,4.0,$,Mexican,34.05073,34.05073,V5g6i-BLTWsgJgqwOzdDXw,,LA FUENTE,987 S GAREY AVE,POMONA
292,,,,,,,,,,,ELIA'S SNACK SHOP,111 N HILL ST # #255,LOS ANGELES
293,Morazan Restaurante,,39.0,3.5,$,Latin American,34.19353,34.19353,htEqLxvPdaTGdXJ8vDFZww,,RESTAURANTE MORAZAN,15706 VANOWEN ST,VAN NUYS
294,Pinkberry,,85.0,3.5,$,Ice Cream & Frozen Yogurt,34.0718038777913,34.0718038777913,onoZGFZoQ3FhFVqGohE8OA,,PINKBERRY,6333 W 3RD ST # 130,LOS ANGELES
295,Donut Prince,,87.0,4.5,$,Donuts,34.1993691,34.1993691,MJto8d1vTuNQZQee9SJwmw,,DONUT PRINCE,407 IRVING DR,BURBANK
296,Taco Bell,,27.0,3.0,$,"Mexican, Fast Food",34.130178,34.130178,KY7o9B3MWgknziccE1JeVA,,TACO BELL #2389,800 E ALOSTA AVE,AZUSA
297,Lucky Boys Market,,2.0,5.0,,Convenience Stores,33.865501,33.865501,Ipl2Ej4Sox5jmZ2MM5oQdA,,LUCKY BOY MARKET,12008 E 183RD ST,ARTESIA
298,Los Tacos,,104.0,2.5,$,Mexican,34.1022835371217,34.1022835371217,GJOtDAuCAQZZh8e6RIENuQ,,LOS TACOS,504 W LAS TUNAS DR,SAN GABRIEL
299,Robeks Fresh Juices & Smoothies,,184.0,4.0,$,Juice Bars & Smoothies,34.017295,34.017295,j_pGGVMKx2m5xmpIF8G2Jw,,ROBEKS JUICE,3891 OVERLAND AVE,CULVER CITY
300,McDonald's,,122.0,2.0,$,"Fast Food, Burgers, Coffee & Tea",34.423049,34.423049,HIr3rrdkml2gATL_gRSpYQ,,MCDONALD'S # 26508,27103 MCBEAN PKWY,VALENCIA
301,Rainbow Donuts,,110.0,4.0,$,Donuts,33.9994168317621,33.9994168317621,ymUyWtLrzB7l8UV91QUXuA,,RAINBOW DONUTS,1271 S DIAMOND BAR BLVD,DIAMOND BAR
302,Fair Oaks Pharmacy and Soda Fountain,,821.0,3.5,$$,"Drugstores, Ice Cream & Frozen Yogurt, Burgers",34.1160468883484,34.1160468883484,fUSDKHeCVaXY3FhI0YCs9Q,,FAIR OAKS PHARMACY,1526 MISSION ST,SOUTH PASADENA
303,The London West Hollywood,,587.0,4.0,$$$,"Hotels, Venues & Event Spaces",34.08905,34.08905,XlBn9cua7858vprdnwKS6A,,THE LONDON WEST HOLLYWOOD - ROOF TOP,1020 N SAN VICENTE BLVD,WEST HOLLYWOOD
304,Cafe Brentwood,,130.0,3.5,$$,"Cafes, Modern European, Bars",34.0645147348142,34.0645147348142,nqWF3Z55suHBvM5sfZcg-A,,CAFE BRENTWOOD,150 S BARRINGTON AVE,LOS ANGELES
305,Sonny's Hideaway,,386.0,4.0,$$,Cocktail Bars,34.1209296,34.1209296,l6HC0Y2adFMyV62rew9QCA,,SONNY'S HIDEAWAY,5137 YORK BLVD,LOS ANGELES
306,,,,,,,,,,,24HR FITNESS,13395 E BEACH BLVD,LA MIRADA
307,El Valle Supermarket,,11.0,2.5,$$,Grocery,34.0642875,34.0642875,MyptnfJ31RdQDk-IvZfuZQ,,EL VALLE SUPERMARKET MEAT DEPT,11850 E VALLEY BLVD,EL MONTE
308,Cold Stone Creamery,,85.0,3.5,$$,"Ice Cream & Frozen Yogurt, Custom Cakes, Cupcakes",33.859015,33.859015,9soownRahafx1Ix-XZoRQQ,,COLDSTONE CREAMERY,11407 SOUTH ST,CERRITOS
309,Panini Grill,,162.0,3.0,$$,"Italian, Breakfast & Brunch, Cafes",33.986022,33.986022,Zc94E6KG-7HuaBMAXYNCFg,,PANINI COFFEE & CAFE,4325 GLENCOE AVE STE C-8,MARINA DEL REY
310,Baja Fresh Mexican Grill,,40.0,3.0,$,"Mexican, Tex-Mex, Fast Food",33.9904719,33.9904719,TtnvkKvnQB4W4XIkt-Bo6w,,BAJA FRESH #52,17422 E COLIMA RD,ROWLAND HEIGHTS
311,Big 5 Sporting Goods,,73.0,2.5,$$,Sporting Goods,34.147492,34.147492,0FKdptzhSHP1LWJOmsmzhw,,BIG 5 SPORTING GOODS #334,144 N CENTRAL AVE,GLENDALE
312,Whole Foods Market,,656.0,3.5,$$$,Grocery,34.1510815160403,34.1510815160403,HgKWviKpKX5LOW2zSVjgIg,,WHOLE FOODS MARKET-BAKERY,331 N GLENDALE AVE,GLENDALE
313,Rite Aid,,57.0,2.5,$$,"Drugstores, Convenience Stores",34.104449,34.104449,sb2FP7IjxVpJDvcAR6nepQ,,RITE AID #05436,1841 N WESTERN AVE,LOS ANGELES
314,Mao's Kitchen,,425.0,3.0,$$,"Chinese, Vegetarian",34.083779265079,34.083779265079,NIyO2M0kzk_PdoFmYkCmDg,,MAO'S KITCHEN,7315 MELROSE AVE,LOS ANGELES
315,,,,,,,,,,,EL NUEVO ILOVASCO,1436 S VERMONT AVE,LOS ANGELES
316,Taco King,,203.0,3.0,$,Mexican,34.13316,34.13316,ccZ5JiBJaWp_YGR3ENt1GQ,,TACO KING,600 E FOOTHILL BLVD,AZUSA
317,Golden Bread Bakery,,11.0,4.0,$,"Desserts, Coffee & Tea, Bakeries",34.0976494664071,34.0976494664071,M9PBtmzMA3r0gEURLkMQAA,,GOLDEN BREAD BAKERY INC,7300 W SUNSET BLVD STE H,LOS ANGELES
318,Villa,,617.0,3.5,$$,"American (New), Venues & Event Spaces, Lounges",34.168306,34.168306,OAbcHV_a40rKTH8hBQ-QcA,,VILLA PLACERE,22160 VENTURA BLVD,WOODLAND HILLS
319,Louis Burgers,,44.0,2.5,$,Burgers,33.8958351,33.8958351,RfmsMeKqIc8K2fxFpDB-eQ,,LOUIS BURGERS,308 E COMPTON BLVD,COMPTON
320,,,,,,,,,,,SUBWAY STORE #7953,12811 S CRENSHAW BLVD,HAWTHORNE
321,Pearl Dragon,,176.0,4.0,$$,"Asian Fusion, Sushi Bars",34.0464917,34.0464917,dOH4Xl02wsVZhs1IqW8ABQ,,PEARL DRAGON,15229 W SUNSET BLVD,PACIFIC PALISADES
322,,,,,,,,,,,RON ROSE OIL,2010 W PACIFIC AVE,WEST COVINA
323,Jun Won Banchan,,2.0,5.0,$,Korean,34.05239,34.05239,clSCopCI_wGpOouqEC1wpA,,JUN WON BANCHAN,3160 W OLYMPIC BLVD,LOS ANGELES
324,Golden Donuts,,91.0,4.5,$,"Donuts, Sandwiches, Juice Bars & Smoothies",33.9347459,33.9347459,JwPUhL0uLHR2sIbfCj4kXw,,GOLDEN DONUTS,11051 HAWTHORNE BLVD,INGLEWOOD
325,Max Muscle Nutrition,,14.0,4.5,$$,"Health Markets, Vitamins & Supplements, Nutritionists",34.258535,34.258535,Py7Qs6XymhsKGqQ2HQXc1A,,MAX MUSCLE,18643 DEVONSHIRE ST,NORTHRIDGE
326,Kushi Shabu,,507.0,4.0,$$,"Japanese, Hot Pot",34.0501009,34.0501009,NZEgtHnqQ7-SO8r3XjkUQQ,,KUSHI-SHABU,123 ASTRONAUT ELLISON ONIZUKA ST #305,LOS ANGELES
327,,,,,,,,,,,EL MONTE 97 CENTS PLUS,9814 GARVEY AVE STE 4,EL MONTE
328,California Pizza Kitchen at Topanga,,462.0,3.0,$$,"Pizza, American (New), Salad",34.18915333,34.18915333,Q5DS9wGzUSubQ7qkNKoaYQ,,CALIFORNIA PIZZA KITCHEN BAR,6600 TOPANGA CANYON BLVD 10820,CANOGA PARK
329,Pacific Mobil Mart,,14.0,1.5,,Gas Stations,34.15771,34.15771,xZAInY_RbljH0QSMPI2_xA,,MOBIL SNACK,800 N PACIFIC AVE,GLENDALE
330,Babushka Grandma's Deli,,123.0,4.5,$,Delis,34.1584054,34.1584054,87JbRxFlDhfZMTzN8SOI0A,,GRANDMA'S DELI,4818 LAUREL CANYON BLVD,VALLEY VILLAGE
331,Sharky's Woodfired Mexican Grill,,210.0,4.0,$$,Mexican,34.1446861966752,34.1446861966752,pZbAbum0XUSV5Iq0yUy03w,,SHARKY'S,26527 AGOURA RD STE 124,CALABASAS
332,Maxwell's Burgers & Hotdogs,,67.0,3.5,$,"Burgers, Breakfast & Brunch, Salad",34.2353351,34.2353351,qT4M0PQkuiqCmn8ErS_b6g,,MAXWELL'S BURGERS & HOT DOGS,21418 NORDHOFF ST,CHATSWORTH
333,Presidente Mexican Restaurant,,301.0,3.0,$$,Mexican,34.278917,34.278917,MzTA7YFXaQAXpfAMR-laZw,,PRESIDENTE,11451 SEPULVEDA BLVD,MISSION HILLS
334,Mariscos El Guero,,22.0,3.5,$,Mexican,33.8966026306152,33.8966026306152,tSY184X7dD5wFzsUDLpkeg,,MARISCOS EL GUERO,7045 E SOMERSET BLVD STE D,PARAMOUNT
335,Simply Salad,,285.0,4.0,$$,Salad,34.014733424978,34.014733424978,rICiAEE2-DHT-2QvBdCVyg,,SIMPLY SALAD,1401 2ND ST,SANTA MONICA
336,Chinatown Express,,7.0,2.0,,Chinese,34.022087097168,34.022087097168,GMUNLnuOrD9nY2lBcyttBg,,CHINATOWN EXPRESS #7,2531 S SAN PEDRO ST # #A,LOS ANGELES
337,Wonder Bakery,,178.0,3.5,$,"Bakeries, Coffee & Tea, Custom Cakes",34.06519,34.06519,3GpSGxt97OPJ_EgDcvATsA,,WONDER FOOD BAKERY,943 N BROADWAY STE 101,LOS ANGELES
338,Ralphs,,137.0,3.0,$$,Grocery,34.03709,34.03709,_Q4FP4Hf7YLupMvoYu8X1g,,RALPHS #95 - MEAT & SEAFOOD DEPT,2230 S ATLANTIC BLVD,MONTEREY PARK
339,Yoshinoya,,2.0,1.0,,Japanese,33.993255,33.993255,r8WBvAaQze3q-_52DfC6eg,,YOSHINOYA,5495 SEPULVEDA BLVD STE H,CULVER CITY
340,,,,,,,,,,,RESTAURANT & PUPUSERIA EL CH,16502 S MAIN ST STE #6,GARDENA
341,Saigon Deli,,25.0,3.5,$,"Vietnamese, Sandwiches",34.06305,34.06305,O6mlAS1UnRFefT67G57JJA,,SAIGON DELI,828 N BROADWAY #1,LOS ANGELES
342,,,,,,,,,,,HONGKONG EXPRESS,1605 S HOOVER ST #109,LOS ANGELES
343,WaBa Grill,,91.0,3.0,$,"Fast Food, Asian Fusion",34.03085,34.03085,kYrNc5d5rUANaEwabYdAGA,,WABA GRILL WEST COVINA,2500 S AZUSA AVE # C,WEST COVINA
344,El Pollo Loco,,61.0,1.5,$,"Fast Food, Mexican",34.003665,34.003665,PlOnrvjb2WpC35IamEyPkw,,EL POLLO LOCO #5988,4405 S AVALON BLVD,LOS ANGELES
345,Fabulous Burgers,,350.0,3.5,$,"Burgers, Latin American, Breakfast & Brunch",33.90219,33.90219,Rv8L0QCZRmGsbwP6mIlMMQ,,FABULOUS CHARBROILED BURGERS,3301 W ROSECRANS AVE,HAWTHORNE
346,Eagle Rock Noodle & Grill,,224.0,3.0,$$,Noodles,34.1368347613329,34.1368347613329,ghKhQH9tVFP6bgHQd6cNqg,,EAGLE ROCK NOODLE AND GRILL,7315 N FIGUEROA ST # 103,LOS ANGELES
347,Fun Fish Market,,117.0,2.5,$$,Seafood,33.840746,33.840746,0JDPYmUphD3kN-GOIG99BA,,FUN FISH MARKET,131 INTERNATIONAL BOARDWALK,REDONDO BEACH
348,Hound Dog Hot Dog Shop,,72.0,4.0,$,Hot Dogs,34.2279401421547,34.2279401421547,duHI9GqeJg8Uslke3P-LeA,,THE HOUND DOG,8749 GLENOAKS BLVD,SUN VALLEY
349,Bastards,,496.0,4.0,$$,"Sports Bars, Barbeque, Breakfast & Brunch",33.9411862067134,33.9411862067134,eBaK1bfPBe4-IaErEnSODw,,BASTARDS BAB-B-QUE,11045 DOWNEY AVE,DOWNEY
350,Chelly's Cafe,,519.0,4.0,$,"Cafes, Breakfast & Brunch",34.6093871888869,34.6093871888869,8asGwPkNinjuUW7W45ViWQ,,CHELLY'S CAFE,40008 10TH ST W # 107,PALMDALE
351,FoodInk Catering,,33.0,4.5,,Caterers,34.0550494,34.0550494,nh3KuN02MxSKQyONE13KYw,,FOODINK,1105 S LA BREA AVE,LOS ANGELES
352,O'Hearn's Pub,,56.0,4.0,$,"Music Venues, Burgers, Pubs",33.7897062,33.7897062,rJzr2W9UqvpIbAxGzvBL4g,,O'HEARNS PUB,1831 PACIFIC COAST HWY,LOMITA
353,McDonald's,,75.0,1.5,$,"Fast Food, Burgers, Coffee & Tea",34.5587865435233,34.5587865435233,TJb5mhRUjv4FJ8QPxUSp7Q,,MCDONALD'S #19192,37217 47TH ST E,PALMDALE
354,Sunset Tower Hotel,,236.0,4.0,$$$,Hotels,34.09505,34.09505,YjwmWL_Alf-1nnqSObKGRw,,SUNSET TOWER HOTEL - DOWNSTAIRS KITCHEN,8358 SUNSET BLVD,WEST HOLLYWOOD
355,Italiano's Pizza,,126.0,3.0,$,Pizza,34.12031,34.12031,wcyCbV1XGM64uD2PNDpd0g,,ITALIANO'S PIZZA,6500 N FIGUEROA ST,LOS ANGELES
356,La Mirada Golf Course,,127.0,3.0,,"Golf, Venues & Event Spaces, Wedding Planning",33.902936,33.902936,Hs6Z9wCHU8lhpnOYBz-LRw,,LA MIRADA COUNTRY CLUB,15501 ALICANTE RD,LA MIRADA
357,Montage Beverly Hills,,418.0,4.5,$$$$,Hotels,34.067787987164,34.067787987164,IIi3gWDTsJJOUZFK8kzzqw,,MONTAGE BEVERLY HILLS - THE RESTAURANT,225 N CANON DR,BEVERLY HILLS
358,Solar de Cahuenga,,721.0,3.0,$$,"Coffee & Tea, Salad, Sandwiches",34.105079,34.105079,yyIj9b6bbMtNzxyEn05sgA,,SOLAR DE CAHUENGA,1847 N CAHUENGA BLVD,LOS ANGELES
359,HK2 Food District,,59.0,2.5,$$,"Grocery, Fruits & Veggies, Seafood Markets",33.986663869536,33.986663869536,1NH3WCVlEk3hgIm1Wwzhxg,,HK2 OF ROWLAND HTS(SNACKDEPT,18414 COLIMA RD,ROWLAND HEIGHTS
360,All Star Fish Mkt,,1.0,1.0,,Seafood Markets,33.970817565918,33.970817565918,h6B3q1TAAApEgPE6qQEefQ,,ALL STAR FISH MARKET,7622 S CENTRAL AVE,LOS ANGELES
361,Momo Bakery,,38.0,3.5,$,Bakeries,34.0631273043892,34.0631273043892,LRqlJt_oCztqYqR45RgWXA,,MO MO BAKERY,114 N GARFIELD AVE,MONTEREY PARK
362,Golden China Restaurant,,353.0,4.0,$$,"Chinese, Vegan, Vegetarian",34.0275261,34.0275261,TqdnWOsgGTTgfAwOq84WJg,,GOLDEN CHINA RESTAURANT,9018 VENICE BLVD,CULVER CITY
363,Louisiana Fried Chicken,,70.0,3.5,$,"Chicken Shop, Chinese, Fish & Chips",34.089559,34.089559,YWeo9WEre30bZthi-VynYg,,LOUISIANA FAMOUS FRIED CHICKEN,9704 LOWER AZUSA RD,EL MONTE
364,Taco Bell,,34.0,3.0,$,"Mexican, Tex-Mex, Fast Food",34.010303,34.010303,RmtlvghxcMLQu8jWMH3O4Q,,TACO BELL #90,2207 LINCOLN BLVD,SANTA MONICA
365,Mayra's Bakery,,2.0,5.0,,Bakeries,34.0222270949593,34.0222270949593,UIz7gYoO7uiKp4LnythEzw,,MAYRA'S BAKERY,2521 S SAN PEDRO ST # #E,LOS ANGELES
366,Super King Markets,,316.0,3.5,$,"Grocery, International Grocery, Butcher",34.18461549403725,34.18461549403725,2Nq19gnuFDLGRXl8tJxp9g,,SUPER KING MARKET-MEAT,2260 LINCOLN AVE,ALTADENA
367,Walmart,,137.0,2.0,$,"Department Stores, Grocery",33.918319,33.918319,p6RYY8rh7UdzLTYNL2H4eA,,WALMART,11729 IMPERIAL HWY,NORWALK
368,Paradise Pastry & Cafe,,413.0,3.0,$,"Bakeries, Coffee & Tea, Sandwiches",34.1733744088917,34.1733744088917,sVf_R9Q62c1M38Ka6vUQJQ,,PARADISE PASTRY DELI & MEAT MARKET,1815 W GLENOAKS BLVD,GLENDALE
369,El Pollo Loco,,52.0,2.0,$,"Mexican, Fast Food",33.9769921019716,33.9769921019716,3j7zCBeBXsODLUbgHHlvrQ,,EL POLLO LOCO #5902,5300 W CENTINELA AVE,LOS ANGELES
370,California Sushi & Teriyaki,,230.0,4.0,$$,"Japanese, Sushi Bars",33.8585366192272,33.8585366192272,jAM8fTB8GHxOKLr_k7VFSA,,CALIFORNIA SUSHI TERIYAKI,429 PACIFIC COAST HWY,HERMOSA BEACH
371,Auntie Anne's,,35.0,3.0,$,Pretzels,33.8640729,33.8640729,py6YOZ5RqEBEzp1yvWtE3Q,,AUNTIE ANNE,141 LOS CERRITOS MALL # #B,CERRITOS
372,Bistro of Santa Monica,,147.0,3.5,$$,"Italian, Seafood, Wine Bars",34.030941,34.030941,5yuqLZZTtQQtXruvHw-Bfg,,BISTRO OF SANTA MONICA,2301 SANTA MONICA BLVD,SANTA MONICA
373,Chris's Burgers,,549.0,4.0,$,"Burgers, Fast Food, Hot Dogs",34.05418,34.05418,5LQEjlFYSIMz0CQz9YgqDQ,,CHRIS'S BURGERS,13737 E AMAR RD,LA PUENTE
374,La Tequila Restaurant,,78.0,2.5,$$,"Mexican, Seafood",33.9891720127817,33.9891720127817,xb3vZdQN_tR3JxjVOl1Afw,,LA TEQUILA RESTAURANT,5624 ATLANTIC BLVD,MAYWOOD
375,The 4th Dimension,,93.0,3.5,$$,"Sports Bars, Pool Halls, Karaoke",34.1482275,34.1482275,akH4byLNQCi9nPxlc5v9sg,,4TH DIMENSION,326 S MYRTLE AVE,MONROVIA
376,Gorditas Durango Mexican Grill,,46.0,3.0,$,"Mexican, Latin American",34.221011,34.221011,J6-zzryTkqShCQLS8TerlQ,,GORDITAS DURANGO MEXICAN GRI,14650 ROSCOE BLVD STE 1&2,PANORAMA CITY
377,Noe Restaurant and Bar,,533.0,4.0,$$$,"Bars, French, Music Venues",34.0526399,34.0526399,vsVGA4-vCEHCBi6RUK_WFA,,NOE RESTAURANT,251 S OLIVE ST,LOS ANGELES
378,Fuente Restaurant,,42.0,3.5,$,"Mexican, Salvadoran",33.9866103629108,33.9866103629108,CyJTSB0KyD_0Rm7rAMxjow,,FUENTE RESTAURANT,5916 S VERMONT ST,LOS ANGELES
379,The Gumbo Pot,,802.0,2.5,$$,"Cajun/Creole, Southern, Seafood",34.071951064676,34.071951064676,OSri3nt9p42pzK2gCNNTqw,,THE GUMBO POT PREP KITCHEN,6333 W 3RD ST STE E-K12,LOS ANGELES
380,Souplantation,,425.0,3.5,$$,"Buffets, Vegetarian, Salad",34.053129,34.053129,jcdIrdgeg58VbezTxJoVBw,,SOUPLANTATION,11911 SAN VICENTE BLVD STE #116,LOS ANGELES
381,,,,,,,,,,,B. W. HOTEL LLC BAKERY,9500 WILSHIRE BLVD,BEVERLY HILLS
382,,,,,,,,,,,VIVA INTERNATIONAL INC,188 E GARVEY AVE STE D,MONTEREY PARK
383,Starbucks,,85.0,3.0,$,Coffee & Tea,33.977716,33.977716,GQWy0jqLm3jSMGmyw26OWw,,STARBUCKS COFFEE,6081 CENTER DR STE 108,LOS ANGELES
384,Yoshinoya - West Covina,,88.0,2.5,$,Japanese,34.0556651,34.0556651,f8obFVcGb8wl9Ba9keTqxg,,YOSHINOYA BEEF BOWL RESTAURA,1130 S GLENDORA AVE,WEST COVINA
385,,,,,,,,,,,SUNNY LIQUOR,1083 E MISSION BLVD,POMONA
386,The Club Bar at The Peninsula Beverly Hills,,12.0,5.0,$$$$,Bars,34.0655654168747,34.0655654168747,kMCcjfrkN-U89xj0UXiMcQ,,PENINSULA CLUB BAR,9882 S SANTA MONICA BLVD,BEVERLY HILLS
387,Shi Hai,,192.0,3.0,$$,"Dim Sum, Cantonese",34.077826,34.077826,_Nat8wD80syHqTdcQMZWKA,,SHI HAI,1412 S GARFIELD AVE,ALHAMBRA
388,Vallarta SuperMarket,,58.0,2.0,$$,Grocery,34.224502,34.224502,Z-sZK884WNVh8lDf_yt6og,,VALLARTA SUPERMARKET  TAQUERIA,8453 RESEDA BLVD,NORTHRIDGE
389,Zooma Sushi,,147.0,3.5,$$,Sushi Bars,34.01899,34.01899,A17QZwC-6MLI0uhDQIst7w,,ZOOMA SUSHI,29350 PACIFIC COAST HWY # 7,MALIBU
390,,,,,,,,,,,VEGAN PLATE,11943 VENTURA BLVD,STUDIO CITY
391,Bubba Gump Shrimp,,1202.0,3.5,$$,"Seafood, Southern",34.136058,34.136058,R5Y4lnegexOOWjEHI16IyQ,,BUBBA GUMP SHRIMP CO #355,1000 UNIVERSAL STUDIOS PLZ,UNIVERSAL CITY
392,,,,,,,,,,,BUFFET CHINA,870 E ARROW HWY,COVINA
393,,,,,,,,,,,RAD ABS SUPPLEMENTS,820 SAN BERNARDINO RD,COVINA
394,Target,,75.0,3.0,$$,"Department Stores, Furniture Stores, Electronics",34.574356,34.574356,4S-_T_luSiXFUd2b2iWnAw,,TARGET STORE,38019 E 47TH ST E,PALMDALE
395,Sage Vegan Bistro - Echo Park,,2331.0,4.0,$$,"Vegan, Brewpubs",34.077123,34.077123,L3YM8cAda9L_t_j-2C4ufA,,SAGE VEGAN BISTRO,1700 W SUNSET BLVD,LOS ANGELES
396,Food 4 Less,,34.0,3.0,$,"Grocery, Pet Stores",34.22572,34.22572,WzeD1CpETNezKRnB6qQxFA,,FOOD 4 LESS #314 -  MEAT DEPT,8530 TOBIAS AVE,PANORAMA CITY
397,WaBa Grill,,68.0,3.0,$,"Fast Food, Asian Fusion",34.11549167,34.11549167,TfVLSE9Uc3d76h1de9qesg,,WABA GRILL,3113 N SAN FERNANDO RD,LOS ANGELES
398,Big Saver Foods,,2.0,2.5,$,Grocery,33.98895,33.98895,uFiZhEVhzkR5t5oCn44e5Q,,BIG SAVER FOOD MEAT DEPT,5829 S COMPTON AVE,LOS ANGELES
399,Western Kosher,,47.0,4.0,$$,"Grocery, Meat Shops, Kosher",34.04822,34.04822,dDcSs-3CDPcurx9Kg_JwPA,,WESTERN KOSHER,4817 W PICO BLVD,LOS ANGELES
400,Marshalls,,117.0,2.5,$$,Department Stores,34.1420356497871,34.1420356497871,T9i402mh8QRWILpzgshfFw,,MARSHALLS STORE #433,11239 VENTURA BLVD,STUDIO CITY
401,Omar Restaurant,,343.0,4.0,$$,"Chinese, Halal, Uzbek",34.07762,34.07762,54snWUGRj6-vjVCW4LBvaw,,OMAR RESTAURANT,1718 NEW AVE,SAN GABRIEL
402,Señor Fish,,379.0,3.0,$,"Mexican, Seafood, Bars",34.1158449,34.1158449,-8Fc8gf-AIJhi2fFnwWSrQ,,SENIOR FISH,618 MISSION ST,SOUTH PASADENA
403,China Express,,17.0,3.0,$,Chinese,34.062233,34.062233,g4ms-0H8_FL0W20sJzcNYA,,CHINA EXPRESS,475 W HOLT AVE,POMONA
404,Wokcano Asian Grill,,52.0,3.0,$$,"Seafood, Chinese, Soup",34.0712448643056,34.0712448643056,WfQ8H32JSTsgw8SCCCzcnA,,WOKCANO ASIAN GRILL,112 PLAZA DR STE 1465,WEST COVINA
405,Toto's Lechon Manok,,116.0,3.0,$,"Filipino, Breakfast & Brunch, Fast Food",34.0307736190079,34.0307736190079,FUzt3qS-7wYCxmgIwPlR0w,,TOTOS LECHON,1545 E AMAR RD,WEST COVINA
406,King Boba,,29.0,4.0,$,"Bubble Tea, Asian Fusion, Hawaiian",34.0130741,34.0130741,4mRr_74O0bIoqQOn6FkdqQ,,KING BOBA,1828 LINCOLN BLVD,SANTA MONICA
407,Portsmouth,,443.0,4.5,$$,"Seafood, Tapas/Small Plates, Mexican",33.97558,33.97558,651znkhST67-bMPRtLKNZQ,,PORTSMOUTH,13103 PENN ST,WHITTIER
408,Subway,,57.0,3.0,$,Sandwiches,34.0976599,34.0976599,mJLgSMo9jY9CWYBFsB8TNw,,SUBWAY #1740,7040 W SUNSET BLVD STE #C,LOS ANGELES
409,Three Spice Thai Kitchen,,560.0,3.5,$$,Thai,33.88181,33.88181,jmDYEXQZrKyZBgJ0EL3g6w,,THREE SPICE,16400 S WESTERN AVE,GARDENA
410,Buy Buy Baby,,101.0,4.0,$$,Baby Gear & Furniture,34.419442832873,34.419442832873,XuK37RnF6ht5AkZjlZAbzg,,BEST BUY BABY,24267 MAGIC MOUNTAIN PKWY,VALENCIA
411,Cherri's Donut Plus,,36.0,4.5,$,"Donuts, Coffee & Tea, Sandwiches",33.8892351,33.8892351,5FQ3aydlX-dCZ6gvNKogdg,,CHERRI'S DONUTS PLUS,10216 E ALONDRA BLVD,BELLFLOWER
412,Harmony Farms,,147.0,4.5,$$,Meat Shops,34.2243799,34.2243799,jbgpYNprrjKDkghwIzeL6A,,HARMONY FARMS - MKT RETAIL,2824 FOOTHILL BLVD,LA CRESCENTA
413,,,,,,,,,,,NOPGOW THAI RESTAURANT,2551 E AVENUE S STE K,PALMDALE
414,London's Pub & Grill,,300.0,4.0,$$,"British, Pubs, Indian",33.8732049,33.8732049,zaMKFOWKFlh3lUTBcwnxGQ,,LONDON'S PUB AND GRILL,11651 ARTESIA BLVD,ARTESIA
415,Sam Woo BBQ,,712.0,4.0,$$,"Barbeque, Cantonese",34.187762,34.187762,vJeTE3FreD_D3CxTMSodIA,,SAM WOO BBQ RESTAURANT,6450 SEPULVEDA BLVD STE #G,VAN NUYS
416,El Tepeyac Cafe,,2228.0,4.0,$$,"Mexican, Cafes, Breakfast & Brunch",34.047744,34.047744,ZefFhlg3YlP2mG0Z6WVc0A,,EL TEPEYAC RESTAURANT,812 N EVERGREEN AVE,LOS ANGELES
417,,,,,,,,,,,HONEYBAKED,11405 JEFFERSON BLVD,CULVER CITY
418,P & G Market,,5.0,4.5,$$,Grocery,33.9057159423828,33.9057159423828,CbGg3J-eyz9v_fBCEmaWeg,,P & G MARKET,640 W PEACH ST,COMPTON
419,Pavilions,,172.0,3.0,$$,"Grocery, Pharmacy",33.9968001,33.9968001,hN-VYzmEcxaLU3nrK-ft7Q,,PAVILIONS #2212 STARBUCKS,11030 W JEFFERSON BLVD,CULVER CITY
420,The Bicycle Hotel & Casino,,345.0,3.5,$$,"Casinos, Hotels",33.966167,33.966167,KYFAXpI92pNUzeeSRJSMVA,,BICYCLE CASINO RESTAURANT,888 BICYCLE CASINO DR,BELL GARDENS
421,,,,,,,,,,,7-11 FOOD STORE #13896A,27761 BOUQUET CANYON RD,SANTA CLARITA
422,Angelino's Pizza,,36.0,3.5,$,Pizza,34.04027,34.04027,LwXpUoRXJvi5sTGx0t9l7A,,ANGELINO'S PIZZA,2201 W WASHINGTON BLVD,LOS ANGELES
423,Subway,,36.0,2.5,$,Sandwiches,34.127789,34.127789,K89LInoss8HPRwe1L956rw,,SUBWAY 20648,3007 E HUNTINGTON DR STE #102,PASADENA
424,Pressed Juicery,,283.0,4.0,$$,"Juice Bars & Smoothies, Vegan, Health Markets",34.14347,34.14347,NBqw5G5Pm2qJwa1lVUmc9Q,,PRESSED JUICERY,132 CARUSO WAY,GLENDALE
425,El Poblano Meat Market,,1.0,1.0,,Butcher,33.9844365662679,33.9844365662679,qTzHJUVgsggEsVZCatRTWw,,EL POBLANO MEAT MARKET,6109 S HOLMES AVE,LOS ANGELES
426,,,,,,,,,,,SPRINKLERS CUPCAKES,420 N LA CIENEGA BLVD,LOS ANGELES
427,Good Shine Kitchen,,139.0,4.0,$,"Chinese, Taiwanese",34.0601366,34.0601366,daKKDDMfnk5vDz6fUGRdiQ,,GOOD SHINE KITCHEN,235 S GARFIELD AVE,MONTEREY PARK
428,Feng Mao Lamb Kebab - Olympic,,566.0,4.5,$$,"Chinese, Korean, Barbeque",34.053617,34.053617,p1O9sw9QdnKn1cV2FEmmhw,,FENG MAO,3901 W OLYMPIC BLVD,LOS ANGELES
429,The Golden Owl,,314.0,4.5,$,"Burmese, Bubble Tea, Vegetarian",34.044362,34.044362,5QUl55rMsnSVSGM_yLlGFg,,THE GOLDEN OWL,16423 MAPLEGROVE ST,LA PUENTE
430,Los Jarritos Restaurants,,682.0,3.5,$,Mexican,34.1057296335185,34.1057296335185,qkRdHaiamT9W9cfPEl73Nw,,LOS JARRITOS,3191 N GAREY AVE,POMONA
431,Galaxy Sports Bar,,3.0,3.0,,Sports Bars,34.06911,34.06911,kFW4YF2QVwkHFy5RU5qjYQ,,GALAXY SPORT BAR,656 S SUNSET AVE,WEST COVINA
432,Jun Won Restaurant,,212.0,4.5,$$,Korean,34.057573,34.057573,Mc9xMwSGokORq4hFCWuU0w,,JUN WON,3100 W 8TH ST STE #101,LOS ANGELES
433,The Crow's Nest Sports Grille,,149.0,4.0,$$,"Sports Bars, American (Traditional), Breakfast & Brunch",34.2500237,34.2500237,U7mPfP2ic8LcgRqq3v1pSg,,THE CROWS NEST SPORTS GRILLE,7279 FOOTHILL BLVD,TUJUNGA
434,Acton Plaza Liquor,,3.0,3.0,,"Beer, Wine & Spirits",34.493521,34.493521,6eORgIEqzGqUU9EFePQcRQ,,ACTON PLAZA LIQUOR,3813 SIERRA HWY # 203,ACTON
435,The Vitamin Shoppe,,92.0,3.5,$$,Vitamins & Supplements,34.07452,34.07452,uALE3JgtGmCTq25UYFH99Q,,THE VITAMIN SHOPPE,101 N FAIRFAX AVE,LOS ANGELES
436,Knight Life Liquor Jr Market,,7.0,2.5,,"Beer, Wine & Spirits",34.2084949,34.2084949,nXOfSXZLnCyelA5cTxp8jg,,KNIGHT LIFE LIQUOR,19245 SATICOY ST,RESEDA
437,,,,,,,,,,,"ZARATE, JOSE",2250 S ATLANTIC BLVD STE P,COMMERCE
438,,,,,,,,,,,SWEET 1 BAKERY,13668 OXNARD ST,VAN NUYS
439,Jack in the Box,,38.0,2.0,$,"Fast Food, Burgers, Tacos",33.931244344299,33.931244344299,-co8ZARJkj8TS2K0XG3AwA,,JACK IN THE BOX 232,4737 W IMPERIAL HWY,INGLEWOOD
440,Taqueria Tijuana,,113.0,4.5,$,Mexican,33.974841,33.974841,9EebmPfSytjnkpf5_pXPqw,,TAQUERIA TIJUANA,241 W FLORENCE AVE,LOS ANGELES
441,The Hat,,710.0,4.0,$$,"Sandwiches, American (Traditional), Burgers",34.0372126650315,34.0372126650315,ilUxHLaYrS3HLmfYHMOf4A,,THE HAT,2300 S ATLANTIC BLVD,MONTEREY PARK
442,Starbucks,,78.0,2.5,$$,Coffee & Tea,33.774773,33.774773,SPej14NU9rz_7I5KePWbrw,,STARBUCKS COFFEE #518,46 PENINSULA CTR STE A,ROLLING HILLS ESTATES
443,Will's Jamaican Cuisine,,158.0,4.0,$$,Caribbean,33.97133,33.97133,kC678OrfpeTMV3sSz4GpMw,,WILLS JAMAICAN CUISINE,630 N LA BREA AVE # 103,INGLEWOOD
444,Los Angeles Convention Center,,364.0,3.5,,"Venues & Event Spaces, Party & Event Planning",34.040329,34.040329,wFxDli2tlPCRbPU42S-o1g,,LA CONVENTION CENTER STAND D - COMMISSARY FOR MSU,1201 S FIGUEROA ST,LOS ANGELES
445,Stater Bros. Markets,,46.0,3.5,$$,"Grocery, Butcher, Delis",34.0362579,34.0362579,AWg5uTDWYI6aaSir213HUg,,STATER BROS #54 (MEAT ),1025 E AMAR RD,WEST COVINA
446,,,,,,,,,,,TACOS MEXICO,804 PLAZA DR,WEST COVINA
447,Benihana - Dignity Health Sports Park,,1.0,5.0,,"Sushi Bars, Bars, Japanese",33.86438,33.86438,2IcuqHlsF6h2MeGof6DbPQ,,DIGNITY HEALTH SPORTS PARK - THE MARKET #14,18400 AVALON BLVD STE 300,CARSON
448,Bob's Liquor,,8.0,2.5,$$,"Beer, Wine & Spirits",34.2087707519531,34.2087707519531,dm3yrXt8rbDRh1s-bbkPMw,,BOB'S LIQUOR,17315 SATICOY ST,NORTHRIDGE
449,Winchell's Donuts,,19.0,1.5,$,"Donuts, Coffee & Tea, Sandwiches",33.9708251953125,33.9708251953125,NYa4b9a_P9df9A5CQ8LUKg,,WINCHELL'S DONUT HOUSE,11330 WASHINGTON BLVD,WHITTIER
450,Los Alazanes,,36.0,4.5,$,Mexican,33.9801241457462,33.9801241457462,jfvG4z0rpQribe__IeGpBA,,LOS ALAZANES,6756 PASSONS BLVD,PICO RIVERA
451,McDonald's,,81.0,1.5,$,"Fast Food, Burgers, Coffee & Tea",34.2185492899028,34.2185492899028,6xC9S_NjCYStc4c2Jfr55g,,MCDONALD'S STORE #11204,8139 SUNLAND BLVD,SUN VALLEY
452,Viceroy L'Ermitage Beverly Hills,,125.0,4.0,$$$,Hotels,34.07262,34.07262,JaKE4hImbq17xSgNV-nUBQ,,L'HERMITAGE VICEROY HOTEL,9291 BURTON WAY,BEVERLY HILLS
453,Krust Bakery &Cafe,,201.0,4.5,$,"Coffee & Tea, Bakeries, Breakfast & Brunch",33.82335,33.82335,se317gADw_GTw1ipk7YYUQ,,KRUST,1300 S PACIFIC COAST HWY 182,REDONDO BEACH
454,Rocky Cola Cafe,,366.0,3.0,$$,"Diners, American (Traditional)",33.9792503395383,33.9792503395383,3bSQqDWm4j4KQLvLBtjqAQ,,ROCKY COLA CAFE,6757 GREENLEAF AVE,WHITTIER
455,Mi Zacatecas,,267.0,4.0,$,Mexican,33.916232,33.916232,2Mh2g5H25OEqN5Eq4Q6xOQ,,MI ZACATECAS MEXICAN FOOD,12808 INGLEWOOD AVE,HAWTHORNE
456,Domino's Pizza,,51.0,2.5,$,"Pizza, Chicken Wings, Sandwiches",34.2497686,34.2497686,R7sZQqZeCKpSysMwAZwKOw,,DOMINO'S PIZZA,9874 DE SOTO AVE,CHATSWORTH
457,Pinkberry,,89.0,3.5,$,Ice Cream & Frozen Yogurt,34.20128,34.20128,LYTqyonsLZXi7Qd26FYMig,,PINKBERRY,712 FOOTHILL BLVD,LA CANADA FLINTRIDGE
458,Seasons 52,,372.0,4.0,$$,"American (New), Wine Bars, Breakfast & Brunch",34.0125981428174,34.0125981428174,8TDDOpPJsW8lrMdHxlO2fg,,SEASON'S 52,1501 OCEAN AVE,SANTA MONICA
459,99 Ranch Market,,188.0,3.5,$$,"Seafood Markets, Fruits & Veggies, International Grocery",34.097697,34.097697,jtAGlM5JdmBcHOMsDqOKaw,,99 RANCH MARKET #38 - SUSHI,345 E MAIN ST,ALHAMBRA
460,Vons,,149.0,2.0,$$,Grocery,34.050655,34.050655,en_61W8IpvY0zW7ev1yyFQ,,VONS #2268 DELI,1430 S FAIRFAX AVE,LOS ANGELES
461,Rude Dog Bar & Grill,,305.0,2.5,$$,"Music Venues, Sports Bars, Hot Dogs",34.08664,34.08664,fqhMmzBy9RPqz6YTQKpedw,,RUDE DOGS,114 N CITRUS AVE,COVINA
462,Barrel & Ashes,,1320.0,3.5,$$,"Barbeque, American (Traditional), Breakfast & Brunch",34.14226,34.14226,4WsG7089Gx8ogjNvExxBCA,,BARREL AND ASHES,11801 VENTURA BLVD,STUDIO CITY
463,Forty Carrots,,24.0,4.0,$$,"Coffee & Tea, Ice Cream & Frozen Yogurt, Juice Bars & Smoothies",34.01369,34.01369,7rIZoTGtGMrpuu9freHvtw,,FORTY CARROTS/BLOOMINGDALES,315 COLORADO AVE,SANTA MONICA
464,7-Eleven,,14.0,3.5,$,Convenience Stores,34.0343236900925,34.0343236900925,8JYlkWRFuEvvCbs5lRWEYg,,7- ELEVEN #27069,11666 W OLYMPIC BLVD,LOS ANGELES
465,Sprouts Farmers Market,,227.0,3.5,$$,"Grocery, Health Markets, Organic Stores",34.266632,34.266632,W6XD7qt8adu_MjAIsufCPw,,SPROUTS #223 DELI DEPT,10821 ZELZAH AVE,GRANADA HILLS
466,El Super,,27.0,2.0,$$,Grocery,33.95577,33.95577,22V7MUwUjTJ5FfanZa2A1A,,EL SUER #27-BAKERY DEPT.,3211 FIRESTONE BLVD,SOUTH GATE
467,China Bowl,,14.0,3.0,$,Chinese,33.955993,33.955993,K0-E3GLvosAwjhV5G8lLBA,,CHINA FOOD EXPRESS,3223 FIRESTONE BLVD,SOUTH GATE
468,Superior Grocers,,60.0,3.0,$,"Grocery, Bakeries, Meat Shops",34.021969,34.021969,fhlaqvOwW43wb5LdpJtweA,,SUPERIOR SUPERWAREHOUSE-MEAT,151 S HACIENDA BLVD,LA PUENTE
469,Bar Marmont,,477.0,3.5,$$$,"American (New), Lounges, Burgers",34.09827,34.09827,KWDOHiIiVfK0gyCrX2QBIw,,BAR MARMONT,8171 W SUNSET BLVD,LOS ANGELES
470,,,,,,,,,,,G AND Z MARKET,8165 ARROYO DR,ROSEMEAD
471,Fishing With Dynamite,,1406.0,4.5,$$$,"Seafood, Tapas Bars, American (Traditional)",33.88539,33.88539,a9ap769whqOdl0LT3koAig,,FISHING WITH DYNAMITE,1148 MANHATTAN AVE,MANHATTAN BEACH
472,Dunes Inn Sunset,,50.0,3.5,$$,Hotels,34.09846,34.09846,67t9_gKJhA7CkytmUR6FzQ,,DUNES RESTAURANT,5625 W SUNSET BLVD,LOS ANGELES
473,Rock'N Fish,,1213.0,3.5,$$,"Seafood, Gastropubs, American (New)",34.0445128974681,34.0445128974681,LflKiZyF57UEm2CYcfJ2ww,,ROCK N FISH,800 W OLYMPIC BLVD STE A160,LOS ANGELES
474,,,,,,,,,,,SUBWAY #20714,1000 E VICTORIA ST,CARSON
475,,,,,,,,,,,CITY OF LAWNDALE KITCHEN,14700 BURIN AVE,LAWNDALE
476,Primo's Expresso Americana,,11.0,4.5,$,Coffee & Tea,34.04973,34.04973,1MOlsPPkcsPp5nI6nYdwUg,,PRIMO'S EXPRESSO AMERICAN,333 S SPRING ST #F3,LOS ANGELES
477,Niko Sushi,,388.0,4.5,$$$,"Sushi Bars, Japanese",34.17289,34.17289,Eb9b4y-zMC3o3ko2aerHRQ,,NIKO SUSHI,19001 1/2 VENTURA BLVD,TARZANA
478,Dominique's Kitchen,,819.0,4.5,$$,French,33.83332,33.83332,z5FvyocYW0621b5vuUy5Ng,,DOMINIQUE'S KITCHEN,522 S PACIFIC COAST HWY,REDONDO BEACH
479,Tasty Wok,,33.0,4.0,$,"Szechuan, Thai, Asian Fusion",33.9151972532272,33.9151972532272,M7FSysB-VjGuczNj_4odQw,,TASTY WOK TO GO,12815 VALLEY VIEW AVE,LA MIRADA
480,Ralphs,,188.0,3.0,$$,Grocery,34.0320237174903,34.0320237174903,QZulGq646k8J1UfJbfDvhA,,RALPHS MARKET #294 - BAKERY,2600 S VERMONT AVE,LOS ANGELES
481,Carl's Jr,,64.0,2.0,$,"Fast Food, Burgers",34.21952580124168,34.21952580124168,RK39us59ifjM-ULDOj3fAw,,CARL'S JR,20900 ROSCOE BLVD,CANOGA PARK
482,Dirt Dog,,2238.0,4.5,$,"Hot Dogs, Beer Bar",34.0282923762355,34.0282923762355,0z23Jk7U_MpvtqKINPL2fA,,DIRT DOG,2528 S FIGUEROA ST,LOS ANGELES
483,Zavala Restaurant Y Taqueria,,111.0,4.0,$,Mexican,33.9139539,33.9139539,h8usmqGiVOMQPu53tuUJlw,,ZAVALA RESTAURANT & TAQUERIA,13621 GARFIELD AVE,SOUTH GATE
484,Great Wall,,285.0,3.0,$,"Chinese, Seafood, Bubble Tea",34.690436,34.690436,5G1Rb_cPFt2kJY_o3TsbDA,,GREAT WALL CHINESE RESTAURANT,2001 W AVENUE J,LANCASTER
485,Palisades Pizza,,124.0,3.5,$$,"Pizza, Italian",34.04659,34.04659,veNck9hbdtxJiVAUN6d9hg,,PALISADES PIZZA,860 VIA DE LA PAZ STE A4,PACIFIC PALISADES
486,Scrumptious Cafe & Bakery,,447.0,4.5,$$,"Bakeries, Breakfast & Brunch",34.0912524598394,34.0912524598394,MiNW-nSa_W9ED2G3wvz_Tg,,SCRUMPTIOUS CAFE & BAKERY,1111 N HAYWORTH AVE,WEST HOLLYWOOD
487,Vons,,86.0,3.0,$$,"Grocery, Pharmacy",34.1206424,34.1206424,YiUSTVnIzWynwh4o3pDKxw,,VONS #2155,550 E BASELINE RD,CLAREMONT
488,,,,,,,,,,,BELLAMAR NUTRITION,709 S ATLANTIC BLVD,LOS ANGELES
489,Costco Wholesale,,287.0,3.5,$$,Wholesale Stores,34.271801,34.271801,-6jAvANAI3BmeurY7bd9Vg,,COSTCO #1071 DELI,13550 PAXTON ST,PACOIMA
490,Hard Times Pizza,,246.0,4.0,$,"Pizza, Italian",34.078532,34.078532,YDn6HHTNJF_Q79fP0mEKQw,,HARD TIMES PIZZA,1311 N GLENDALE BLVD STE #G,LOS ANGELES
491,,,,,,,,,,,JAN'S HOUSE RESTAURANT,3026 E JEFFERSON AVE,LOS ANGELES
492,Seventeen Cafe,,82.0,4.5,$,Cafes,34.2118585689141,34.2118585689141,PFtia3ex8MXGochg18k2Ew,,SEVENTEEN CAFE,7734 SAN FERNANDO RD,SUN VALLEY
493,,,,,,,,,,,NAN JING KITCHEN,706 W LAS TUNAS DR # B5,SAN GABRIEL
494,Polleria Guadalajara,,1.0,4.0,,International Grocery,33.967700958252,33.967700958252,JtJk3kcAMmm28r8xoZoGGA,,POLLERIA GUADALAJARA,1601 NADEAU ST,LOS ANGELES
495,Texis Restaurant,,8.0,2.0,$,"Salvadoran, Mexican, Karaoke",34.0475197,34.0475197,MI6ilrDSLgg4W7ejTQjArA,,TEXIS RESTAURANT AND ENTERTAINMENT,2815 W PICO BLVD,LOS ANGELES
496,,,,,,,,,,,RALPH'S #205 BAKERY,4754 COMMONS WAY,CALABASAS
497,Raffallo's Pizza,,229.0,3.5,$$,"Pizza, Italian, Sandwiches",34.101424,34.101424,BREPgR-RgVCgTxH6R_cOug,,RAFFALLO'S PIZZA,1657 N LA BREA AVE,LOS ANGELES
498,Vons,,52.0,2.5,$$,Grocery,34.153664,34.153664,Y68-nDokXA4o3ZyfQFC3wg,,FUJISAN (INSIDE VONS #2001),5671 KANAN RD,AGOURA HILLS
499,Starbucks,,186.0,2.5,$,Coffee & Tea,34.23478,34.23478,p7VA6USrKfrXjeZT3GhOpw,,STARBUCKS,9020 N RESEDA BLVD #A,NORTHRIDGE
500,El Asador,,48.0,2.5,$$,"Latin American, Seafood, Nicaraguan",34.0427813,34.0427813,YS1UPvWopSjKqIc4_80qHw,,EL ASADOR,1225 W VENICE BLVD,LOS ANGELES
501,The Chowder Barge,,373.0,4.0,$$,"Seafood, Bars, American (Traditional)",33.777093,33.777093,CGPG6fR0s_twHHzzvjyYVw,,THE CHOWDER BARGE,611 N HENRY FORD AVE # 2001,WILMINGTON
502,,,,,,,,,,,SENORITA ABBY'S,3751 S WESTERN AVE,LOS ANGELES
503,Boca Del Rio,,167.0,4.0,$,Mexican,34.1066535,34.1066535,hUfGQAPYVnfw2rJFdkZBxg,,BOCA DEL RIO,140 E ARROW HWY,COVINA
504,,,,,,,,,,,CAFE 9800,9800 S LA CIENEGA BLVD STE 115,INGLEWOOD
505,Maricela's Bionicos Y Antojitos,,116.0,4.5,$,"Mexican, Delis",33.78973,33.78973,-FXyO5nR9X8u_DKQ_qvFEg,,MARICELA'S,1202 PACIFIC COAST HWY,HARBOR CITY
506,,,,,,,,,,,CARUSOS PIZZA,13737 FOOTHILL BLVD,SYLMAR
507,Mi California,,50.0,3.5,$$,Mexican,33.9039529,33.9039529,v4aLES3z6MSSXIj5_78zBg,,MI CALIFORNIA RESTAURANT,14047 HAWTHORNE BLVD,HAWTHORNE
508,,,,,,,,,,,GELSONS MARKET,4738 LAUREL CANYON BLVD,STUDIO CITY
509,,,,,,,,,,,BILTMORE HOTEL- BERNARDS,506 S GRAND AVE,LOS ANGELES
510,McDonald's,,57.0,2.0,$,"Fast Food, Burgers, Coffee & Tea",34.0439121051737,34.0439121051737,sbR-cqUPSKNbtaZZgqvOaQ,,MCDONALD'S #5330,13814 E VALLEY BLVD,LA PUENTE
511,McGeady's Pub,,23.0,3.5,$,"Pubs, Dive Bars, Pool & Billiards",33.7896049,33.7896049,8dRqnLwBp_uwisNhMyXzyQ,,MCGEADY'S PUB,1853 PACIFIC COAST HWY,LOMITA
512,Gloria's Country Butcher,,19.0,3.0,$$,"Grocery, Butcher",33.9307304,33.9307304,-MD7nnDyjqR1PcC4sXAHKA,,GLORIA COUNTRY BUTCHER SHOP-,12161 PARAMOUNT BLVD,DOWNEY
513,Mary's Bakery,,22.0,4.5,$,Bakeries,33.9872912,33.9872912,ubVYIy62ZEnFGVasmY6Pcg,,MARY'S BAKERY,4523 SLAUSON AVE,MAYWOOD
514,Eight Ball Billiards,,4.0,4.5,$,Pool Halls,33.99221,33.99221,4T63Sbw4x_fxEAiwP1cwUw,,EIGHT BALL BILLARDS,5250 ATLANTIC BLVD,MAYWOOD
515,At Home Kitchen,,398.0,4.5,$,Japanese,33.878627,33.878627,ypj8Smb2_oE5TjH3Momu4g,,AT HOME KITCHEN,16814 S VERMONT AVE,GARDENA
516,Masan Restaurant,,107.0,3.0,$$,"Seafood, Korean",34.0527949,34.0527949,uhtCFJ-YulTy3637nHKoWQ,,MASAN,2851 W OLYMPIC BLVD,LOS ANGELES
517,,,,,,,,,,,THE GRILL,201 PALISADES BEACH RD,SANTA MONICA
518,Conchita's Pupuseria,,132.0,3.5,$,Salvadoran,33.967791064238035,33.967791064238035,0s9q84gR_8dxmXUgN2EG5w,,"CONCHITA'S RESTAURANT, #2",7501 ATLANTIC AVE STE B,CUDAHY
519,Twin Dragon Chinese Restaurant,,511.0,3.0,$$,Chinese,34.05399,34.05399,htj5-gR48XtGqT_wmv7KNw,,THE TWIN DRAGON,8597 W PICO BLVD,LOS ANGELES
520,,,,,,,,,,,SAM MUSHMELL,4418 W VICTORY BLVD,BURBANK
521,La Primera Meat Market,,2.0,3.0,$,Meat Shops,34.1034525666784,34.1034525666784,25Wpp-gsfgs8Ie6WKo3zzw,,LA PRIMERA MEAT MARKET,5004 CALMVIEW AVE,BALDWIN PARK
522,Ying's Chinese Food,,9.0,3.5,$,Chinese,34.04714,34.04714,-BIGODoAaResFvhM43WXUw,,YING'S CHINESE FOOD,1648 TYLER AVE STE G,SOUTH EL MONTE
523,Food 4 Less,,23.0,3.0,$$,Grocery,33.77907,33.77907,yR6k4oYsTyO9hbqzGRzW5g,,FOOD 4 LESS #760 - SERVICE DELI,336 W ANAHEIM ST,WILMINGTON
524,Auntie Anne's,,72.0,3.5,$,Pretzels,34.134114,34.134114,fLtvaLJp0TAeA_1x2Jy0mA,,AUNTIE ANNE'S,400 S BALDWIN AVE # #E-5,ARCADIA
525,,,,,,,,,,,MAGGY'S SHOP,2030 W WASHINGTON BLVD,LOS ANGELES
526,M'Dear's Bakery and Bistro,,260.0,3.0,$$,"Bakeries, Southern, Soul Food",33.831697,33.831697,4im1G5ncze9Rm0VGTYqRng,,M'DEARS BAKERY & BISTRO,2450 S CARSON ST,LAKEWOOD
527,Bravo Burgers,,224.0,3.5,$,Burgers,34.06976,34.06976,uphfBCp_FjCpdh8xC6aR4A,,BRAVO BURGERS,1215 WHITE AVE,POMONA
528,Carson Burgers,,102.0,3.0,$,Burgers,33.8320145756006,33.8320145756006,vaeNtwiUVUKtVuomrc213w,,CARSON BURGER,21680 S WILMINGTON AVE,CARSON
529,La Joconde Pastry,,142.0,4.5,$,"Bakeries, Custom Cakes, Cupcakes",34.2332555,34.2332555,XeeXd_AOeH8gMGh3nJplMg,,LA JOCONDE PASTRY,3450 FOOTHILL BLVD,LA CRESCENTA
530,The L.A. Grand Hotel Downtown,,311.0,2.5,$$$,Hotels,34.0548840811745,34.0548840811745,7hCUHqycC488JeavBCW_0Q,,THE LA HOTEL DOWNTOWN -  MAIN KITCHEN,333 S FIGUEROA ST # 104,LOS ANGELES
531,L.A. Kitchen,,10.0,3.0,$,"Chinese, Bubble Tea, Ice Cream & Frozen Yogurt",34.0565869194459,34.0565869194459,2WDGL3V5zfmyMvpfAf0pCw,,BEST LA KITCHEN,696 S ALVARADO ST,LOS ANGELES
532,American Legion,,5.0,2.5,,Community Service/Non-Profit,34.098471,34.098471,oISJc_UwlGORIVfqt9c08Q,,AMERICAN LEGION POST #241,4725 MAINE AVE,BALDWIN PARK
533,,,,,,,,,,,AMDA MARKET,1777 VINE ST FL3,LOS ANGELES
534,,,,,,,,,,,STAND A,1201 S FIGUEROA ST,LOS ANGELES
535,Taco Bell,,81.0,2.0,$,"Fast Food, Mexican",33.995477,33.995477,3qG5Z_eDypjt9do4o0JkkA,,TACO BELL #19903,2136 S HACIENDA BLVD,HACIENDA HEIGHTS
536,Ralphs,,149.0,3.0,$$,Grocery,34.14418,34.14418,bpjhA4_xvhjb2LGlKVrfBw,,RALPHS GROCERY CO #701-DELI,12842 VENTURA BLVD,STUDIO CITY
537,Blue Butterfly Coffee Co,,775.0,4.0,$,"Coffee & Tea, Sandwiches, Breakfast & Brunch",33.92054,33.92054,LF0WPh6jvEdv6dkFMEM1VQ,,BLUE BUTTERFLY COFFEE CO,351 MAIN ST,EL SEGUNDO
538,Stamp Proper Foods,,305.0,4.0,$$,"Gluten-Free, Vegetarian, Vegan",34.1114549,34.1114549,tfb4cmzXA0YmKg0L0ZViEw,,STAMP PROPER FOODS - RESTAURANT,4500 LOS FELIZ BLVD UNIT C,LOS ANGELES
539,Industry Bar and Grill,,242.0,3.5,$$,"American (New), Steakhouses, Gastropubs",34.14067,34.14067,62-sc-sBYkpyrR6hXTl01g,,INDUSTRY BAR AND GRILL,26787 AGOURA RD STE E1,CALABASAS
540,Taqueria Dora,,3.0,3.5,,Mexican,33.90901,33.90901,YRq_ECfO4n6ybjA8YMSBxA,,TAQUERIA DORADO #2,13426 1/2 S WOODRUFF AVE,BELLFLOWER
541,,,,,,,,,,,H2O,11702 108 IMPERIAL HWY,NORWALK
542,Zono Sushi,,243.0,4.0,$$,"Sushi Bars, Japanese",34.1839141,34.1839141,OPJuAItYEd4ZhhbaOHuv_g,,ZONO SUSHI,610 N FIRST ST,BURBANK
543,The Vitamin Barn,,92.0,4.5,$$,Health Markets,34.034172,34.034172,lczBFinswzHp607r7zbA2w,,VITAMIN BARN,23823 W MALIBU RD,MALIBU
544,Wetzel's Pretzels,,5.0,2.5,$,Pretzels,34.0719009,34.0719009,Zkje6eLFRULDKun-gdCqUg,,WETZEL'S PRETZELS,3250 BIG DALTON AVE # 803,BALDWIN PARK
545,,,,,,,,,,,MAIN BAR,114 E 2ND ST,LOS ANGELES
546,Mariscos Maria's Restaurant,,148.0,3.5,$$,"Mexican, Seafood",34.03588,34.03588,Me8tzKp1WhKinnd44OvQ4A,,MARISCOS MARIA'S EXPRESS #2,2215 S VERMONT AVE STE 104,LOS ANGELES
547,,,,,,,,,,,HICDAS CANDIES INSIDE SWAPME,7355 LANKERSHIM BLVD # 45,NORTH HOLLYWOOD
548,Cafe Cuba & Cakes,,322.0,4.0,$,"Coffee & Tea, Custom Cakes",33.9216756607608,33.9216756607608,3j4OcsZpSYSmUmw1yiLSJQ,,CAFE CUBA & CAKES,12215 S HAWTHORNE BLVD,HAWTHORNE
549,Margarita's Mexican Cafe,,30.0,3.5,$,Mexican,33.9969177246094,33.9969177246094,6Q7PQ0crjqY1pv5RbxTdEA,,MARGARITAS CAFE,5026 S CRENSHAW BLVD,LOS ANGELES
550,Flowerboy Project,,108.0,4.0,$,"Cafes, Florists",33.99922,33.99922,fMv_najQZnX7vk1A8wJUhg,,FLOWER BOY PROJECT,824 LINCOLN BLVD,VENICE
551,Tommy's Burgers,,15.0,3.0,$,Burgers,33.9600503867791,33.9600503867791,ihCSkXnstPwbU_7mIzFqjw,,TOMMY'S BURGER,7937 EASTERN AVE,BELL GARDENS
552,Toyo Bowl,,79.0,4.5,$,"Japanese, Chinese, Sushi Bars",33.743857,33.743857,l4uu1vCNibYb-XkTPSP14w,,TOYO BOWL,134 N GAFFEY ST STE F,SAN PEDRO
553,The Gate To the Mediterranean,,375.0,3.5,$$,"Mediterranean, Middle Eastern, Venues & Event Spaces",34.1598,34.1598,9i0aRrGaKsK5ox1H2oL7aQ,,THE GATE,16925 VENTURA BLVD,ENCINO
554,Ai Hoa Market,,68.0,3.0,$,International Grocery,34.063959595698,34.063959595698,H7TXj35yR0IWjCQoXhfNmg,,A1 HOA SUPERMARKET,860 N HILL ST,LOS ANGELES
555,Health Nut - Woodland Hills,,679.0,4.0,$$,"Sandwiches, Salad, Wraps",34.1579589,34.1579589,WI9S2lkV6ep7yMqHGXtfCA,,HEALTH NUT,23373 MULHOLLAND DR,WOODLAND HILLS
556,A & S Market,,40.0,4.5,$$,Grocery,34.0167784,34.0167784,Z1hqShNUw8o4mgCbLpCfLw,,A & S MARKET,10867 VENICE BLVD,LOS ANGELES
557,The Sushi House,,847.0,4.0,$$,"Japanese, Sushi Bars",34.1395973199058,34.1395973199058,1S31O0oQhfyH7_UM-AcZEA,,THE SUSHI HOUSE,11388 VENTURA BLVD,STUDIO CITY
558,Raspadoxpress,,82.0,3.0,$,"Mexican, Juice Bars & Smoothies",34.2255548069408,34.2255548069408,xavXigV3zqxQqJiVEJi59Q,,RASPADOXPRESS CO,8610 VAN NUYS BLVD STE 11,PANORAMA CITY
559,Food 4 Less,,61.0,3.0,$,Grocery,33.8036681313923,33.8036681313923,AIje7PRyAOTHnmLa0D5TfQ,,FOOD 4 LESS #772 - DELI DEPT,1600 E WILLOW ST,SIGNAL HILL
560,Lakewood Country Club Maintenance,,3.0,3.5,,Golf,33.8326049,33.8326049,8AcrIxxHrkZMCzeg0wEBEw,,LAKEWOOD COUNTRY CLUB,3101 E CARSON ST,LAKEWOOD
561,Starbucks,,113.0,2.5,$$,Coffee & Tea,33.887704,33.887704,g2ldfV2yjU-Yd7r0H-Lh3g,,STARBUCKS #9321,15905 VALLEY VIEW AVE,SANTA FE SPRINGS
562,Ciccero's Pizza,,246.0,3.5,$,"Pizza, Salad, Sandwiches",34.03206,34.03206,jFInRB3cvdjf1Wvs32wftQ,,CICCERO'S PIZZA,11651 W PICO BLVD,LOS ANGELES
563,Road To Seoul,,3740.0,4.0,$$,"Korean, Barbeque",34.04847,34.04847,FlL2h3iROzhAIVBp3OaA9g,,ROAD TO SEOUL,1230 S WESTERN AVE,LOS ANGELES
564,Cafe Bliss,,85.0,3.5,$$,"Bars, Karaoke",34.0637349,34.0637349,PE4a4KUf6TiMQnXh_WuapA,,BLISS,3465 W 6TH ST # 200,LOS ANGELES
565,Washington Mobil Service,,9.0,4.0,,Gas Stations,34.033829,34.033829,khWq81vkeDOstzUUj9CVOw,,WASHINGTON MOBIL SERVICE,5776 WASHINGTON BLVD,CULVER CITY
566,A Mi Hacienda,,85.0,2.5,$$,"Mexican, Dance Clubs",33.9970544,33.9970544,OGnxOfS2oKNPzeyqaONK7Q,,A MI HACIENDA,9613 WHITTIER BLVD,PICO RIVERA
567,Arcadia Blues Club,,64.0,3.5,$$,Jazz & Blues,34.139736,34.139736,ukuEl_A2utvg1t1er4jIdw,,ARCADIA BLUES CLUB,16 E HUNTINGTON DR,ARCADIA
568,Cindy's Kitchen,,104.0,4.0,$,"Taiwanese, Chinese",33.9862236104698,33.9862236104698,VCp-H452vJf-GPm3lDZddg,,CINDY'S KITCHEN,16409 COLIMA RD,HACIENDA HEIGHTS
569,Colorado Bakery,,6.0,5.0,$,Bakeries,34.1422348022461,34.1422348022461,MeGN78ZLNrdDUY6F3Rr01A,,COLORADO BAKERY,464 W COLORADO ST,GLENDALE
570,Casa Ado,,316.0,4.0,$$,"Italian, Pizza, Desserts",33.979087,33.979087,cxFp0hDqaJPyiIUdqJ8Szg,,CASA ADO,12 WASHINGTON BLVD,MARINA DEL REY
571,,,,,,,,,,,SPECIALTY LAB,27027 TOURNEY RD,VALENCIA
572,Lindo Acapulco,,23.0,3.5,$,Restaurants,33.9020649,33.9020649,NG7ijrcxeAGRGNNbbP8e8w,,RESTAURANT LINDO ACAPULCO,3627 W ROSECRANS AVE,HAWTHORNE
573,La Plancha,,19.0,3.5,$,Latin American,34.056233,34.056233,E1oHlgnAkVBWxjth-TQIyw,,LA PLANCHA,2814 W 9TH ST,LOS ANGELES
574,Hungry Howie's Pizza,,199.0,3.0,$,Pizza,34.15927,34.15927,LY4R2Rdp5V8sRdzHPflTSg,,HUNGRY HOWIES PIZZA,600 W GLENOAKS BLVD,GLENDALE
575,Champion Donuts,,27.0,4.0,$,"Restaurants, Donuts",34.07409,34.07409,rIbR_JFhQG7GEGECqm1HjA,,CHAMPION DONUTS,3209 N BROADWAY,LOS ANGELES
576,Panda Express,,100.0,2.5,$,"Chinese, Fast Food",34.1954189165362,34.1954189165362,Tb7S0jV_dRnuveh9hmqotA,,PANDA EXPRESS #575,6859 TOPANGA CANYON BLVD,CANOGA PARK
577,,,,,,,,,,,YANG PYUNG RESTAURANT,1722 DESIRE AVE STE #108,ROWLAND HEIGHTS
578,M & M Soul Food,,442.0,3.0,$$,Soul Food,33.871826171875,33.871826171875,6JWfQ2n1fDEcqVDjdXHDtA,,VENTMAC M&M RESTAURANT,335 E ALBERTONI ST STE 300,CARSON
579,Bristol Farms - West Hollywood,,299.0,3.5,$$$,"Grocery, Specialty Food, Beer, Wine & Spirits",34.077516,34.077516,JrZhmjwLTXqbOcOG_UR5DQ,,BRISTOL FARMS-BAKERY,9039 BEVERLY BLVD,WEST HOLLYWOOD
580,Burger King,,24.0,1.5,$,"Burgers, Fast Food",33.97408,33.97408,jC3z9QqrqnECAiyIv1z0oA,,BURGER KING #06023,7201 S FIGUEROA AVE,LOS ANGELES
581,Little Beast Restaurant,,1066.0,4.0,$$,"American (New), Tapas/Small Plates, Wine Bars",34.138895,34.138895,Nn3rNICi-PION5O8wrK_LA,,THE LITTLE BEAST RESTAURANT,1496 COLORADO BLVD,LOS ANGELES
582,3rd Street Pizza,,121.0,4.5,$,Pizza,34.1070968573447,34.1070968573447,-3gunuBWbiHykY-2RcgsFg,,3RD STREET PIZZA,671 E BONITA AVE # C,SAN DIMAS
583,Daily Grill,,292.0,3.5,$$,"American (Traditional), Steakhouses, Breakfast & Brunch",34.030017,34.030017,RKzgXZ-PUS_LTnActzcH4Q,,DAILY GRILL,2501 COLORADO AVE,SANTA MONICA
584,Greenleaf Chopshop,,501.0,3.5,$$,"Salad, American (New), Breakfast & Brunch",34.102149,34.102149,ccsNnD4Vrdi9KGOKjQykwA,,GREENLEAF CHOP SHOP,6201 HOLLYWOOD BLVD # 120,LOS ANGELES
585,Bushi by JINYA,,128.0,4.0,$$,Ramen,34.06183581532949,34.06183581532949,eaQHpwPVnYc_mcF6d_7XcA,,BUSHI BY JINYA,5168 WILSHIRE BLVD,LOS ANGELES
586,India's Oven,,238.0,3.5,$$,Indian,34.0484263,34.0484263,MDv7OdjUTOa0slgDF4g_aQ,,NEW INDIA'S OVEN,1896 WESTWOOD BLVD,LOS ANGELES
587,Ten Ren's Tea Time,,659.0,3.5,$,"Coffee & Tea, Bubble Tea, Ramen",34.0679222820735,34.0679222820735,zGK-Ofb6ZuSZt3lBk_TpnA,,TEN REN'S TEA TIME,500 N ATLANTIC BLVD STE 179,MONTEREY PARK
588,L&L Hawaiian Barbecue,,107.0,3.0,$,"Hawaiian, Barbeque",34.0118220334046,34.0118220334046,j5foXtguxu-IuExlUPg_gw,,L & L HAWAIIAN BARBEQUE,1916 LINCOLN BLVD,SANTA MONICA
589,Christine Donuts,,28.0,3.5,$,Donuts,33.9359664916992,33.9359664916992,IOr6yY1l8ranJl0gik-TTg,,CHRISTINE'S DONUT,10708 ORR AND DAY RD,SANTA FE SPRINGS
590,Mariscos El Puerto Escondido,,63.0,3.5,$$,Mexican,33.9311798,33.9311798,gOzxQiBZsK8K3OR9Ek6UpQ,,EL PUERTO ESCONDIDO,3629 W IMPERIAL HWY,INGLEWOOD
591,El Pollo Loco,,166.0,2.0,$,"Fast Food, Mexican",34.14179,34.14179,MmHU5fb3A0Mwhk2Df4H-dA,,EL POLLO LOCO #5417,262 S ROSEMEAD BLVD,PASADENA
592,Main Event-La Coliseum,,2.0,3.0,$$$,Sporting Goods,34.01367,34.01367,CnNEDnnSbSJ3XCk_JgmCjg,,LA COLISEUM CATERING KITCHEN,3911 S FIGUEROA ST,LOS ANGELES
593,Roma Deli,,415.0,4.5,$$,"Italian, Delis, Sandwiches",34.18813,34.18813,IXAGjpyvIODNG5lzjkiFxQ,,ROMA ITALIAN GROCERIES,6449 LANKERSHIM BLVD,NORTH HOLLYWOOD
594,California Market,,54.0,3.5,$,Grocery,34.0764049,34.0764049,9x9zf7Pr7CWrNPGglXE4zg,,BEVERLY CALIFORNIA MARKET,4317 W BEVERLY BLVD,LOS ANGELES
595,Tutti Frutti,,40.0,2.5,$,Ice Cream & Frozen Yogurt,34.005962,34.005962,wjrc2yGJG0d8P3FrKQPl-Q,,TUTTI FRUTTI YOGURT,100 CITADEL DR STE 204,COMMERCE
596,Sushi Sumo,,700.0,4.0,$$,"Sushi Bars, Conveyor Belt Sushi",33.8883005,33.8883005,z7K4y9_861MMeYcy-nhrIw,,SUSHI SUMO,1831 W REDONDO BEACH BLVD,GARDENA
597,China King Restaurant In & Out,,74.0,3.5,$,"Chinese, Coffee & Tea",34.27443,34.27443,mKVg7wC6M4YdlP3LOG98cA,,CHINA KING,19480 RINALDI ST,PORTER RANCH
598,,,,,,,,,,,JINGMOMMY.COM,810 N NOGALES AVE,WALNUT
599,Joss Cuisine,,220.0,4.0,$$$,Chinese,34.06518,34.06518,m2zHSQeVpIPiE0k6acJjxg,,JOSS CUISINE,9919 S SANTA MONICA BLVD,BEVERLY HILLS
600,The Granada Restaurant,,359.0,3.5,$$,Mexican,34.184454,34.184454,BNau-Q7FoCd62Ww6ysLSqQ,,GRANADA RESTAURANT,1100 W VICTORY BLVD,BURBANK
601,The Rice Teriyaki Sushi Roll,,108.0,3.0,$,Japanese,33.900589,33.900589,4JhRG-_e8jt58QWk2037mQ,,THE RICE TERIYAKI SUSHI ROLL,1570 ROSECRANS AVE STE P,MANHATTAN BEACH
602,Dai Ho Restaurant,,447.0,3.5,$$,"Taiwanese, Chinese, Noodles",34.1048485328965,34.1048485328965,U3gysL-zKPhLmvM3nwnMFw,,DAI HO RESTAURANT,9148 LAS TUNAS DR,TEMPLE CITY
603,Mongolian BBQ,,194.0,4.0,$,"Mongolian, Barbeque",34.1174575505273,34.1174575505273,q6kKHPi69XvNpoQGZZNSww,,MONGOLIAN BBQ & CHINESE FOOD,319 S AZUSA AVE,AZUSA
604,Fleming's Prime Steakhouse & Wine Bar,,542.0,4.0,$$$,"Steakhouses, Wine Bars",34.0682325,34.0682325,7xzXFymQpymKlseLPyt7pg,,FLEMING'S PRIME STEAKHOUSE,252 N BEVERLY DR,BEVERLY HILLS
605,,,,,,,,,,,TORTILLERIA,3180 N GAREY AVE,POMONA
606,Rice Heaven,,120.0,4.0,$,"Japanese, Korean",33.789283,33.789283,zPNYdd3jet0NFBNqO7hwzw,,RICE HEAVEN,2937 ROLLING HILLS RD,TORRANCE
607,,,,,,,,,,,SOUTH GATE CONCESSION,7900 ALL AMERICA CITY WAY,PARAMOUNT
608,Rice Queen,,66.0,3.0,$,Chinese,33.789655,33.789655,OPDhc7UWD7nbO9_pGAqJYQ,,RICE QUEEN,1605 W PACIFIC COAST HWY STE 109,HARBOR CITY
609,La Flor De Izote Restaurant,,89.0,3.5,$,Spanish,33.9635198,33.9635198,p909iSuDCazTqJFrK3uxKg,,LA FLOR DE IZOTE,8232 S SANTA FE AVE,HUNTINGTON PARK
610,Tasty Goody Venice,,140.0,4.0,$,"Chinese, Vietnamese, Fast Food",33.9995161160281,33.9995161160281,UGs_gECVIrvxTrmSnp4i6g,,TASTY GOODY,715 LINCOLN BLVD,VENICE
611,,,,,,,,,,,VON'S DELI,5671 KANAN RD,AGOURA HILLS
612,Superior Grocers,,45.0,2.5,$$,"Grocery, Bakeries, Meat Shops",33.917403,33.917403,6Wb3sLBL3RC2RBNMXdpfcQ,,SUPERIOR GROCERS #146 - MEAT DEPT,12630 HAWTHORNE BLVD,HAWTHORNE
613,La Market,,1.0,5.0,,Grocery,34.0443382263184,34.0443382263184,05LOBifzQHGCrpo9UpJ_2w,,L A MARKET,4101 E FLORAL DR,LOS ANGELES
614,Jay's Bar,,305.0,4.5,$$,"Bars, Gastropubs, American (New)",34.095228,34.095228,8lZCdZ7-z3DlRWxmK8sUpA,,JAY'S BAR,4321 W SUNSET BLVD,LOS ANGELES
615,Gina's Taco,,241.0,4.0,$,"Meat Shops, Mexican",34.1424749046564,34.1424749046564,uZ764-TUudCPyl17AS4UjQ,,GINA'S TACO,470 W COLORADO ST,GLENDALE
616,Pho 45,,805.0,4.5,$,"Vietnamese, Soup",33.915247,33.915247,n43eoDXjZr1xtxW0OnPjyA,,PHO 45,12810 LA MIRADA BLVD,LA MIRADA
617,Library Bar,,1780.0,4.0,$$,"American (New), Cocktail Bars",34.04939,34.04939,wtp1izuuno7wsPBhPRcGqw,,LIBRARY BAR,630 W 6TH ST STE 116A,LOS ANGELES
618,Edge Cafe Big Screen Cuisine,,2.0,2.5,,Cafes,34.1971,34.1971,z7mfAGjnk99xGMuqdMZD6w,,THE EDGE CAFE,18420 HART ST,RESEDA
619,,,,,,,,,,,ASI ES MI TIERRA RESTAURANT,17529 SIERRA HWY # 13,CANYON COUNTRY
620,Maloney Meat Co,,35.0,4.0,$$,Meat Shops,33.95512,33.95512,5xQnulb4Hpb_P_mYkwXWqQ,,MELONEY MEAT COMPANY,3255 FIRESTONE BLVD,SOUTH GATE
621,La Palma,,133.0,4.5,$,"Salvadoran, Mexican",34.1260854,34.1260854,18kGSc6qVeMR-bxABNTxhQ,,LA PALMA SALVADOREAN & MEXICAN CUISINE,310 N CITRUS AVE # B,AZUSA
622,Ken's Liquor & Market,,3.0,3.5,,"Beer, Wine & Spirits, Grocery",33.97224,33.97224,yc5X3cIrhrz4csXv7EYOSg,,KENIS LIQUOR,6848 GAGE AVE,BELL GARDENS
623,El Taco Mexicano No 2,,65.0,4.5,$,Mexican,34.00369,34.00369,4w3rjG89m7kEWiwdwrET_Q,,EL TACO MEXICANO,1300 E VERNON AVE,LOS ANGELES
624,Robin Hood British Pub,,483.0,4.0,$$,"British, Pubs, Fish & Chips",34.17208,34.17208,Ei1aQrXl-00iNDU-EQQ6Bw,,ROBIN HOOD,13640 BURBANK BLVD,VAN NUYS
625,,,,,,,,,,,KENTUCKY FRIED CHICKEN #119,3061 SAWTELLE BLVD,LOS ANGELES
626,Christina's Market,,5.0,4.0,$,"Grocery, Beer, Wine & Spirits",34.0307016,34.0307016,V4uSlI1_hOe6rN0HzlUfSw,,CHRISTINA'S MARKET,2715 S VERMONT AVE,LOS ANGELES
627,Starbucks,,172.0,3.5,$,Coffee & Tea,34.07158,34.07158,KvUWbcirS6rGWktuMVrFXQ,,STARBUCKS COFFEE #6713,9208 FLAIR DR STE A,EL MONTE
628,Valencia Car Wash,,378.0,2.0,,"Car Wash, Oil Change Stations, Auto Detailing",34.422128,34.422128,mjzsTNbi71guAwuVfEQ8Uw,,VALENCIA CAR WASH,24233 CREEKSIDE RD,VALENCIA
629,Casita del Campo,,698.0,3.5,$$,"Mexican, Seafood, Bars",34.09745,34.09745,RdLz9GVW48pu2XmhrMsLUg,,CASITAS DEL CAMPO,1920 HYPERION AVE,LOS ANGELES
630,Sushi Bar Cafe Hikari,,494.0,3.5,$$,Sushi Bars,34.0360995031932,34.0360995031932,gnIVlTHBF3i3eiDdBJke_Q,,HIKARI SUSHI,1864 MONTEBELLO TOWN CTR,MONTEBELLO
631,Pizza Hut,,81.0,2.0,$,"Pizza, Italian, Chicken Wings",33.848317,33.848317,5JvyOM5rfHnGH2yGh65aig,,PIZZA HUT #026148,20305 ANZA AVE STE D,TORRANCE
632,King Donut,,7.0,4.5,,"Donuts, Juice Bars & Smoothies, Burgers",34.02785,34.02785,g2aZQUkBmYgGHR6MEQKtlQ,,HONG KONG EXPRESS/KING DONUT,2959 CRENSHAW BLVD,LOS ANGELES
633,Thai Dishes on Broadway,,599.0,3.0,$$,Thai,34.0133869,34.0133869,T2FLc2pQMTdAYQn2635P5Q,,THAI DISHES ON BROADWAY,123 BROADWAY,SANTA MONICA
634,La Michoacana,,59.0,4.0,$,Ice Cream & Frozen Yogurt,34.022562,34.022562,kJpAEdh0P2WMEO-lp2wnVg,,LA MICHOACANA,151 S HACIENDA BLVD STE #B,HACIENDA HEIGHTS
635,Berri's Pizza,,272.0,3.5,$$,"Pizza, Sandwiches, Salad",34.0980949,34.0980949,lHtRrThbsULBQ1MxdVkWgA,,"BERRI'S KITCHEN HOLLYWOOD, LLC",7123 SUNSET BLVD,LOS ANGELES
636,,,,,,,,,,,DONA ELSA PAN Y CAFE,5102 YORK BLVD,LOS ANGELES
637,Arko Foods International,,183.0,3.5,$,"Grocery, Filipino, Seafood",34.14312,34.14312,KwCq01tHFRaaTbnCeshrGg,,ARKO FOODS-KITCHEN,1425 E COLORADO ST,GLENDALE
638,Andre's Italian Restaurant,,1230.0,4.0,$,"Italian, Pizza",34.0711906,34.0711906,-CW_jNF0-x1RAhlGjX3JUg,,ANDRE'S PRODUCTION KITCHEN,6332 W 3RD ST # 18-10,LOS ANGELES
639,7-Eleven,,17.0,3.5,$,"Convenience Stores, Coffee & Tea",34.0892412234654,34.0892412234654,NDulwLNtqgtQacbz2kaBqg,,7-ELEVEN #17635-E,1647 SILVER LAKE BLVD,LOS ANGELES
640,Alex Discounts & party supplies,,3.0,5.0,,"Party Supplies, Bounce House Rentals",33.956865,33.956865,_PMcwhQMXQi4W23IDxUYGw,,ALEX DISCOUNT STORE,8209 EASTERN AVE,BELL GARDENS
641,Pie Street Pizza,,84.0,4.5,$,Pizza,34.094242381405,34.094242381405,O2Ovf3e7tpPY3D4-2S-jOA,,PIE ST.,1 N INDIAN HILL BLVD # 105,CLAREMONT
642,Prime Steakhouse,,310.0,3.5,$$$,"Steakhouses, Wine Bars, Salad",34.1430464730181,34.1430464730181,lEaeJoNWxNGvzP8n7f7IsQ,,PRIME STEAKHOUSE,29020 AGOURA RD,AGOURA HILLS
643,Carl's Jr.,,63.0,2.0,$,Fast Food,34.1651191711426,34.1651191711426,zs-SYWKELXpnDAYETGGqHA,,CARL'S JR,18025 VENTURA BLVD,ENCINO
644,Rolling Wok,,28.0,3.0,$,Chinese,34.07969,34.07969,8U1C6kX3juzUaENI8Iomlg,,ROLLING WOK,1609 S SAN GABRIEL BLVD,SAN GABRIEL
645,Luxe Spa,,20.0,3.0,$$,Day Spas,34.0729408,34.0729408,bykVzb06Ungzdo0tYd2fPw,,LUXE LOUNGE BAR,11461 W SUNSET BLVD,LOS ANGELES
646,Tom's Jr Famous Burger,,29.0,4.0,$,"Burgers, Mexican",34.24713,34.24713,HgbFSmGYkflISC-zpLxuaA,,TOMMIES JR FAMOUS CHILI BURG,9756 GLENOAKS BLVD,SUN VALLEY
647,,,,,,,,,,,"LE BISTRO CAFE, INC.",3000 LOMITA BLVD,TORRANCE
648,Jimmy John's,,74.0,3.0,$,"Delis, Sandwiches, Fast Food",34.140008,34.140008,P9Gg2dj3JqKJ9lYpegu1DQ,,JIMMY JOHN'S,672 W HUNTINGTON DR,MONROVIA
649,,,,,,,,,,,FRANK'S LIQUOR,5742 E BEVERLY BLVD,LOS ANGELES
650,Kelly's Shell-Castaic,,13.0,3.0,,Gas Stations,34.4900697469711,34.4900697469711,pHRPw9WMRbgVZKjad7TonQ,,KELLY'S SHELL,31428 RIDGE ROUTE RD,CASTAIC
651,Jamba Juice,,18.0,3.5,$,Juice Bars & Smoothies,33.8652634200843,33.8652634200843,rh-nl7Nx9z6qCMbG1JBKog,,JAMBA JUICE #1334,1000 E VICTORIA ST # 229,CARSON
652,,,,,,,,,,,BERRIS PIZZA,8412 W 3RD ST,LOS ANGELES
653,Palomino Market,,2.0,3.0,,Grocery,33.9817604,33.9817604,o6PWiKkBsxxHsel0zRrfCQ,,PALOMINO MARKET,6159 HELIOTROPE AVE,MAYWOOD
654,,,,,,,,,,,GONZALEZ FLOWERS & PARTY SUPPLIES,7903 ALIX AVE,LOS ANGELES
655,Walnut Liquorette,,56.0,5.0,$$,"Beer, Wine & Spirits",34.0172901448781,34.0172901448781,P0Zth3iD8akY2RTuCbpCHQ,,WALNUT LIQUORETTE,154 N PIERRE RD,WALNUT
656,Whole Foods Market,,639.0,3.5,$$,Grocery,34.04571,34.04571,Dn_V3mScbXOpVPn0w2gcMg,,WHOLE FOODS MARKET,770 S GRAND AVE,LOS ANGELES
657,La Sosta Enoteca,,22.0,3.5,$$$$,Italian,33.9014030627461,33.9014030627461,O87XkdYM6fezx23S0k6CLA,,LA SOSTA ENOTECA,3713 HIGHLAND AVE,MANHATTAN BEACH
658,Champagne French Bakery Cafe,,119.0,3.5,$$,Bakeries,34.0226671,34.0226671,zCFHGj8x59BZ1wX7j0fjJg,,CHAMPAGNE FRENCH BAKERY,11709 NATIONAL BLVD,LOS ANGELES
659,,,,,,,,,,,CAT'S MINI MARKET,2405 WILMINGTON AVE,COMPTON
660,,,,,,,,,,,MOBIL MART,1020 W AVENUE M,PALMDALE
661,Burbank Liquor & Food Market,,14.0,1.5,$,"Beer, Wine & Spirits",34.1803700887914,34.1803700887914,V3uNwN65gL_n-Mj6DMuDaA,,BURBANK MARKET AND LOQUOR,500 S GLENOAKS BLVD,BURBANK
662,,,,,,,,,,,RALPHS #245 MEAT DEPT,11825 E WHITTIER BLVD,WHITTIER
663,The Habit Burger Grill,,140.0,4.0,$,"Burgers, Salad, Sandwiches",34.1283260866683,34.1283260866683,LcsnxUWPJsp1JSt1ECv1zA,,THE HABIT BURGER GRILL #64,834 E ALOSTA AVE,AZUSA
664,,,,,,,,,,,54TH ST MARKET,2731 W 54TH ST,LOS ANGELES
665,Vons,,234.0,2.0,$$,"Grocery, Pharmacy",34.1294284739676,34.1294284739676,58GfA_dOfTjS5YWZTz1MTw,,FUJI FOODS-SUSHI-VONS #2254,311 LOS FELIZ BLVD,GLENDALE
666,Taco Bell,,29.0,1.5,$,"Mexican, Fast Food",34.03092,34.03092,ZdBTD32tyK4cUII-OaNMyw,,TACO BELL/PIZZA HUT,2800 S CRENSHAW BLVD,LOS ANGELES
667,Martita's Mexican Restaurant,,22.0,4.5,$,Mexican,34.0784552640991,34.0784552640991,Qr4VqR65FdJCgp0eaOVlNg,,MARTITA'S MEXICAN RESTAURANT,2657 PASADENA AVE,LOS ANGELES
668,Louisiana Fried Chicken,,10.0,3.0,$,Chicken Wings,34.0257981770513,34.0257981770513,Ys27bNZdVRCMStBN7ZKGqA,,LOUISIANA FRIED CHICKEN,2103 W JEFFERSON BLVD,LOS ANGELES
669,Lakewood Regional Medical Center,,270.0,2.0,,Medical Centers,33.85994,33.85994,_Fer8IC3jx0wsKrsbKUHfg,,LAKEWOOD REGIONAL MED CENTER KITCHEN & CAFE,3700 E SOUTH ST,LAKEWOOD
670,Mongolian Hashen BBQ,,100.0,3.5,$,Mongolian,34.1395550340486,34.1395550340486,ZM5r069nR6Z70h3OELlHYg,,MONGOLIAN HASHEN BBQ,1164 E HUNTINGTON DR,DUARTE
671,Papa John's Pizza,,77.0,2.5,$,Pizza,33.8320708,33.8320708,NDRfdRCPzXnkV4gqSaD87g,,PAPA JOHN'S PIZZA,105 W CARSON ST,CARSON
672,Pescaderia Mr Fish,,280.0,4.0,$,"Seafood, Seafood Markets, Mexican",34.1038489,34.1038489,Nb2awF1DN5tyf8-oRyMROg,,PESCADERIA FISH MARKET MR FISH,3109 N GAREY AVE,POMONA
673,,,,,,,,,,,MEJORANDO SU SALUD,2621 SANTA ANA AVE,SOUTH GATE
674,Burger King,,59.0,2.0,$,"Burgers, Fast Food",34.0619335854994,34.0619335854994,MZFM9gN3vVcB4UkwaNAHyQ,,BURGER KING #6042,2085 W HOLT AVE,POMONA
675,Lunch Stop,,1.0,5.0,,Restaurants,34.2842399,34.2842399,RZ5iYPhOLA5THsKw5yr1Fw,,LUNCH STOP,900 3RD ST,SAN FERNANDO
676,Mr Wok,,81.0,3.0,$,"Chinese, Fast Food",34.019834,34.019834,xDL_EMkQXXOePUDFtaD4tw,,MR. WOK,326 S DIAMOND BAR BLVD,DIAMOND BAR
677,,,,,,,,,,,RAUL'S MARKET,11214 S CENTRAL AVE,LOS ANGELES
678,,,,,,,,,,,HOLLYWOOD MARKET,1273 N WILTON PL,LOS ANGELES
679,,,,,,,,,,,CARNICERIA MONARCA,1111 W WASHINGTON BLVD STE #J,MONTEBELLO
680,,,,,,,,,,,STAND 26 BAR 15,285 W HUNTINGTON DR,ARCADIA
681,,,,,,,,,,,BLUEBERRY YUMS,4524 SLAUSON AVE,MAYWOOD
682,Ralphs Gas,,17.0,4.0,,Gas Stations,34.2214070592661,34.2214070592661,UoZ19ikB3NP5kXvGXBZABg,,RALPHS FUEL CENTER,11870 ROSCOE BLVD,SUN VALLEY
683,Growing Healthy,,1.0,5.0,,Grocery,34.1016051,34.1016051,SfrSQa6WnwZdv02IypvX0Q,,GROWING HEALTHY,5160 HOLLYWOOD BLVD,LOS ANGELES
684,Lee's Tofu,,344.0,4.0,$$,"Korean, Soup",34.0405506171311,34.0405506171311,VY1UBFlSUKFO6xuc_tiZ3Q,,LEE'S TOFU,2008 S ATLANTIC BLVD,MONTEREY PARK
685,Berrystar Frozen Yogurt,,32.0,4.0,$,Ice Cream & Frozen Yogurt,34.67377,34.67377,fJYLt9aPGqodD-GJ7MUqAA,,BERRYSTAR FROZEN YOGURT,43530 W 10TH ST W STE #103,LANCASTER
686,Joseph's Cafe,,49.0,2.5,$$,"Dance Clubs, Lounges",34.10373,34.10373,eX2KswySep0bKiIm_1RDxw,,JOSEPHS CAFE,1775 N IVAR AVE,LOS ANGELES
687,Ralphs,,115.0,2.5,$$,Grocery,34.1418535930332,34.1418535930332,3uxccNTMWWvZ1eLM6yyn8A,,RALPHS GROCERY CO #60-MARKET,1416 E COLORADO ST,GLENDALE
688,Ararat Bakery,,94.0,2.5,$$,"Bakeries, Desserts",34.247799,34.247799,41b04iqhI9Z-pqp85EuNiA,,ARARAT BAKERY,7112 FOOTHILL BLVD,TUJUNGA
689,,,,,,,,,,,THAT PIZZA PLACE,2180 WESTWOOD BLVD # 1F,LOS ANGELES
690,Happy Bakery & Donuts,,34.0,4.5,$,"Bakeries, Donuts",34.0955,34.0955,CoC8SGuf0a7mqorsRcvcjw,,HAPPY BAKERY & DONUTS,4550 N LARK ELLEN AVE STE #105,COVINA
691,,,,,,,,,,,1430 N LA BREA LLC,1430 N LA BREA AVE,INGLEWOOD
692,Loreto's Fried Turkey,,78.0,4.0,$,American (Traditional),33.896058,33.896058,0D0zWV5iFdzOCz9uqLuP8g,,LORETO'S FRIED TURKEY,983 W COMPTON BLVD,COMPTON
693,,,,,,,,,,,DOLLAR GENERAL #13696,7724 PEARBLOSSOM HWY,LITTLEROCK
694,Carniceria El Pueblo,,1.0,4.0,,,33.9882316589355,33.9882316589355,-cApteOUtY1lNMfiEwCNOA,,CARNICERIA EL PUEBLITO,3652 E SLAUSON AVE,MAYWOOD
695,Indo Lanka Cash & Carry,,2.0,4.0,,Grocery,34.1939290612936,34.1939290612936,lxijA3j4PuxtQkQSaOsEZQ,,INDO-LANKA CASH & CARRY,16925 VANOWEN ST STE #2,VAN NUYS
696,,,,,,,,,,,COFFEE RUSH,8345 GLENOAKS BLVD,SUN VALLEY
697,Juan's Rotisserie Pollo,,109.0,4.0,$,Mexican,34.0539640188217,34.0539640188217,sxyRrjpXRSP9QwDlfeaolg,,JUAN'S ROTISSERIE POLLO #2,13710 AMAR RD,LA PUENTE
698,Sanchez Restaurant Catering Service,,14.0,5.0,$,"American (New), Mexican, Caterers",33.88424,33.88424,BDLtzMrS0mQ9h2coehs0QA,,SANCHEZ RESTAURANT,12061 E 162ND ST,NORWALK
699,,,,,,,,,,,BONDI HARVEST,1814 BERKELEY ST,SANTA MONICA
700,Energy Bistro & Karaoke,,129.0,4.0,$$,"Bars, Karaoke, Asian Fusion",33.996331,33.996331,2HsVcWIg7gf09IFCbWQivQ,,ENERGY BISTRO,2020 S HACIENDA BLVD # K,HACIENDA HEIGHTS
701,Kikka Sushi,,19.0,3.0,$,"Japanese, Sushi Bars",34.0624175,34.0624175,IQkJikGeMDkeRgoJDEej_Q,,KIKKA RESTAURANT CSULN,5151 STATE UNIVERSITY DR,LOS ANGELES
702,Flip It Café,,173.0,3.5,$$,"Breakfast & Brunch, American (Traditional)",33.9618645955734,33.9618645955734,DVmG0XLWdVCAcQHdJEQB6Q,,FLIP IT CAFE #2,441 E MANCHESTER BLVD,INGLEWOOD
703,Tower Cafe,,7.0,4.5,$,Cafes,34.155656,34.155656,rh11TwT3DAYaRPywWSrK8w,,TOWER CAFE,16000 VENTURA ST 302,ENCINO
704,Teriyaki Sushi House,,163.0,4.0,$,Sushi Bars,33.9464378356934,33.9464378356934,Mafm93t8rXgs8_8uJY50pw,,TERIYAKI HOUSE,9807 LONG BEACH BLVD,SOUTH GATE
705,Le Petit Cafe,,136.0,4.0,$,Cafes,34.1607781,34.1607781,zkAgZts1sFgz4kobwyIvGA,,LE PETIT PATISSERIE,1017 N BRAND BLVD,GLENDALE
706,Chow Express Chinese Food,,24.0,4.5,$,"Chinese, Fast Food",34.2732,34.2732,1zEBDOP9UGmbR10Dy6lEPA,,CHOW EXPRESS CHINESE FOOD,12800 VAN NUYS BLVD STE #3,PACOIMA
707,Great Earth Vitamins,,2.0,5.0,$,Vitamins & Supplements,34.0908149,34.0908149,45pSxGU8K5wz6iq0KYLgew,,GREAT EARTH JUICE BAR,8365 SANTA MONICA BLVD,WEST HOLLYWOOD
708,Nazelie's Lebanese Cafe,,351.0,4.0,$$,"Lebanese, Mediterranean, Armenian",33.726716414094,33.726716414094,xikVdp961pVF2ESTuSXhwg,,NAZELIE'S LEBANESE CUISINE,1919 S PACIFIC AVE,SAN PEDRO
709,7-Eleven,,14.0,2.0,$,"Convenience Stores, Coffee & Tea",33.8121841279319,33.8121841279319,hD6_iMyzQi_YalwlBzNTqw,,7-ELEVEN #13736B,23525 CRENSHAW BLVD,TORRANCE
710,,,,,,,,,,,KENTUCKY FRIED CHICKEN,19080 LA PUENTE RD,WEST COVINA
711,Mirage Venue,,67.0,5.0,,Venues & Event Spaces,34.187019,34.187019,2ddl-W-KHp5ZvO6Zsz5Mvg,,KAFFE MIRAGE,12141 VICTORY BLVD,NORTH HOLLYWOOD
712,KIIN Thai Eatery,,350.0,4.0,$$,"Thai, Asian Fusion",34.1741144,34.1741144,Y_wDxXYPBfzjmVgFrnxN6Q,,SIAM SMILE THAI CUISINE,1907 1/2 W MAGNOLIA BLVD,BURBANK
713,Primo's Donuts,,575.0,4.5,$,"Donuts, Bakeries",34.02704,34.02704,PMc5MEKcHAiZmBv6Mb1_yA,,PRIMO DONUTS,2918 SAWTELLE BLVD,LOS ANGELES
